     2.11           OBSERVATION DATA    M (MIXED)           RINEX VERSION / TYPE
teqc  2016Nov7      IGN-RGP             20180121 22:12:52UTCPGM / RUN BY / DATE
Linux 2.4.21-27.ELsmp|Opteron|gcc|Linux x86_64|=+           COMMENT
teqc  2016Nov7                          20180121 22:12:52UTCCOMMENT
teqc  2016Nov7      IGN-RGP             20180121 22:12:51UTCCOMMENT
teqc  2015Jun23     IGN-RGP             20180121 22:06:27UTCCOMMENT
Linux2.4.20-8|i386|gcc|Win32-MinGW32|=                      COMMENT
   0.000      (antenna height)                              COMMENT
 +48.69934628 (latitude)                                    COMMENT
  +2.61382415 (longitude)                                   COMMENT
0173.439      (elevation)                                   COMMENT
BIT 2 OF LLI FLAGS DATA COLLECTED UNDER A/S CONDITION       COMMENT
19788M001 (COGO code)                                       COMMENT
CT54                                                        MARKER NAME
19788M001                                                   MARKER NUMBER
Automatic           GIE COOP&TECH                           OBSERVER / AGENCY
5011K66138          TRIMBLE NETR5       4.03                REC # / TYPE / VERS
1441009486          TRM55971.00     NONE                    ANT # / TYPE
  4213337.1270   192345.2080  4768687.7740                  APPROX POSITION XYZ
        0.0000        0.0000        0.0000                  ANTENNA: DELTA H/E/N
     1     1                                                WAVELENGTH FACT L1/2
     9    L1    L2    C1    P1    P2    D1    D2    S1    S2# / TYPES OF OBSERV
    30.0000                                                 INTERVAL
    18                                                      LEAP SECONDS
 SNR is mapped to RINEX snr flag value [0-9]                COMMENT
  L1 & L2: min(max(int(snr_dBHz/6), 0), 9)                  COMMENT
teqc_2016 edited: GLONASS # 25 - 30 excluded                COMMENT
Forced Modulo Decimation to 30 seconds                      COMMENT
teqc_2016 edited: GLONASS # 25 - 30 excluded                COMMENT
  2018     1    21    21     0    0.0000000     GPS         TIME OF FIRST OBS
                                                            END OF HEADER
 18  1 21 21  0  0.0000000  0 13R16G14G29R18R24G25G31G26G21G02R17R15
                                R14
 107922582.888 7  83939796.437 7  20203334.422    20203333.238    20203335.453
                                        45.100          43.600
 124820205.106 7  97262533.08744  23752503.430                    23752505.996
     -2547.203                          42.600          25.600
 105912683.163 8  82529395.78847  20154514.492                    20154517.719
      -224.375                          52.800          45.900
 108452739.699 8  84352140.008 7  20316851.570    20316850.855    20316853.367
                                        49.600          47.300
 121409933.470 6  94429960.582 4  22704268.734    22704266.613    22704267.238
                                        41.100          29.700
 111101009.806 9  86572285.10047  21141820.805                    21141826.621
     -1745.219                          54.100          44.000
 110610180.668 8  86189786.41946  21048418.758                    21048420.707
       727.070                          51.400          41.100
 123173082.261 7  95979089.63745  23439067.727                    23439076.434
      3016.324                          43.300          30.900
 125844188.892 7  98060432.42143  23947356.039                    23947357.469
      3265.484                          42.900          22.900
 126387837.124 7  98484035.83345  24050805.320                    24050807.328
     -2195.664                          42.300          30.800
 104233826.161 8  81070768.516 8  19478580.352    19478580.109    19478582.141
                                        50.000          49.000
 107008755.821 8  83229041.855 6  20025227.523    20025227.043    20025230.691
                                        48.300          41.500
 123835771.424 5                  23231276.922    23231275.270
                                        33.100
 18  1 21 21  0 30.0000000  0 13R16G14G29R18R24G25G31G26G21G02R17R15
                                R14
 107847665.818 7  83881527.604 7  20189309.992    20189309.277    20189311.188
      2490.036        1936.682          45.100          43.500
 124896768.900 7  97322193.14444  23767073.406                    23767075.859
     -2556.957       -1992.332          43.100          24.700
 105919658.543 8  82534831.15747  20155842.234                    20155844.816
      -240.609        -187.292          53.100          45.300
 108365677.364 8  84284424.851 8  20300541.977    20300540.910    20300543.738
      2892.940        2250.082          49.600          48.000
 121530621.945 6  94523829.384 5  22726836.992    22726837.688    22726837.375
     -4026.215       -3131.521          40.500          30.300
 111153530.486 9  86613210.28347  21151814.922                    21151820.664
     -1756.133       -1368.252          54.500          44.000
 110588639.146 8  86173000.80346  21044319.883                    21044321.969
       709.117         552.746          51.300          41.800
 123082648.852 7  95908622.05645  23421859.648                    23421867.570
      3012.633        2347.504          43.900          31.900
 125746301.068 7  97984156.22843  23928727.914                    23928731.293
      3260.453        2540.701          42.600          23.200
 126453891.225 7  98535506.57145  24063375.516                    24063376.660
     -2207.781       -1720.241          42.000          31.100
 104266341.134 8  81096057.944 8  19484656.719    19484656.477    19484658.484
     -1095.060        -851.722          49.700          49.700
 107070135.758 8  83276781.795 6  20036713.531    20036713.051    20036717.035
     -2054.889       -1598.247          48.100          41.700
 123952773.378 5                  23253226.063    23253225.113
     -3903.400                          34.400
 18  1 21 21  1  0.0000000  0 13R16G14G29R18R24G25G31G26G21G02R17R15
                                R14
 107773197.171 7  83823607.525 7  20175369.078    20175368.480    20175370.344
      2475.053        1925.057          45.500          43.500
 124973623.162 7  97382079.55344  23781697.125                    23781701.309
     -2566.609       -1999.824          42.900          25.600
 105927120.990 8  82540646.05247  20157262.188                    20157265.000
      -256.832        -199.936          51.200          45.800
 108279185.648 8  84217153.541 8  20284339.664    20284339.305    20284341.957
      2873.837        2235.210          50.400          48.900
 121651515.253 6  94617857.527 4  22749444.688    22749444.090    22749444.453
     -4033.041       -3136.798          40.000          27.700
 111206377.943 9  86654390.10647  21161871.633                    21161877.133
     -1767.082       -1376.754          54.800          44.400
 110567638.656 8  86156636.77847  21040323.211                    21040325.645
       690.895         538.679          49.200          42.200
 122992329.626 7  95838243.44945  23404671.898                    23404680.148
      3008.762        2344.535          44.200          31.900
 125648560.957 6  97907995.10443  23910128.789                    23910131.246
      3255.512        2536.835          41.300          23.200
 126520307.986 7  98587259.89445  24076013.867                    24076015.152
     -2220.000       -1729.657          42.000          31.000
 104299553.276 8  81121889.618 8  19490863.453    19490862.621    19490864.586
     -1118.262        -869.767          49.300          49.700
 107132068.487 8  83324951.686 6  20048303.672    20048303.547    20048307.555
     -2073.284       -1612.545          48.400          41.600
 124069985.441 5                  23275214.211    23275211.973
     -3910.461                          31.500
 18  1 21 21  1 30.0000000  0 13R16G14G29R18R24G25G31G26G21G02R17R15
                                R14
 107699181.141 7  83766039.502 7  20161513.586    20161512.754    20161514.672
      2459.846        1913.204          45.600          42.800
 125050766.253 7  97442191.01744  23796377.586                    23796381.035
     -2576.227       -2007.330          42.500          24.900
 105935070.622 8  82546840.56847  20158774.961                    20158777.668
      -273.164        -212.616          50.600          45.600
 108193268.135 8  84150328.813 8  20268243.984    20268243.387    20268246.707
      2854.577        2220.228          50.400          49.000
 121772611.177 6  94712043.256 4  22772090.406    22772088.871    22772089.734
     -4039.796       -3142.073          40.300          28.800
 111259552.814 9  86695825.05947  21171990.406                    21171995.680
     -1777.934       -1385.292          54.500          43.900
 110547181.618 8  86140696.22946  21036430.430                    21036432.984
       672.867         524.485          49.300          41.800
 122902126.969 7  95767955.66645  23387507.109                    23387515.426
      3004.723        2341.439          43.400          32.300
 125550972.416 6  97831952.05144  23891559.141                    23891562.324
      3250.473        2532.863          41.700          24.100
 126587086.770 7  98639295.31745  24088721.984                    24088722.102
     -2232.016       -1739.075          43.600          30.700
 104333461.668 8  81148262.816 8  19497199.828    19497199.113    19497201.250
     -1141.483        -887.827          49.800          49.700
 107194554.615 8  83373551.986 6  20059996.961    20059996.836    20060000.598
     -2091.804       -1626.954          48.000          41.100
 124187406.847 5                  23297243.672    23297241.199
     -3917.422                          30.300
 18  1 21 21  2  0.0000000  0 13R16G14G29R18R24G25G31G26G21G02R17R15
                                R14
 107625622.793 7  83708827.490 7  20147743.141    20147742.781    20147743.598
      2444.594        1901.313          45.900          42.300
 125128197.442 6  97502527.00744  23811112.500                    23811115.703
     -2585.758       -2014.746          41.300          24.400
 105943508.343 8  82553415.41647  20160380.484                    20160383.242
      -289.398        -225.245          52.900          45.700
 108107929.175 8  84083954.084 8  20252256.750    20252256.391    20252259.680
      2835.339        2205.268          49.500          48.900
 121893908.142 6  94806385.310 4  22794773.531    22794772.348    22794772.953
     -4046.405       -3147.209          39.800          27.700
 111313056.487 9  86737516.22247  21182172.063                    21182177.574
     -1788.895       -1393.794          54.500          44.300
 110527271.111 8  86125181.54847  21032641.820                    21032643.945
       654.660         510.337          50.300          42.000
 122812043.916 7  95697761.07445  23370364.844                    23370372.902
      3000.836        2338.354          44.300          30.800
 125453539.429 7  97756030.27744  23873017.914                    23873021.395
      3245.109        2528.830          42.100          25.800
 126654227.412 7  98691612.68845  24101498.352                    24101498.250
     -2243.984       -1748.399          44.200          30.400
 104368065.869 8  81175177.195 8  19503667.227    19503665.691    19503667.984
     -1164.588        -905.794          50.100          49.900
 107257595.073 8  83422583.438 6  20071794.398    20071794.156    20071797.996
     -2110.228       -1641.274          48.300          41.300
 124305037.706 4                  23319315.922    23319310.984
     -3924.332                          28.600
 18  1 21 21  2 30.0000000  0 12R16G14G29R18R24G25G31G26G21G02R17R15
 107552523.647 7  83651972.594 7  20134059.352    20134057.816    20134058.988
      2429.178        1889.354          45.900          43.200
 125205911.701 7  97563083.55844  23825900.016                    23825903.676
     -2595.215       -2022.098          42.000          24.000
 105952431.356 8  82560368.41747  20162078.266                    20162081.207
      -305.605        -237.882          51.900          46.300
 108023168.962 8  84018029.492 8  20236378.086    20236376.785    20236380.926
      2815.961        2190.188          48.600          48.500
 122015400.920 6  94900879.745 4  22817493.180    22817491.645    22817491.930
     -4052.895       -3152.266          39.500          27.400
 111366886.674 9  86779461.81347  21192415.453                    21192420.797
     -1799.859       -1402.303          55.100          43.700
 110507906.337 8  86110092.10946  21028956.680                    21028959.148
       636.352         496.106          50.200          41.900
 122722079.905 7  95627659.22845  23353245.203                    23353253.168
      2996.715        2335.178          43.900          30.400
 125356262.938 7  97680230.41144  23854507.563                    23854510.438
      3239.926        2524.660          43.300          26.600
 126721726.406 7  98744209.29445  24114343.242                    24114342.551
     -2255.965       -1757.732          43.100          30.700
 104403361.879 8  81202629.645 8  19510262.938    19510262.578    19510264.117
     -1187.715        -923.776          49.800          49.900
 107321186.964 8  83472043.781 6  20083695.063    20083694.113    20083698.168
     -2128.662       -1655.632          48.400          41.400
 18  1 21 21  3  0.0000000  0 12R16G14G29R18R24G25G31G26G21G02R17R15
 107479886.534 7  83595477.046 7  20120461.156    20120460.676    20120462.180
      2413.771        1877.383          45.900          44.200
 125283906.082 6  97623858.37144  23840742.445                    23840745.883
     -2604.445       -2029.327          41.900          25.000
 105961838.718 8  82567698.83547  20163868.695                    20163871.434
      -321.574        -250.414          51.500          45.700
 107938989.598 7  83952556.651 8  20220607.992    20220607.160    20220610.996
      2796.597        2175.130          47.900          48.300
 122137085.925 6  94995523.599 4  22840248.164    22840247.805    22840248.023
     -4059.260       -3157.190          38.900          28.200
 111421042.607 9  86821661.23247  21202720.875                    21202726.465
     -1810.566       -1410.722          54.500          44.100
 110489087.810 8  86095428.32246  21025375.891                    21025377.570
       618.184         481.928          49.900          41.500
 122632235.819 7  95557650.83944  23336148.672                    23336155.559
      2992.910        2332.096          44.600          29.900
 125259145.126 7  97604554.20244  23836025.922                    23836029.777
      3234.531        2520.529          42.700          27.000
 126789581.418 7  98797083.32044  24127255.828                    24127254.422
     -2267.891       -1766.930          42.300          29.600
 104439347.066 8  81230618.126 8  19516987.898    19516986.949    19516988.984
     -1210.549        -941.546          50.800          50.300
 107385329.050 8  83521932.069 6  20095698.078    20095697.598    20095701.715
     -2146.932       -1669.840          48.100          41.100
 18  1 21 21  3 30.0000000  0 12R16G14G29R18R24G25G31G26G21G02R17R15
 107407715.927 7  83539344.344 7  20106951.477    20106949.824    20106952.375
      2398.110        1865.206          46.300          44.200
 125362179.111 6  97684850.31843  23855637.617                    23855640.535
     -2613.695       -2036.570          41.200          22.800
 105971730.760 8  82575406.92147  20165750.938                    20165754.109
      -337.836        -263.034          53.500          45.700
 107855394.576 8  83887538.313 8  20204948.391    20204948.266    20204951.145
      2777.047        2159.907          48.700          48.200
 122258960.681 6  95090315.076 4  22863038.836    22863038.828    22863039.770
     -4065.553       -3162.100          38.000          28.200
 111475525.054 9  86864115.07947  21213088.875                    21213094.395
     -1821.586       -1419.243          55.000          44.700
 110470818.286 8  86081192.32547  21021898.875                    21021900.930
       599.762         467.608          52.200          42.400
 122542514.255 7  95487737.94245  23319075.094                    23319081.531
      2988.539        2328.855          44.300          30.600
 125162189.740 6  97529004.57244  23817575.938                    23817579.016
      3228.969        2516.238          40.900          25.900
 126857791.866 7  98850234.29944  24140235.789                    24140235.020
     -2279.680       -1776.153          44.000          29.400
 104476020.313 8  81259141.751 8  19523841.281    19523840.566    19523842.441
     -1233.559        -959.436          51.100          50.400
 107450022.059 7  83572248.820 6  20107804.211    20107803.613    20107807.367
     -2165.319       -1684.131          47.900          40.600
 18  1 21 21  4  0.0000000  0 13R16G14G29R18R24G25G31G26G21G02R17R15
                                R14
 107336014.476 7  83483576.511 7  20093528.219    20093526.801    20093529.527
      2382.441        1853.026          45.500          45.100
 125440727.335 6  97746056.67443  23870585.375                    23870587.465
     -2622.898       -2043.645          41.100          22.900
 105982106.249 8  82583491.71747  20167725.344                    20167728.332
      -353.891        -275.544          51.100          45.000
 107772385.901 8  83822976.023 8  20189398.891    20189399.000    20189400.609
      2757.504        2144.701          50.500          48.300
 122381021.669 6  95185251.377 4  22885865.008    22885865.117    22885865.715
     -4071.663       -3166.850          38.700          27.400
 111530333.158 9  86906822.67947  21223518.422                    21223523.730
     -1832.320       -1427.670          55.200          44.400
 110453098.071 8  86067384.35747  21018527.070                    21018528.969
       581.598         453.385          49.800          42.100
 122452916.017 7  95417921.15945  23302025.750                    23302031.406
      2984.531        2325.675          45.100          30.900
 125065399.352 6  97453583.50144  23799157.125                    23799160.723
      3223.664        2511.950          41.100          26.500
 126926355.494 7  98903660.49444  24153282.766                    24153283.008
     -2291.379       -1785.307          42.700          27.800
 104513379.074 8  81288198.570 8  19530822.250    19530821.418    19530823.066
     -1256.307        -977.132          51.100          50.100
 107515264.458 7  83622992.918 6  20120013.742    20120013.145    20120017.129
     -2183.565       -1698.332          47.700          41.100
 124777627.944 5  97049258.146 4  23407967.156    23407964.801    23407963.977
     -3951.287       -3073.212          30.100          29.100
 18  1 21 21  4 30.0000000  0 12R16G14G29R18R24G25G31G26G21G02R17R15
 107264784.706 7  83428175.574 7  20080193.469    20080193.109    20080195.750
      2366.707        1840.777          45.600          45.300
 125519547.269 6  97807474.78943  23885583.477                    23885587.457
     -2631.793       -2050.615          41.100          23.000
 105992963.582 8  82591951.97747  20169791.617                    20169794.496
      -369.879        -288.016          52.500          45.000
 107689965.183 8  83758871.045 8  20173958.414    20173958.641    20173960.281
      2737.923        2129.487          50.800          48.400
 122503265.113 6  95280329.638 4  22908726.273    22908725.090    22908725.582
     -4077.645       -3171.511          38.900          26.900
 111585465.787 9  86949783.15947  21234009.773                    21234014.723
     -1843.109       -1436.045          55.100          44.700
 110435927.657 8  86054004.80547  21015259.703                    21015261.844
       563.168         439.088          50.700          42.200
 122363441.805 7  95348200.99345  23284998.578                    23285005.098
      2980.426        2322.478          46.000          31.500
 124968775.645 7  97378292.32844  23780770.313                    23780773.516
      3218.004        2507.629          42.700          25.200
 126995269.762 7  98957359.92144  24166396.758                    24166396.773
     -2302.934       -1794.340          43.400          29.100
 104551420.224 8  81317786.138 8  19537931.266    19537930.551    19537932.254
     -1278.991        -994.775          51.100          49.700
 107581055.600 7  83674163.771 6  20132324.969    20132324.961    20132329.250
     -2201.826       -1712.510          47.300          40.900
 18  1 21 21  5  0.0000000  0 13R16G14G29R18R24G25G31G26G21G02R17R15
                                R14
 107194029.212 7  83373143.511 7  20066947.859    20066948.086    20066950.234
      2350.814        1828.431          46.300          44.700
 125598635.211 6  97869101.73543  23900633.445                    23900637.340
     -2640.703       -2057.595          40.800          23.200
 106004300.844 8  82600786.21247  20171949.000                    20171951.711
      -385.957        -300.526          52.200          45.900
 107608133.412 8  83695224.137 8  20158628.531    20158628.758    20158630.902
      2718.149        2114.124          50.100          48.500
 122625686.356 6  95375546.114 4  22931619.070    22931619.414    22931619.234
     -4083.554       -3176.093          39.100          28.500
 111640921.562 9  86992995.44447  21244562.742                    21244568.066
     -1853.949       -1444.485          54.300          45.300
 110419307.261 8  86041053.83247  21012096.945                    21012098.938
       544.859         424.761          49.500          42.300
 122274091.872 7  95278577.67945  23267995.883                    23268002.922
      2976.191        2319.163          45.200          31.400
 124872320.418 6  97303132.43544  23762414.875                    23762418.145
      3212.445        2503.188          41.400          25.200
 127064531.921 6  99011330.45544  24179576.438                    24179576.988
     -2314.551       -1803.389          41.600          28.100
 104590140.476 8  81347901.885 8  19545167.313    19545166.715    19545168.277
     -1301.640       -1012.388          50.900          49.900
 107647392.592 7  83725759.201 6  20144739.820    20144738.871    20144743.086
     -2220.079       -1726.726          47.200          41.600
 125015129.638 5                  23452521.758    23452522.570
     -3964.266                          30.300
 18  1 21 21  5 30.0000000  0 12R16G14G29R18R24G25G31G26G21G02R17R15
 107123752.308 7  83318483.707 7  20053792.539    20053792.297    20053793.559
      2334.876        1816.026          46.000          43.500
 125677989.742 6  97930936.42743  23915733.563                    23915737.930
     -2649.465       -2064.416          41.100          23.000
 106016118.101 8  82609994.46447  20174197.844                    20174200.223
      -401.816        -312.916          51.400          45.100
 107526894.462 8  83632038.309 8  20143408.992    20143408.395    20143411.754
      2698.457        2098.805          49.000          49.000
 122748283.442 6  95470899.391 4  22954545.203    22954545.664    22954545.570
     -4089.315       -3180.572          38.600          28.200
 111696701.295 9  87036460.16447  21255177.195                    21255182.895
     -1864.676       -1452.832          55.400          45.000
 110403239.242 8  86028533.29547  21009039.539                    21009041.391
       526.488         410.454          50.200          42.700
 122184868.845 7  95209053.25045  23251017.547                    23251023.934
      2972.055        2315.933          44.200          30.200
 124776036.826 6  97228106.27144  23744092.938                    23744095.828
      3206.641        2498.740          41.100          24.800
 127134141.329 6  99065571.55444  24192822.461                    24192823.637
     -2325.918       -1812.321          41.100          28.100
 104629538.854 8  81378545.077 8  19552529.750    19552528.098    19552530.258
     -1324.130       -1029.888          51.100          50.000
 107714276.301 7  83777779.851 6  20157256.758    20157255.691    20157259.961
     -2238.170       -1740.784          47.900          41.400
 18  1 21 21  6  0.0000000  0 12R16G14G29R18R24G25G31G26G21G02R17R15
 107053955.341 7  83264197.202 7  20040726.102    20040725.152    20040726.500
      2318.819        1803.524          46.000          43.000
 125757606.222 6  97992975.20543  23930884.961                    23930888.813
     -2658.121       -2071.208          40.700          23.000
 106028413.186 8  82619575.05347  20176537.406                    20176539.898
      -417.742        -325.328          51.300          45.100
 107446248.669 8  83569313.799 8  20128300.633    20128301.914    20128304.430
      2678.661        2083.390          48.800          48.400
 122871051.556 6  95566385.732 4  22977502.805    22977502.797    22977504.188
     -4094.969       -3184.999          38.400          29.200
 111752802.744 9  87080175.56647  21265853.070                    21265858.645
     -1875.332       -1461.177          55.000          45.100
 110387722.664 8  86016442.44747  21006086.625                    21006088.691
       508.070         396.120          49.400          42.100
 122095772.289 7  95139627.35344  23234062.086                    23234069.242
      2967.758        2312.620          43.000          29.800
 124679926.175 6  97153214.87544  23725803.836                    23725806.508
      3200.832        2494.210          41.400          26.000
 127204094.557 6  99120080.58744  24206134.273                    24206136.043
     -2337.437       -1821.264          41.200          27.700
 104669611.215 8  81409712.472 8  19560018.047    19560017.098    19560019.281
     -1346.548       -1047.309          51.000          49.000
 107781703.714 8  83830223.372 6  20169874.219    20169873.859    20169878.313
     -2256.312       -1754.910          48.200          40.900
 18  1 21 21  6 30.0000000  0 14R16G14G29R18R24G25G31G26G12G21G02R17
                                R15R14
 106984641.998 7  83210286.841 7  20027749.984    20027749.742    20027751.234
      2302.661        1790.970          44.800          43.700
 125837482.106 6  98055216.14343  23946085.008                    23946088.570
     -2666.766       -2077.924          41.900          23.600
 106041185.466 8  82629527.48547  20178967.773                    20178970.645
      -433.594        -337.697          51.100          45.400
 107366198.565 8  83507052.611 8  20113305.695    20113304.980    20113307.797
      2658.753        2067.922          49.100          48.200
 122993987.807 6  95662002.769 4  23000494.297    23000491.824    23000493.922
     -4100.533       -3189.285          38.600          27.000
 111809225.977 9  87124141.71747  21276589.984                    21276595.609
     -1886.039       -1469.535          55.000          45.000
 110372759.188 8  86004782.59447  21003239.305                    21003241.168
       489.621         381.726          49.900          42.500
 122006804.018 7  95070301.44144  23217132.422                    23217139.168
      2963.477        2309.271          43.600          29.800
 126269302.708 4                  24028279.602
     -3182.766                          29.100
 124583992.071 6  97078461.05444  23707548.766                    23707550.258
      3194.824        2489.598          41.200          27.800
 127274389.896 7  99174856.17144  24219511.688                    24219511.824
     -2348.766       -1830.092          43.000          27.100
 104710355.423 8  81441402.427 8  19567631.602    19567631.242    19567633.453
     -1368.911       -1064.721          50.300          49.800
 107849674.722 8  83883089.705 6  20182594.406    20182593.457    20182597.730
     -2274.418       -1768.999          48.200          41.200
 125372765.878 4  97512152.066 4  23519614.953    23519611.660    23519611.992
     -3983.366       -3098.189          27.600          29.800
 18  1 21 21  7  0.0000000  0 14R16G14G29R18R24G25G31G26G12G21G02R17
                                R15R14
 106915815.463 7  83156755.080 7  20014865.594    20014864.645    20014867.012
      2286.329        1778.252          45.400          44.300
 125917614.652 6  98117657.03944  23961333.156                    23961337.242
     -2675.223       -2084.570          41.600          24.000
 106054433.793 8  82639850.85947  20181488.789                    20181491.574
      -449.574        -350.095          53.000          45.000
 107286746.104 8  83445256.274 8  20098421.625    20098421.145    20098423.559
      2638.749        2052.366          49.500          48.300
 123117088.430 6  95757747.742 4  23023515.211    23023512.973    23023514.129
     -4105.940       -3193.510          39.200          26.500
 111865970.246 9  87168358.02147  21287388.109                    21287394.082
     -1896.758       -1477.896          54.500          45.400
 110358349.603 8  85993554.34647  21000497.023                    21000498.723
       471.066         367.300          51.900          42.300
 121917965.008 7  95001076.23045  23200226.828                    23200233.785
      2959.133        2305.864          44.300          30.100
 126364841.385 5                  24046462.422
     -3186.551                          31.000
 124488236.020 7  97003845.97744  23689326.539                    23689328.867
      3188.848        2484.901          43.800          27.100
 127345025.273 7  99229896.74844  24232953.094                    24232952.563
     -2360.195       -1838.954          42.900          27.100
 104751768.912 8  81473612.903 8  19575370.648    19575369.465    19575371.871
     -1391.176       -1082.030          50.400          49.000
 107918187.780 7  83936377.607 6  20195415.180    20195415.172    20195419.406
     -2292.493       -1783.045          47.600          41.200
                                  23542059.930

 18  1 21 21  7 30.0000000  0 13R16G14G29R18R24G25G31G26G12G21G02R17
                                R15
 106847477.611 7  83103603.426 7  20002072.305    20002071.238    20002073.395
      2270.035        1765.579          44.600          44.500
 125997999.617 6  98180294.63443  23976631.000                    23976634.238
     -2683.770       -2091.094          41.300          23.300
 106068155.970 8  82650543.46947  20184100.070                    20184102.684
      -465.309        -362.373          51.800          45.300
 107207892.269 8  83383925.562 7  20083649.297    20083649.406    20083651.574
      2618.781        2036.816          50.400          47.900
 123240349.229 6  95853617.223 4  23046565.203    23046564.488    23046564.488
     -4111.217       -3197.632          38.800          27.200
 111923033.967 9  87212823.26247  21298246.844                    21298252.426
     -1907.395       -1486.187          54.700          45.900
 110344493.722 8  85982757.55347  20997860.344                    20997862.383
       452.637         352.929          50.900          42.400
 121829255.549 7  94931951.96844  23183346.227                    23183352.863
      2954.777        2302.505          43.600          29.300
 126460481.504 5                  24064661.375
     -3189.809                          31.500
 124392659.899 7  96929371.10944  23671139.523                    23671141.617
      3182.805        2480.211          42.600          28.500
 127415997.698 7  99285199.92744  24246458.523                    24246457.125
     -2371.305       -1847.668          43.100          27.200
 104793848.144 8  81506341.198 8  19583234.203    19583233.723    19583235.828
     -1413.327       -1099.255          50.700          49.400
 107987240.967 8  83990085.618 6  20208338.211    20208337.379    20208341.465
     -2310.463       -1797.029          48.100          41.100
 18  1 21 21  8  0.0000000  0 13R16G14G29R18R24G25G31G26G12G21G02R17
                                R15
 106779632.813 7  83050835.241 7  19989371.844    19989370.543    19989373.102
      2253.503        1752.733          44.900          44.200
 126078635.422 6  98243127.72043  23991974.961                    23991978.645
     -2692.031       -2097.571          40.400          22.600
 106082352.294 8  82661605.53047  20186801.336                    20186803.938
      -481.133        -374.682          50.900          44.900
 107129640.434 8  83323063.037 8  20068991.367    20068990.652    20068992.941
      2598.672        2021.187          50.200          48.600
 123363768.273 6  95949609.833 4  23069643.484    23069642.301    23069645.469
     -4116.550       -3201.713          37.400          28.200
 111980417.972 9  87257538.06747  21309166.906                    21309172.477
     -1918.211       -1494.510          54.900          45.600
 110331193.573 8  85972393.79446  20995328.891                    20995331.313
       434.016         338.460          50.200          41.700
 121740678.184 7  94862930.67345  23166490.383                    23166496.902
      2950.355        2299.057          43.400          30.200
 126556224.306 5                  24082882.242
     -3193.180                          34.100
 124297267.310 7  96855039.24544  23652986.672                    23652989.445
      3176.695        2475.416          43.000          28.200
 127487306.687 7  99340765.32244  24260027.859                    24260027.477
     -2382.637       -1856.389          42.900          25.800
 104836591.953 8  81539586.384 8  19591222.297    19591221.699    19591223.645
     -1435.500       -1116.494          50.900          49.000
 108056834.387 7  84044213.816 6  20221360.586    20221360.461    20221364.445
     -2328.463       -1811.021          47.500          41.200
 18  1 21 21  8 30.0000000  0 13R16G14G29R18R24G25G31G26G12G21G02R17
                                R15
 106712284.289 7  82998453.063 7  19976763.750    19976763.270    19976765.309
      2236.953        1739.844          45.200          44.200
 126159519.161 6  98306153.95143  24007365.773                    24007370.055
     -2700.234       -2103.968          40.700          22.800
 106097021.559 8  82673036.13447  20189592.945                    20189595.723
      -496.820        -386.944          52.500          45.000
 107051992.373 8  83262670.125 8  20054443.758    20054443.867    20054446.758
      2578.539        2005.530          50.000          49.000
 123487342.307 6  96045722.965 4  23092754.367    23092753.066    23092754.297
     -4121.574       -3205.674          39.300          28.100
 112038121.421 9  87302501.78347  21320147.211                    21320152.742
     -1928.754       -1502.788          54.800          45.200
 110318449.990 8  85962463.72146  20992903.984                    20992906.387
       415.484         324.013          50.800          41.600
 121652233.964 7  94794013.10745  23149660.328                    23149666.508
      2945.973        2295.577          43.400          30.400
 126652068.720 5                  24101120.484
     -3196.523                          34.500
 124202060.445 6  96780852.09844  23634868.617                    23634872.078
      3170.516        2470.573          39.900          27.000
 127558949.908 7  99396591.19044  24273661.719                    24273660.918
     -2393.633       -1865.030          42.700          27.100
 104879997.401 8  81573346.175 8  19599333.539    19599332.355    19599334.496
     -1457.440       -1133.562          50.300          49.100
 108126967.363 8  84098761.685 6  20234485.664    20234485.305    20234489.094
     -2346.435       -1825.014          48.200          41.400
 18  1 21 21  9  0.0000000  0 13R16G14G29R18R24G25G31G26G12G21G02R17
                                R15
 106645434.881 7  82946459.099 7  19964249.609    19964249.250    19964251.125
      2220.280        1726.870          44.900          43.800
 126240647.715 6  98369370.93643  24022804.445                    24022808.832
     -2708.367       -2110.289          41.300          23.200
 106112162.735 8  82684834.45547  20192474.078                    20192476.898
      -512.574        -399.194          52.300          44.800
 106974950.111 8  83202748.379 8  20040012.258    20040010.488    20040013.867
      2558.282        1989.766          49.600          48.800
 123611067.519 6  96141953.708 4  23115891.133    23115889.715    23115892.039
     -4126.605       -3209.557          38.400          29.800
 112096143.739 9  87347713.98147  21331188.508                    21331194.148
     -1939.391       -1511.072          54.100          45.200
 110306263.666 8  85952967.87446  20990585.039                    20990587.336
       396.836         309.514          51.700          41.800
 121563924.109 7  94725200.26745  23132855.813                    23132861.539
      2941.352        2292.051          44.200          31.200
 126748014.034 5                  24119378.172
     -3200.082                          33.400
 124107041.924 6  96706811.66744  23616787.484                    23616790.406
      3164.039        2465.637          40.800          28.000
 127630925.228 6  99452675.87044  24287357.445                    24287357.656
     -2404.715       -1873.640          41.500          27.200
 104924061.942 8  81607618.601 8  19607567.797    19607567.199    19607569.313
     -1479.413       -1150.640          50.100          48.900
 108197638.583 7  84153728.185 6  20247710.445    20247709.965    20247713.727
     -2364.375       -1838.961          47.500          40.700
 18  1 21 21  9 30.0000000  0 13R16G14G29R18R24G25G31G26G12G21G02R17
                                R15
 106579088.621 7  82894856.453 7  19951829.539    19951828.707    19951830.875
      2203.365        1713.714          45.000          44.000
 126322019.265 6  98432777.30043  24038288.727                    24038292.785
     -2716.449       -2116.619          39.400          23.000
 106127775.622 8  82697000.34947  20195445.211                    20195447.711
      -528.352        -411.494          51.600          44.700
 106898516.401 8  83143299.939 8  20025693.094    20025692.496    20025695.922
      2537.911        1973.935          50.200          49.800
 123734941.867 6  96238300.384 4  23139056.344    23139056.219    23139056.582
     -4131.576       -3213.413          38.700          28.100
 112154485.255 9  87393174.88947  21342290.578                    21342296.145
     -1950.086       -1519.417          54.300          45.000
 110294636.374 8  85943907.63346  20988372.586                    20988374.379
       378.164         294.939          50.100          41.700
 121475750.764 7  94656493.76045  23116076.992                    23116083.074
      2936.695        2288.452          44.600          32.400
 126844060.107 5                  24137655.492
     -3203.187                          33.300
 124012214.913 6  96632920.47944  23598742.266                    23598746.148
      3157.652        2460.563          41.200          27.900
 127703231.937 7  99509018.75144  24301117.414                    24301117.730
     -2415.777       -1882.304          43.300          27.200
 104968783.885 8  81642402.338 8  19615924.953    19615924.355    19615926.574
     -1501.339       -1167.716          50.000          49.600
 108268847.570 7  84209112.938 6  20261036.789    20261035.605    20261039.750
     -2382.331       -1852.923          47.900          41.200
 18  1 21 21 10  0.0000000  0 14R16G14G29R18R24G25G31G26G12G21G02R17
                                R15R14
 106513248.521 7  82843647.483 7  19939504.500    19939503.199    19939505.398
      2186.536        1700.646          45.500          44.700
 126403630.555 6  98496370.46443  24053819.969                    24053823.172
     -2724.223       -2122.706          39.700          22.900
 106143858.744 8  82709532.65447  20198505.742                    20198508.160
      -543.871        -423.594          51.000          45.100
 106822693.094 8  83084326.254 8  20011488.859    20011488.617    20011491.258
      2517.616        1958.145          49.600          48.900
 123858961.889 6  96334760.420 4  23162248.633    23162248.273    23162248.523
     -4136.234       -3217.071          38.900          26.100
 112213145.380 9  87438884.06347  21353453.695                    21353459.113
     -1960.586       -1527.583          54.500          45.300
 110283568.762 8  85935283.52646  20986266.797                    20986268.359
       359.586         280.472          48.900          41.600
 121387715.154 7  94587894.59245  23099324.242                    23099330.820
      2932.332        2284.945          45.100          31.200
 126940206.544 4                  24155948.875
     -3206.379                          27.600
 123917581.855 7  96559180.43844  23580735.227                    23580737.543
      3151.344        2455.590          42.400          29.600
 127775867.858 7  99565618.17044  24314939.422                    24314940.348
     -2426.582       -1890.713          43.000          28.100
 105014160.612 8  81677695.359 8  19624405.234    19624404.520    19624406.359
     -1523.007       -1184.570          50.500          49.600
 108340592.715 8  84264914.698 6  20274463.461    20274462.160    20274465.898
     -2400.094       -1866.714          48.100          41.200
 126213776.979 4  98166279.613 5  23677383.031    23677385.133    23677385.398
     -4025.493       -3130.916          27.600          30.300
 18  1 21 21 10 30.0000000  0 13R16G14G29R18R24G25G31G26G12G21G02R17
                                R15
 106447915.407 7  82792832.819 7  19927273.750    19927273.152    19927275.082
      2169.591        1687.452          45.900          45.000
 126485476.159 6  98560146.22043  24069395.063                    24069398.809
     -2732.258       -2128.809          39.900          22.600
 106160409.049 8  82722428.99747  20201655.156                    20201657.898
      -559.465        -435.740          51.600          44.800
 106747479.969 8  83025827.176 7  19997399.344    19997398.863    19997401.703
      2497.247        1942.307          50.600          47.400
 123983122.123 6  96431329.512 4  23185466.625    23185464.738    23185466.500
     -4140.906       -3220.702          37.200          26.200
 112272121.238 8  87484839.27147  21364676.156                    21364682.125
     -1971.051       -1535.794          53.400          44.700
 110273059.273 8  85927094.30346  20984266.602                    20984268.973
       340.996         265.965          49.500          41.600
 121299816.309 7  94519401.98545  23082597.594                    23082603.887
      2927.637        2281.346          44.300          32.100
 127036450.643 4                  24174267.633
     -3209.980                          29.100
 123823143.032 7  96485591.76044  23562763.813                    23562767.125
      3144.559        2450.485          43.400          29.700
 127848828.461 7  99622470.61544  24328823.289                    24328824.055
     -2437.461       -1899.133          42.300          28.700
 105060186.934 8  81713493.617 8  19633006.469    19633005.051    19633007.055
     -1544.648       -1201.393          50.100          50.000
 108412870.769 8  84321130.957 6  20287989.273    20287988.441    20287992.090
     -2417.848       -1880.550          48.700          40.500
 18  1 21 21 11  0.0000000  0 12R16G14G29R18R24G25G31G26G21G02R17R15
 106383093.685 7  82742415.895 7  19915138.531    19915138.641    19915140.270
      2152.448        1674.158          45.600          44.300
 126567554.861 6  98624103.57843  24085014.055                    24085017.980
     -2739.797       -2134.768          40.300          22.900
 106177426.816 8  82735689.60447  20204893.695                    20204896.148
      -575.020        -447.854          51.500          45.700
 106672879.982 8  82967804.989 7  19983424.273    19983423.559    19983425.176
      2476.780        1926.377          50.500          47.400
 124107420.879 6  96528006.257 4  23208712.977    23208711.559    23208711.695
     -4145.426       -3224.217          39.500          27.800
 112331413.565 8  87531041.08447  21375958.945                    21375964.516
     -1981.691       -1544.019          53.400          44.900
 110263110.143 8  85919341.72946  20982373.578                    20982376.035
       322.285         251.399          50.600          41.200
 121212056.747 7  94451017.92745  23065898.008                    23065903.117
      2923.059        2277.722          44.600          31.200
 123728902.278 7  96412157.41645  23544830.578                    23544833.168
      3138.031        2445.330          44.400          30.300
 127922113.058 7  99679575.50544  24342768.594                    24342769.613
     -2448.090       -1907.538          43.700          27.200
 105106861.559 8  81749796.101 8  19641728.305    19641727.945    19641729.578
     -1566.189       -1218.141          50.200          49.800
 108485682.202 8  84377762.056 6  20301614.023    20301614.367    20301618.113
     -2435.610       -1894.355          49.100          40.400
 18  1 21 21 11 30.0000000  0 12R16G14G29R18R24G25G31G26G21G02R17R15
 106318786.792 7  82692399.436 7  19903101.617    19903100.082    19903101.629
      2135.149        1660.680          46.300          44.000
 126649864.065 6  98688240.58243  24100677.711                    24100682.160
     -2747.687       -2140.848          38.900          22.200
 106194911.296 8  82749313.88247  20208220.289                    20208223.551
      -590.629        -460.043          51.400          44.100
 106598895.856 8  82910261.802 7  19969564.195    19969563.953    19969565.738
      2456.104        1910.299          50.300          47.400
 124231854.783 6  96624788.187 4  23231980.602    23231980.004    23231981.801
     -4150.027       -3227.808          37.900          27.400
 112391022.267 8  87577489.40747  21387302.305                    21387307.535
     -1992.402       -1552.312          52.400          44.400
 110253722.316 8  85912026.54046  20980587.156                    20980589.605
       303.371         236.722          49.900          41.500
 121124438.255 7  94382743.80545  23049223.891                    23049229.129
      2918.070        2273.948          43.200          31.000
 123634862.188 7  96338879.44245  23526935.383                    23526938.633
      3131.176        2439.988          45.800          31.300
 127995720.401 7  99736931.88544  24356776.039                    24356776.813
     -2459.051       -1915.975          44.100          28.200
 105154182.417 8  81786601.216 8  19650571.711    19650570.879    19650572.762
     -1587.841       -1234.979          50.200          49.500
 108559026.120 8  84434807.295 6  20315339.742    20315339.617    20315343.301
     -2453.454       -1908.229          49.200          40.400
 18  1 21 21 12  0.0000000  0 12R16G14G29R18R24G25G31G26G21G02R17R15
 106254996.992 7  82642785.159 7  19891159.734    19891158.082    19891159.387
      2118.006        1647.337          45.800          43.200
 126732399.819 6  98752554.13143  24116383.141                    24116388.313
     -2754.855       -2146.585          38.800          22.600
 106212860.237 8  82763300.08647  20211636.383                    20211638.867
      -605.961        -472.001          50.500          43.500
 106525528.316 8  82853198.188 7  19955820.070    19955819.004    19955821.609
      2435.676        1894.412          49.600          47.800
 124356420.341 6  96721672.416 4  23255275.867    23255276.211    23255276.457
     -4154.216       -3231.045          38.300          28.000
 112450945.853 8  87624183.10147  21398705.125                    21398710.645
     -2002.609       -1560.373          53.000          44.400
 110244895.713 8  85905148.65647  20978907.695                    20978910.031
       284.871         222.224          50.700          42.000
 121036961.239 7  94314579.92645  23032577.531                    23032582.879
      2913.453        2270.365          43.900          30.200
 123541024.885 7  96265759.47845  23509078.180                    23509081.566
      3124.547        2434.787          45.300          30.700
 128069647.354 7  99794537.29744  24370844.000                    24370844.898
     -2469.621       -1924.168          44.600          27.800
 105202145.789 8  81823906.068 8  19659535.000    19659533.816    19659536.078
     -1609.036       -1251.477          49.800          49.300
 108632900.548 8  84492265.176 6  20329164.250    20329163.891    20329167.730
     -2470.993       -1921.886          49.000          40.100
 18  1 21 21 12 30.0000000  0 12R16G14G29R18R24G25G31G26G21G02R17R15
 106191725.732 7  82593574.171 7  19879314.344    19879313.043    19879315.020
      2100.646        1633.851          44.700          43.800
 126815157.456 6  98817040.54843  24132131.406                    24132136.520
     -2762.422       -2152.326          38.300          22.900
 106231270.987 8  82777646.13047  20215139.289                    20215142.156
      -621.332        -484.003          49.800          43.800
 106452777.427 8  82796614.159 7  19942191.383    19942190.199    19942192.863
      2415.066        1878.386          49.300          47.700
 124481112.371 6  96818655.172 4  23278595.281    23278592.223    23278593.742
     -4158.401       -3234.331          39.000          26.200
 112511182.057 8  87671120.39847  21410167.680                    21410173.355
     -2013.086       -1568.503          52.100          43.800
 110236629.445 8  85898707.39947  20977334.391                    20977337.027
       266.227         207.664          49.400          42.100
 120949625.333 7  94246525.98344  23015957.281                    23015963.301
      2908.773        2266.674          43.000          29.700
 123447390.632 7  96192797.73245  23491260.523                    23491263.363
      3117.695        2429.465          46.000          31.200
 128143890.251 7  99852388.91544  24384971.672                    24384971.820
     -2480.055       -1932.361          42.900          26.500
 105250747.265 8  81861707.214 8  19668617.281    19668616.684    19668618.082
     -1630.308       -1268.003          50.500          49.100
 108707302.274 8  84550133.173 6  20343087.719    20343087.238    20343090.918
     -2488.554       -1935.534          48.400          41.000
 18  1 21 21 13  0.0000000  0 12R16G14G29R18R24G25G31G26G21G02R17R15
 106128977.483 7  82544769.977 7  19867568.039    19867565.684    19867567.988
      2083.165        1620.238          44.300          43.600
 126898135.717 6  98881698.92843  24147920.570                    24147926.684
     -2769.520       -2158.018          39.400          22.200
 106250143.986 8  82792352.35847  20218730.711                    20218734.133
      -636.812        -496.007          51.400          44.400
 106380646.500 8  82740512.318 8  19928678.773    19928677.590    19928680.469
      2394.348        1862.286          50.000          48.500
 124605929.309 5  96915735.046 4  23301931.883    23301932.461    23301934.684
     -4162.577       -3237.559          35.400          27.500
 112571731.930 8  87718302.11147  21421690.055                    21421695.801
     -2023.559       -1576.646          52.800          43.700
 110228925.868 8  85892704.60247  20975868.852                    20975870.500
       247.340         193.024          51.000          42.600
 120862433.431 7  94178584.23945  22999366.141                    22999372.258
      2903.961        2262.890          43.600          30.500
 123353963.748 7  96119997.57745  23473482.227                    23473484.715
      3110.664        2424.063          45.700          30.500
 128218448.550 7  99910486.30344  24399160.023                    24399158.934
     -2490.629       -1940.532          43.800          26.900
 105299985.653 8  81900003.753 8  19677818.477    19677817.527    19677819.219
     -1651.526       -1284.514          50.200          48.700
 108782231.114 8  84608411.175 6  20357109.648    20357108.582    20357112.922
     -2506.122       -1949.198          48.500          40.900
 18  1 21 21 13 30.0000000  0 12R16G14G29R18R24G25G31G26G21G02R17R15
 106066757.137 7  82496376.362 7  19855920.578    19855919.395    19855921.191
      2065.439        1606.456          45.900          43.100
 126981333.239 6  98946528.13043  24163752.195                    24163758.398
     -2776.781       -2163.694          37.700          22.200
 106269479.793 8  82807419.22547  20222410.367                    20222413.500
      -652.227        -508.039          51.200          44.100
 106309138.972 8  82684895.355 7  19915283.836    19915282.770    19915285.383
      2373.485        1846.057          50.800          46.800
 124730869.540 6  97012910.804 4  23325300.156    23325298.504    23325298.480
     -4166.596       -3240.723          38.300          24.600
 112632596.485 8  87765729.02247  21433272.406                    21433278.004
     -2034.117       -1584.863          52.100          43.600
 110221786.852 8  85887141.72347  20974510.250                    20974512.363
       228.500         178.317          51.900          42.300
 120775388.434 7  94110756.95145  22982801.914                    22982808.297
      2899.000        2259.029          44.300          31.400
 123260748.000 7  96047361.94545  23455743.594                    23455746.070
      3103.613        2418.501          44.600          31.200
 128293322.016 7  99968829.23944  24413407.188                    24413407.387
     -2500.992       -1948.681          42.500          25.000
 105349859.852 8  81938794.801 8  19687138.352    19687137.637    19687139.336
     -1672.703       -1300.993          50.200          48.200
 108857688.207 8  84667100.010 6  20371230.789    20371229.957    20371234.109
     -2523.758       -1962.924          48.400          39.500
 18  1 21 21 14  0.0000000  0 12R16G14G29R18R24G25G31G26G21G02R17R15
 106005064.195 7  82448392.949 7  19844371.586    19844370.285    19844371.918
      2047.873        1592.806          45.700          43.800
 127064743.921 6  99011523.42943  24179625.258                    24179630.824
     -2783.773       -2169.179          38.000          22.600
 106289273.705 8  82822843.05547  20226177.063                    20226179.645
      -667.414        -519.878          51.000          43.700
 106238253.361 8  82629762.113 7  19902003.492    19902004.070    19902005.965
      2352.809        1829.974          51.000          46.900
 124855926.548 6  97110177.429 4  23348685.648    23348683.762    23348684.902
     -4170.428       -3243.669          38.100          24.200
 112693771.692 8  87813398.00447  21444913.031                    21444919.000
     -2044.273       -1592.858          51.600          43.500
 110215209.802 8  85882016.74547  20973258.547                    20973260.516
       209.805         163.759          51.100          42.300
 120688488.180 7  94043042.48945  22966265.656                    22966271.910
      2894.320        2255.298          45.000          31.500
 123167742.581 7  95974890.22044  23438045.305                    23438047.879
      3096.559        2413.062          44.300          29.700
 128368505.057 7 100027413.43844  24427714.211                    24427714.254
     -2511.273       -1956.683          43.000          26.200
 105400363.539 8  81978075.455 8  19696576.406    19696575.574    19696577.570
     -1693.570       -1317.221          50.300          48.600
 108933668.680 8  84726195.935 6  20385449.445    20385448.145    20385452.129
     -2541.118       -1976.416          48.200          39.600
 18  1 21 21 14 30.0000000  0 12R16G14G29R18R24G25G31G26G21G02R17R15
 105943902.979 7  82400823.122 7  19832922.289    19832920.637    19832922.770
      2030.065        1578.942          46.000          43.800
 127148365.876 6  99076683.37143  24195538.156                    24195542.977
     -2790.914       -2174.653          38.500          22.300
 106309525.947 8  82838624.02847  20230030.922                    20230033.594
      -682.656        -531.784          51.400          43.700
 106167992.578 8  82575114.852 7  19888842.813    19888841.043    19888843.789
      2331.933        1813.723          50.200          46.300
 124981098.833 6  97207533.542 4  23372090.477    23372091.523    23372093.102
     -4174.277       -3246.627          36.400          25.100
 112755258.416 8  87861309.73147  21456614.055                    21456619.637
     -2054.730       -1600.973          52.200          43.200
 110209196.858 8  85877331.32947  20972114.078                    20972116.293
       191.063         149.081          50.500          42.800
 120601735.474 7  93975443.00145  22949756.742                    22949762.781
      2889.352        2251.444          44.800          31.200
 123074951.363 7  95902585.40144  23420387.094                    23420390.063
      3089.496        2407.437          43.200          28.700
 128443997.130 7 100086238.43544  24442079.680                    24442080.211
     -2521.582       -1964.709          43.400          25.900
 105451495.454 8  82017844.703 8  19706131.703    19706130.871    19706132.512
     -1714.538       -1333.529          50.500          48.400
 109010172.823 8  84785699.146 6  20399766.203    20399765.605    20399769.266
     -2558.560       -1989.983          48.200          38.800
 18  1 21 21 15  0.0000000  0 12R16G14G29R18R24G25G31G26G21G02R17R15
 105883276.175 7  82353668.938 7  19821572.383    19821570.848    19821573.699
      2012.259        1565.097          45.200          44.000
 127232195.624 6  99142005.21843  24211490.375                    24211494.680
     -2797.785       -2179.955          36.100          21.700
 106330234.917 8  82854760.89447  20233971.750                    20233974.406
      -698.008        -543.630          51.900          44.500
 106098357.951 8  82520954.612 7  19875796.883    19875795.113    19875798.184
      2311.057        1797.475          49.900          46.500
 125106382.286 6  97304976.191 4  23395524.516    23395522.980    23395521.871
     -4177.909       -3249.448          39.200          26.600
 112817055.565 8  87909463.34147  21468373.641                    21468379.578
     -2065.281       -1609.019          52.100          42.600
 110203748.199 8  85873085.61647  20971077.414                    20971079.508
       172.098         134.426          51.500          42.300
 120515131.169 7  93907959.15245  22933276.023                    22933282.363
      2884.266        2247.572          43.200          30.800
 122982376.013 6  95830448.75944  23402770.492                    23402773.613
      3082.191        2401.815          40.200          27.700
 128519795.793 7 100145302.34644  24456502.820                    24456503.539
     -2531.812       -1972.635          42.200          25.800
 105503252.230 8  82058099.961 8  19715803.438    19715803.664    19715805.313
     -1735.280       -1349.646          51.100          48.500
 109087197.984 7  84845607.601 6  20414180.211    20414179.969    20414183.941
     -2575.927       -2003.499          47.800          38.900
 18  1 21 21 15 30.0000000  0 12R16G14G29R18R24G25G31G26G21G02R17R15
 105823186.967 7  82306932.888 7  19810322.563    19810321.965    19810324.879
      1994.295        1551.111          44.900          43.800
 127316230.904 5  99207487.23043  24227480.461                    24227485.508
     -2804.625       -2185.305          34.600          19.300
 106351399.631 8  82871252.89147  20237998.859                    20238002.098
      -713.066        -555.446          51.400          44.500
 106029351.304 8  82467282.776 7  19862868.828    19862868.586    19862871.301
      2290.061        1781.149          50.300          46.400
 125231774.611 6  97402479.582 4  23418969.852    23418970.781    23418971.430
     -4181.445       -3252.204          38.900          26.800
 112879162.877 8  87957858.64247  21480192.219                    21480198.199
     -2075.418       -1617.064          52.000          43.100
 110198864.638 8  85869280.24147  20970148.289                    20970149.977
       153.340         119.762          52.700          42.600
 120428676.929 7  93840592.22245  22916824.594                    22916830.031
      2879.203        2243.679          43.300          30.900
 122890019.623 6  95758482.75344  23385195.289                    23385198.730
      3074.945        2396.086          39.200          26.300
 128595899.232 7 100204603.70744  24470985.242                    24470986.121
     -2541.887       -1980.520          42.900          25.900
 105555631.360 8  82098839.302 8  19725592.156    19725591.797    19725593.203
     -1755.970       -1365.753          50.800          49.100
 109164743.516 7  84905920.777 6  20428692.109    20428691.277    20428695.117
     -2593.234       -2016.962          46.900          37.300
 18  1 21 21 16  0.0000000  0 12R16G14G29R18R24G25G31G26G21G02R17R15
 105763638.835 7  82260617.668 7  19799175.016    19799174.535    19799177.684
      1976.196        1537.038          44.300          43.300
 127400468.794 5  99273127.11843  24243510.695                    24243515.184
     -2811.109       -2190.493          35.200          19.900
 106373019.568 8  82888099.60347  20242112.977                    20242116.199
      -728.207        -567.249          51.900          44.000
 105960974.709 8  82414100.986 7  19850060.047    19850059.566    19850061.785
      2269.065        1764.825          50.700          46.200
 125357272.965 6  97500093.388 3  23442441.852    23442439.027    23442440.977
     -4184.939       -3254.968          37.800          21.400
 112941580.012 8  88006495.35447  21492069.422                    21492075.648
     -2085.773       -1625.103          51.500          42.300
 110194547.052 8  85865915.88847  20969326.328                    20969328.379
       134.504         105.040          51.200          42.400
 120342374.382 7  93773343.49445  22900402.242                    22900408.156
      2874.254        2239.713          43.700          32.700
 122797884.979 6  95686689.47944  23367662.672                    23367665.742
      3067.492        2390.314          37.600          24.400
 128672305.757 7 100264141.25344  24485524.758                    24485526.082
     -2551.895       -1988.353          42.700          25.500
 105608630.335 8  82140060.718 8  19735496.203    19735495.488    19735497.164
     -1776.602       -1381.795          50.600          49.400
 109242808.382 7  84966637.880 6  20443300.141    20443299.898    20443303.855
     -2610.543       -2030.426          45.700          36.900
 18  1 21 21 16 30.0000000  0 12R16G14G29R18R24G25G31G26G21G02R17R15
 105704633.718 7  82214724.785 7  19788129.164    19788129.039    19788131.352
      1958.056        1522.920          44.900          43.700
 127484905.336 5  99338921.86643  24259578.688                    24259582.176
     -2817.715       -2195.639          35.700          19.300
 106395092.217 8  82905299.06947  20246313.516                    20246316.473
      -743.316        -578.983          51.800          43.700
 105893228.799 8  82361409.729 7  19837368.828    19837368.469    19837370.234
      2247.988        1748.441          50.700          46.100
 125482872.899 6  97597778.173 4  23465929.898    23465929.301    23465927.434
     -4188.273       -3257.528          40.400          24.000
 113004305.340 8  88055372.21347  21504006.078                    21504011.754
     -2095.984       -1633.099          52.300          42.700
 110190794.897 8  85862992.12447  20968612.320                    20968614.641
       115.559          90.348          52.200          42.400
 120256223.792 7  93706213.15945  22884008.320                    22884014.547
      2869.094        2235.755          44.600          34.100
 122705973.226 6  95615069.93344  23350173.102                    23350175.070
      3060.098        2384.482          38.400          25.300
 128749012.305 7 100323912.59244  24500122.125                    24500123.289
     -2561.895       -1996.129          44.300          27.500
 105662245.120 8  82181761.125 8  19745515.445    19745514.730    19745516.652
     -1797.074       -1397.718          50.300          49.000
 109321390.860 7  85027757.566 6  20458006.109    20458005.867    20458009.176
     -2627.730       -2043.770          45.100          36.700
 18  1 21 21 17  0.0000000  0 12R16G14G29R18R24G25G31G26G21G02R17R15
 105646174.191 7  82169256.238 7  19777185.695    19777185.336    19777187.418
      1939.796        1508.755          45.400          43.600
 127569537.203 5  99404868.70943  24275681.945                    24275687.340
     -2824.469       -2200.672          35.900          19.000
 106417615.775 8  82922849.89747  20250599.430                    20250602.309
      -758.301        -590.696          50.900          43.800
 105826114.477 8  82309209.728 7  19824796.227    19824795.512    19824797.914
      2226.909        1732.049          50.100          46.000
 125608571.103 6  97695541.513 4  23489436.320    23489434.551    23489434.258
     -4191.525       -3260.080          38.500          24.000
 113067337.820 8  88104488.40947  21516000.969                    21516006.469
     -2106.215       -1641.063          52.400          43.000
 110187608.071 8  85860508.86947  20968005.555                    20968008.168
        96.801          75.670          51.000          42.400
 120170225.995 7  93639201.90745  22867644.148                    22867650.359
      2864.078        2231.773          44.600          33.800
 122614286.474 6  95543625.68944  23332726.609                    23332727.637
      3052.551        2378.628          41.400          26.300
 128826016.340 7 100383915.74544  24514775.844                    24514776.438
     -2571.641       -2003.815          44.900          29.100
 105716472.609 8  82223938.061 8  19755648.969    19755648.609    19755650.227
     -1817.452       -1413.585          51.100          49.300
 109400487.847 7  85089277.444 5  20472807.992    20472808.102    20472811.355
     -2644.935       -2057.158          44.300          35.900
 18  1 21 21 17 30.0000000  0 12R16G14G29R18R24G25G31G26G21G02R17R15
 105588264.336 7  82124215.271 7  19766344.961    19766344.602    19766346.801
      1921.450        1494.458          45.300          43.500
 127654362.198 6  99470966.06343  24291824.727                    24291829.137
     -2830.859       -2205.665          36.700          19.900
 106440590.383 8  82940752.19147  20254971.453                    20254974.246
      -773.375        -602.415          51.500          43.500
 105759634.578 8  82257503.147 7  19812342.586    19812341.168    19812344.504
      2205.773        1715.600          49.300          46.700
 125734365.929 5  97793388.871 4  23512954.602    23512954.828    23512958.906
     -4194.695       -3262.545          35.700          26.700
 113130678.043 8  88153844.40747  21528054.211                    21528059.836
     -2116.359       -1649.057          53.000          42.300
 110184988.420 8  85858467.57547  20967507.539                    20967509.848
        77.832          60.896          51.900          42.400
 120084383.709 7  93572311.81645  22851308.336                    22851315.094
      2858.719        2227.684          45.200          35.000
 122522828.332 7  95472359.64544  23315323.227                    23315324.813
      3044.730        2372.617          44.000          28.700
 128903316.912 7 100444149.95144  24529485.773                    24529486.969
     -2581.660       -2011.547          45.600          29.600
 105771311.055 8  82266590.188 8  19765896.492    19765896.250    19765898.164
     -1837.790       -1429.396          51.000          49.100
 109480100.643 7  85151198.514 6  20487706.727    20487705.543    20487709.660
     -2662.056       -2070.479          43.900          37.100
 18  1 21 21 18  0.0000000  0 12R16G14G29R18R24G25G31G26G21G02R17R15
 105530907.536 7  82079604.421 7  19755607.438    19755607.547    19755609.461
      1902.973        1480.093          45.600          44.000
 127739378.339 6  99537212.39643  24308002.641                    24308007.133
     -2836.848       -2210.561          37.400          20.100
 106464015.095 8  82959005.21447  20259428.578                    20259431.898
      -788.363        -614.060          50.700          43.000
 105693791.290 8  82206291.713 7  19800007.430    19800006.598    19800009.070
      2184.568        1699.116          49.400          46.300
 125860254.409 6  97891307.067 4  23536500.820    23536500.695    23536502.020
     -4197.732       -3264.886          37.900          27.000
 113194325.826 8  88203440.06947  21540165.953                    21540171.445
     -2126.695       -1657.016          53.400          42.100
 110182936.891 8  85856868.97247  20967117.305                    20967119.430
        58.965          46.174          52.000          43.000
 119998698.546 7  93505544.16145  22835003.234                    22835010.035
      2853.605        2223.644          45.700          35.200
 122431601.413 7  95401273.73844  23297962.789                    23297964.129
      3037.020        2366.640          45.100          29.700
 128980912.549 7 100504614.07645  24544252.695                    24544253.266
     -2591.395       -2019.124          46.200          31.600
 105826757.726 8  82309715.365 8  19776258.469    19776257.754    19776259.477
     -1857.969       -1445.078          51.500          48.800
 109560226.737 7  85213518.807 6  20502701.164    20502700.805    20502704.668
     -2679.072       -2083.734          43.300          36.700
 18  1 21 21 18 30.0000000  0 12R16G14G29R18R24G25G31G26G21G02R17R15
 105474105.633 7  82035425.175 7  19744974.641    19744973.574    19744976.246
      1884.443        1465.685          45.600          43.600
 127824581.212 6  99603604.15643  24324217.133                    24324220.438
     -2843.238       -2215.356          37.500          19.900
 106487887.535 8  82977607.10347  20263971.836                    20263974.648
      -803.223        -625.676          51.300          43.500
 105628584.714 8  82155575.503 7  19787792.547    19787792.305    19787794.773
      2163.289        1682.548          50.100          47.300
 125986232.213 6  97989285.832 4  23560059.711    23560059.703    23560059.387
     -4200.622       -3267.169          39.700          26.600
 113258279.211 8  88253273.85747  21552336.141                    21552341.414
     -2136.863       -1664.941          53.900          42.100
 110181452.433 8  85855712.24847  20966834.484                    20966837.039
        39.988          31.443          52.400          43.000
 119913170.652 7  93438899.04745  22818727.570                    22818734.500
      2848.246        2219.531          46.200          34.900
 122340607.074 7  95330369.08145  23280646.492                    23280649.109
      3029.242        2360.542          45.700          30.000
 129058799.710 7 100565305.38445  24559073.297                    24559074.582
     -2601.125       -2026.686          45.100          31.400
 105882808.512 8  82353310.428 8  19786732.891    19786732.059    19786733.984
     -1878.041       -1460.694          50.800          48.800
 109640864.180 7  85276236.804 6  20517789.469    20517790.164    20517794.520
     -2696.135       -2097.004          42.000          37.400
 18  1 21 21 19  0.0000000  0 12R16G14G29R18R24G25G31G26G21G02R17R15
 105417860.649 7  81991679.085 7  19734445.805    19734444.152    19734446.730
      1865.803        1451.163          45.300          43.400
 127909967.126 6  99670138.57943  24340464.867                    24340468.938
     -2849.305       -2220.108          36.300          19.300
 106512205.713 8  82996556.32947  20268599.336                    20268602.520
      -817.992        -637.261          51.200          43.700
 105564015.402 8  82105354.938 7  19775696.805    19775695.973    19775698.121
      2141.979        1665.978          50.600          46.800
 126112295.975 6  98087331.418 4  23583633.516    23583633.273    23583633.324
     -4203.506       -3269.359          38.000          26.700
 113322536.876 8  88303344.75446  21564563.727                    21564569.418
     -2147.047       -1672.885          53.500          41.100
 110180535.105 8  85854997.44847  20966660.422                    20966662.840
        21.090          16.669          53.200          43.000
 119827800.672 7  93372376.98845  22802482.344                    22802488.926
      2843.047        2215.364          46.100          34.000
 122249846.994 7  95259646.95645  23263375.398                    23263376.859
      3021.418        2354.423          46.400          30.000
 129136975.772 7 100626221.80844  24573949.703                    24573949.898
     -2610.629       -2034.198          45.500          29.600
 105939459.755 8  82397372.515 8  19797319.141    19797318.426    19797320.258
     -1898.061       -1476.273          50.600          48.800
 109722010.153 7  85339350.336 6  20532976.516    20532975.801    20532980.707
     -2713.106       -2110.184          42.200          37.200
 18  1 21 21 19 30.0000000  0 13R16G14G29R18R24G25R09G31G26G21G02R17
                                R15
 105362176.143 7  81948368.906 7  19724021.133    19724019.832    19724022.289
      1847.122        1436.642          44.600          44.000
 127995533.622 6  99736813.72943  24356748.781                    24356752.117
     -2855.250       -2224.723          36.000          18.600
 106536968.512 8  83015852.00947  20273311.727                    20273315.184
      -832.746        -648.752          52.100          43.500
 105500085.477 8  82055631.660 8  19763720.922    19763719.973    19763722.277
      2120.687        1649.438          50.900          48.100
 126238443.201 6  98185449.928 4  23607222.156    23607221.914    23607224.039
     -4206.215       -3271.494          36.500          25.000
 113387098.696 8  88353652.64646  21576849.414                    21576854.820
     -2157.074       -1680.730          53.100          41.600
 126679205.967 6  98528255.830 5  23722945.344    23722944.512    23722943.840
      4139.312        3219.414          38.300          34.200
 110180185.609 8  85854725.10147  20966593.445                    20966596.270
         2.223           1.969          53.200          42.600
 119742590.472 7  93305979.41145  22786266.352                    22786273.578
      2837.680        2211.252          45.200          33.200
 122159323.132 7  95189108.91045  23246148.984                    23246151.426
      3013.480        2348.298          46.900          30.200
 129215438.882 7 100687361.90044  24588880.523                    24588881.051
     -2620.152       -2041.572          44.500          28.400
 105996709.016 8  82441899.712 8  19808017.664    19808016.480    19808018.758
     -1917.901       -1491.705          50.300          49.100
 109803664.330 7  85402859.136 6  20548256.328    20548255.730    20548260.656
     -2729.944       -2123.304          42.000          37.500
 18  1 21 21 20  0.0000000  0 13R16G14G29R18R24G25R09G31G26G21G02R17
                                R15
 105307053.306 7  81905495.585 7  19713701.484    19713701.004    19713703.297
      1828.348        1422.061          45.400          43.900
 128081275.880 6  99803625.81342  24373063.578                    24373068.035
     -2860.855       -2229.277          36.000          16.900
 106562173.345 8  83035492.13547  20278108.039                    20278110.699
      -847.531        -660.210          51.700          43.700
 105436794.672 8  82006405.518 7  19751864.172    19751863.105    19751865.660
      2099.385        1632.845          50.800          46.900
 126364669.082 5  98283617.576 4  23630827.375    23630826.426    23630828.789
     -4208.795       -3273.449          35.700          27.000
 113451962.495 8  88404195.84146  21589192.625                    21589198.168
     -2167.164       -1688.554          53.400          41.300
 126555044.313 6  98431685.580 6  23699695.297    23699694.816    23699695.766
      4138.193        3218.543          38.900          38.600
 110180402.507 8  85854894.10447  20966634.430                    20966637.258
       -16.648         -12.754          51.700          42.300
 119657539.866 7  93239706.20545  22770082.039                    22770088.523
      2832.406        2207.104          45.000          33.100
 122069037.278 7  95118756.33245  23228968.328                    23228970.258
      3005.516        2342.079          46.800          30.000
 129294185.545 7 100748722.92844  24603865.430                    24603866.484
     -2629.609       -2048.901          45.400          27.300
 106054551.625 8  82486888.411 8  19818827.289    19818826.105    19818828.082
     -1937.621       -1507.053          51.000          48.300
 109885823.239 6  85466760.507 6  20563631.820    20563631.340    20563635.574
     -2746.717       -2136.351          41.100          37.300
 18  1 21 21 20 30.0000000  0 13R16G14G29R18R24G25R09G31G26G21G02R17
                                R15
 105252495.328 7  81863061.604 7  19703487.891    19703488.000    19703490.090
      1809.416        1407.331          45.400          44.100
 128167191.517 6  99870573.02442  24389413.594                    24389417.285
     -2866.609       -2233.744          37.300          17.400
 106587819.536 8  83055476.17947  20282988.445                    20282991.398
      -862.227        -671.690          51.600          43.600
 105374144.840 8  81957677.863 7  19740127.461    19740125.926    19740128.969
      2077.942        1616.179          50.300          46.700
 126490970.956 6  98381863.439 4  23654448.969    23654447.082    23654447.867
     -4211.291       -3275.466          37.600          26.600
 113517128.035 8  88454974.16946  21601593.023                    21601598.578
     -2177.168       -1696.413          52.700          40.000
 126430918.140 7  98335143.024 4  23676452.727    23676451.074    23676450.551
      4136.905        3217.660          42.600          26.300
 110181186.773 8  85855505.20947  20966784.445                    20966786.363
       -35.668         -27.521          52.100          42.300
 119572650.585 7  93173558.71545  22753929.156                    22753935.277
      2826.945        2202.855          46.300          34.100
 121978992.037 7  95048591.22145  23211833.539                    23211835.797
      2997.445        2335.770          47.200          32.100
 129373214.167 7 100810303.69144  24618904.305                    24618905.160
     -2639.020       -2056.239          44.100          27.900
 106112985.252 8  82532336.772 8  19829747.023    19829746.426    19829748.066
     -1957.329       -1522.355          50.800          48.400
 109968485.745 6  85531053.538 6  20579100.977    20579100.496    20579104.285
     -2763.569       -2149.447          40.500          37.900
 18  1 21 21 21  0.0000000  0 13R16G14G29R18R24G25R09G31G26G21G02R17
                                R15
 105198506.906 7  81821070.612 7  19693381.320    19693380.840    19693382.859
      1790.290        1392.445          45.800          43.800
 128253278.929 6  99937654.04043  24405795.125                    24405799.469
     -2872.676       -2238.247          37.400          18.300
 106613907.003 8  83075804.07547  20287952.719                    20287955.676
      -877.051        -683.225          51.100          43.400
 105312138.637 8  81909450.822 7  19728510.820    19728509.871    19728512.699
      2056.388        1599.421          50.300          46.500
 126617347.272 6  98480156.099 4  23678080.867    23678080.508    23678081.012
     -4213.851       -3277.450          37.900          25.300
 113582596.029 8  88505988.17246  21614051.227                    21614056.430
     -2187.473       -1704.348          52.800          40.800
 126306831.715 7  98238631.329 6  23653217.430    23653216.246    23653214.945
      4135.396        3216.412          44.800          40.100
 110182540.182 8  85856559.80247  20967040.820                    20967043.688
       -54.727         -42.406          51.400          42.100
 119487925.421 7  93107539.10045  22737805.188                    22737812.258
      2821.246        2198.481          45.600          33.300
 121889191.346 7  94978616.68345  23194745.250                    23194747.574
      2989.184        2329.313          47.300          32.300
 129452523.938 7 100872103.51544  24633996.461                    24633996.551
     -2648.426       -2063.601          44.100          27.100
 106172007.942 8  82578243.309 8  19840776.883    19840776.758    19840778.313
     -1977.027       -1537.683          50.600          48.300
 110051651.866 6  85595738.231 6  20594663.453    20594663.328    20594667.566
     -2780.408       -2162.523          40.600          36.700
 18  1 21 21 21 30.0000000  0 14R16G14G29R18R24G25R09G31G26G21G02R17
                                R15R19
 105145091.558 7  81779525.324 7  19683382.297    19683381.699    19683383.414
      1771.285        1377.668          45.800          43.300
 128339535.902 6 100004867.29043  24422209.555                    24422214.051
     -2877.984       -2242.529          36.200          18.300
 106640435.564 8  83096475.68247  20293001.086                    20293004.090
      -891.562        -694.527          51.500          43.400
 105250778.576 8  81861726.340 7  19717016.336    19717015.270    19717017.969
      2034.997        1582.776          50.300          46.800
 126743796.098 6  98578505.171 3  23701728.156    23701726.504    23701728.215
     -4216.034       -3279.116          37.900          23.600
 113648366.751 8  88557238.07746  21626567.102                    21626572.516
     -2197.328       -1712.074          51.800          40.600
 126182788.668 7  98142153.512 6  23629985.680    23629985.672    23629984.730
      4134.118        3215.421          44.100          36.800
 110184464.305 8  85858059.11346  20967407.602                    20967409.387
       -73.539         -57.077          50.200          41.800
 119403366.656 7  93041649.15245  22721714.859                    22721721.371
      2815.953        2194.294          45.200          32.500
 121799637.969 7  94908834.84245  23177703.336                    23177706.738
      2981.031        2322.984          47.400          32.600
 129532113.963 7 100934121.67444  24649143.148                    24649142.660
     -2657.578       -2070.726          44.100          26.400
 106231617.827 8  82624606.563 7  19851916.352    19851915.402    19851917.406
     -1996.369       -1552.725          51.100          47.800
 110135320.371 6  85660813.715 6  20610321.883    20610320.934    20610324.641
     -2797.001       -2175.406          40.900          37.000
 126609142.059 6  98473775.266 6  23668245.859    23668244.324    23668245.977
      4299.336        3343.958          39.200          38.300
 18  1 21 21 22  0.0000000  0 14R16G14G29R18R24G25R09G31G26G21G02R17
                                R15R19
 105092249.317 7  81738425.796 7  19673490.469    19673489.168    19673490.625
      1752.100        1362.746          45.800          42.800
 128425956.727 6 100072208.13943  24438656.055                    24438659.477
     -2883.367       -2246.783          37.700          18.300
 106667400.566 8  83117487.36947  20298132.117                    20298135.484
      -906.152        -705.889          50.900          43.700
 105190063.038 8  81814503.167 7  19705642.734    19705641.199    19705644.055
      2013.391        1565.976          50.400          46.800
 126870311.772 5  98676906.215 4  23725385.570    23725383.332    23725387.059
     -4218.284       -3280.874          35.400          25.200
 113714436.729 8  88608721.16146  21639139.695                    21639145.063
     -2207.426       -1719.882          52.900          40.500
 126058788.867 7  98045709.132 6  23606763.320    23606762.137    23606762.977
      4132.580        3214.210          42.100          38.300
 110186956.013 8  85860000.69846  20967881.469                    20967883.418
       -92.555         -71.874          50.300          41.100
 119318972.870 7  92975887.76745  22705655.125                    22705660.910
      2810.352        2189.956          43.100          31.300
 121710331.902 7  94839245.70845  23160709.305                    23160712.305
      2972.672        2316.487          46.000          32.400
 129611979.056 7 100996354.19444  24664341.375                    24664341.164
     -2666.789       -2077.894          44.900          26.900
 106291808.864 8  82671421.828 8  19863163.773    19863163.531    19863165.363
     -2015.726       -1567.796          51.600          48.100
 110219488.347 6  85726277.700 6  20626073.781    20626073.184    20626076.391
     -2813.652       -2188.385          41.800          37.100
 126480247.879 6  98373524.202 6  23644148.438    23644148.313    23644149.621
      4293.781        3339.600          39.400          37.700
 18  1 21 21 22 30.0000000  0 14R16G14G29R18R24G25R09G31G26G21G02R17
                                R15R19
 105039985.871 7  81697776.470 7  19663706.531    19663705.113    19663707.086
      1732.764        1347.697          45.100          43.100
 128512541.023 6 100139676.35843  24455131.992                    24455136.539
     -2889.000       -2250.976          37.700          19.300
 106694803.566 8  83138840.35447  20303346.953                    20303349.855
      -920.730        -717.244          51.800          44.100
 105129995.761 8  81767784.180 7  19694388.938    19694388.578    19694391.281
      1991.791        1549.179          50.000          47.200
 126996893.836 6  98775358.891 3  23749057.180    23749056.230    23749058.477
     -4220.437       -3282.547          36.900          23.300
 113780807.766 8  88660438.84446  21651769.742                    21651774.859
     -2217.359       -1727.691          51.900          40.400
 125934837.504 6  97949302.558 6  23583550.492    23583549.777    23583551.328
      4130.922        3212.906          40.000          37.800
 110190018.174 8  85862386.78546  20968464.297                    20968466.465
      -111.574         -86.693          49.400          40.600
 119234747.959 7  92910257.98645  22689628.031                    22689632.594
      2804.605        2185.542          45.000          31.400
 121621277.401 7  94769852.58345  23143762.578                    23143765.434
      2964.332        2309.935          45.700          31.800
 129692119.688 7 101058801.45944  24679591.406                    24679590.645
     -2675.961       -2085.023          43.200          25.600
 106352580.547 8  82718688.673 8  19874520.961    19874520.719    19874522.641
     -2035.023       -1582.795          51.600          48.300
 110304154.460 7  85792129.101 6  20641917.109    20641916.395    20641919.918
     -2830.237       -2201.297          42.500          37.900
 126351522.665 6  98273404.668 6  23620084.148    23620084.023    23620086.605
      4288.069        3335.182          39.400          37.400
 18  1 21 21 23  0.0000000  0 14R16G14G29R18R24G25R09G31G26G21G02R17
                                R15R19
 104988304.478 7  81657579.820 7  19654031.570    19654030.504    19654031.648
      1713.283        1332.564          44.900          43.000
 128599286.867 6 100207270.50243  24471640.023                    24471643.813
     -2894.309       -2255.137          37.300          20.400
 106722643.981 8  83160534.18647  20308644.453                    20308647.625
      -935.328        -728.628          51.000          44.100
 105070578.704 8  81721570.929 7  19683259.188    19683258.355    19683260.664
      1970.035        1532.255          50.000          47.100
 127123540.228 6  98873861.604 4  23772741.727    23772740.777    23772741.973
     -4222.568       -3284.237          36.200          24.900
 113847480.063 8  88712391.27046  21664456.992                    21664462.551
     -2227.484       -1735.558          52.100          40.400
 125810938.082 6  97852936.015 6  23560346.523    23560346.984    23560350.980
      4129.082        3211.517          39.400          39.300
 110193652.130 8  85865218.43846  20969155.063                    20969157.902
      -130.762        -101.593          49.300          40.700
 119150694.086 7  92844761.48445  22673632.742                    22673637.023
      2798.902        2181.042          44.700          31.400
 121532478.260 7  94700658.47245  23126864.094                    23126867.285
      2955.613        2303.215          45.800          30.900
 129772534.448 7 101121462.31744  24694892.984                    24694892.410
     -2685.016       -2092.146          43.200          24.800
 106413930.779 8  82766405.524 8  19885985.961    19885985.246    19885986.992
     -2054.350       -1597.822          52.100          48.200
 110389319.292 7  85858368.384 6  20657854.930    20657854.449    20657858.332
     -2846.874       -2214.223          43.900          37.300
 126222969.853 6  98173419.096 6  23596053.828    23596051.121    23596054.637
      4282.277        3330.644          39.200          37.500
 18  1 21 21 23 30.0000000  0 13R16G14G29R18G25R09G31G26G21G02R17R15
                                R19
 104937209.000 7  81617838.907 7  19644466.180    19644464.645    19644466.117
      1693.754        1317.371          44.800          43.800
 128686191.561 6 100274988.42743  24488177.188                    24488182.066
     -2899.434       -2259.213          37.900          20.900
 106750921.119 8  83182568.32347  20314025.539                    20314029.023
      -949.824        -739.932          50.900          44.600
 105011814.060 8  81675865.109 8  19672250.664    19672249.715    19672251.953
      1948.341        1515.378          50.600          49.000
 113914453.634 8  88764578.44846  21677201.570                    21677207.230
     -2237.461       -1743.329          51.900          40.900
 125687094.040 7  97756688.132 7  23537159.289    23537158.574    23537163.059
      4127.216        3210.063          43.500          44.200
 110197858.590 8  85868496.18846  20969956.469                    20969958.891
      -149.727        -116.429          49.100          40.500
 119066813.379 7  92779399.94245  22657671.094                    22657675.762
      2793.148        2176.550          44.700          31.700
 121443937.049 7  94631665.32644  23110014.586                    23110017.715
      2947.008        2296.538          42.900          29.500
 129853222.070 6 101184335.75244  24710247.836                    24710247.367
     -2693.965       -2099.180          41.800          24.700
 106475857.150 8  82814570.497 8  19897558.227    19897557.395    19897559.023
     -2073.424       -1612.679          52.300          48.300
 110474981.941 7  85924994.874 6  20673885.023    20673885.016    20673888.449
     -2863.399       -2227.090          44.500          38.900
 126094593.010 6  98073570.432 6  23572053.898    23572052.715    23572056.352
      4276.391        3326.059          38.600          38.600
 18  1 21 21 24  0.0000000  0 13R16G14G29R18G25R09G31G26G21G02R17R15
                                R19
 104886700.502 7  81578554.507 7  19635011.102    19635010.152    19635011.535
      1674.137        1302.115          44.500          43.900
 128773250.703 6 100342826.70343  24504743.727                    24504748.707
     -2904.332       -2263.146          38.500          21.800
 106779632.269 8  83204940.63547  20319489.016                    20319492.473
      -964.262        -751.145          51.000          44.400
 104953701.350 8  81630666.346 8  19661364.477    19661363.645    19661366.414
      1926.589        1498.452          51.000          49.000
 113981726.351 8  88816998.73246  21690003.438                    21690009.219
     -2247.320       -1751.063          52.300          41.000
 125563306.601 7  97660410.408 6  23513977.188    23513976.473    23513997.457
      4125.309        3208.563          42.000          37.500
 110202636.448 8  85872219.18546  20970865.633                    20970867.926
      -168.766        -131.248          50.500          41.300
 118983105.810 7  92714173.25945  22641741.758                    22641747.523
      2787.371        2172.064          44.100          33.200
 121355654.771 7  94562873.97744  23093215.148                    23093218.430
      2938.477        2289.816          42.700          28.900
 129934178.944 6 101247419.02444  24725652.094                    24725653.266
     -2703.004       -2106.113          41.800          25.500
 106538355.009 8  82863179.927 8  19909237.359    19909236.527    19909238.258
     -2092.385       -1627.401          51.800          48.500
 110561138.646 7  85992005.620 6  20690007.281    20690007.625    20690010.984
     -2879.821       -2239.868          45.200          38.900
 125966392.998 6  97973859.381 6  23548089.617    23548087.965    23548090.395
      4270.483        3321.473          39.200          38.400
 18  1 21 21 24 30.0000000  0 12R16G14G29R18G25G31G26G21G02R17R15R19
 104836781.847 7  81539728.863 7  19625665.766    19625665.285    19625666.844
      1654.391        1286.743          44.700          44.000
 128860461.695 6 100410783.28043  24521339.633                    24521345.098
     -2909.535       -2267.169          37.500          21.100
 106808776.146 8  83227650.15247  20325034.797                    20325038.293
      -978.715        -762.439          51.100          44.200
 104896241.994 8  81585975.757 8  19650600.133    19650599.184    19650601.871
      1904.731        1481.450          51.000          48.300
 114049297.726 8  88869651.73646  21702861.586                    21702867.566
     -2257.348       -1758.877          52.100          41.000
 110207985.856 8  85876387.53946  20971883.766                    20971885.539
      -187.828        -146.148          50.900          41.300
 118899572.875 7  92649082.69045  22625846.016                    22625852.078
      2781.430        2167.436          44.600          33.900
 121267633.629 7  94494286.08544  23076465.594                    23076468.734
      2929.668        2282.925          42.200          27.000
 130015403.169 6 101310710.69544  24741108.711                    24741109.020
     -2711.953       -2113.093          41.300          25.600
 106601421.488 8  82912231.638 8  19921023.281    19921022.922    19921024.266
     -2111.392       -1642.184          52.100          48.800
 110647788.353 7  86059399.794 6  20706223.531    20706223.051    20706227.238
     -2896.309       -2252.676          44.800          39.400
 125838372.737 6  97874287.979 6  23524157.383    23524156.316    23524157.926
      4264.381        3316.730          39.200          38.800
 18  1 21 21 25  0.0000000  0 13R16G14G29R18G25R09G31G26G21G02R17R15
                                R19
 104787457.300 7  81501365.313 7  19616432.492    19616432.012    19616433.461
      1634.557        1271.327          44.900          44.600
 128947822.379 6 100478856.49043  24537964.523                    24537969.293
     -2914.395       -2270.931          39.700          20.900
 106838352.845 8  83250696.92847  20330663.500                    20330666.809
      -993.094        -773.630          51.800          44.300
 104839438.278 8  81541795.110 8  19639958.398    19639957.332    19639960.352
      1882.871        1464.453          50.200          48.400
 114117168.209 8  88922537.80846  21715777.180                    21715783.020
     -2267.293       -1766.604          51.900          41.300
 125315896.708 7  97467930.997 7  23467650.008    23467651.875    23467653.785
      4121.088        3205.292          42.000          44.000
 110213908.169 8  85881002.32546  20973010.711                    20973012.813
      -206.949        -160.998          50.000          41.300
 118816217.237 7  92584130.23345  22609984.102                    22609990.883
      2775.555        2162.826          44.500          34.100
 121179877.289 7  94425904.52644  23059767.047                    23059769.238
      2920.770        2276.055          43.000          29.700
 130096893.705 6 101374209.81243  24756614.672                    24756614.949
     -2720.707       -2119.947          41.300          22.300
 106665054.665 8  82961724.116 8  19932914.273    19932912.855    19932914.559
     -2130.220       -1656.839          51.600          48.100
 110734930.126 7  86127176.719 6  20722530.414    20722530.406    20722534.082
     -2912.655       -2265.379          44.600          39.700
 125710536.004 6  97774859.415 6  23500259.313    23500259.773    23500260.863
      4258.256        3311.973          40.600          39.100
 18  1 21 21 25 30.0000000  0 13R16G14G29R18G25R09G31G26G21G02R17R15
                                R19
 104738728.428 7  81463465.085 7  19607310.719    19607309.418    19607311.441
      1614.681        1255.868          44.900          44.000
 129035328.817 6 100547043.30743  24554616.789                    24554620.930
     -2919.117       -2274.664          41.100          22.500
 106868359.306 8  83274078.59147  20336373.406                    20336376.711
     -1007.395        -784.761          51.000          44.200
 104783290.177 8  81498124.388 8  19629439.391    19629438.559    19629441.383
      1861.048        1447.468          50.300          48.400
 114185335.860 8  88975655.44446  21728749.055                    21728754.844
     -2277.277       -1774.302          51.900          40.900
 125192297.312 7  97371798.235 6  23444502.195    23444501.953    23444503.254
      4118.904        3203.612          42.900          39.800
 110220402.269 8  85886062.65546  20974246.758                    20974248.273
      -226.070        -175.847          51.400          41.500
 118733038.950 7  92519315.98545  22594155.328                    22594163.344
      2769.762        2158.275          43.700          34.800
 121092386.856 7  94357730.21045  23043117.547                    23043120.008
      2911.809        2269.108          44.200          30.000
 130178646.907 7 101437913.49344  24772172.633                    24772174.738
     -2729.414       -2126.739          42.000          24.600
 106729250.010 8  83011653.830 7  19944910.578    19944910.098    19944911.711
     -2148.824       -1671.300          51.900          47.800
 110822561.431 7  86195334.419 6  20738929.219    20738928.977    20738932.879
     -2928.867       -2278.015          43.800          39.800
 125582884.019 6  97675574.549 6  23476396.578    23476394.574    23476398.145
      4252.113        3307.179          39.900          38.600
 18  1 21 21 26  0.0000000  0 13R16G14G29R18G25R09G31G26G21G02R17R15
                                R19
 104690597.012 7  81426029.563 7  19598299.695    19598298.629    19598300.523
      1594.771        1240.378          44.300          44.000
 129122977.344 6 100615340.82843  24571295.859                    24571300.508
     -2923.824       -2278.316          40.200          22.000
 106898793.571 8  83297793.60847  20342164.703                    20342168.363
     -1021.598        -795.840          51.300          44.700
 104727797.800 8  81454963.652 8  19619044.742    19619043.793    19619046.137
      1839.232        1430.501          50.200          48.200
 114253799.337 8  89029003.58646  21741777.156                    21741783.277
     -2286.988       -1781.945          52.000          41.500
 125068765.271 6  97275717.598 6  23421367.313    23421365.191    23421367.715
      4116.685        3201.877          38.900          40.500
 110227467.925 8  85891568.35946  20975590.992                    20975592.977
      -245.090        -190.673          51.400          41.800
 118650038.877 7  92454640.57945  22578361.328                    22578369.313
      2763.797        2153.653          43.400          35.000
 121005164.160 7  94289764.48945  23026520.102                    23026522.422
      2902.930        2262.169          44.600          30.900
 130260660.448 7 101501820.21344  24787778.664                    24787781.852
     -2738.012       -2133.430          42.400          27.500
 106794003.767 8  83062017.868 8  19957011.023    19957010.426    19957012.148
     -2167.384       -1685.747          51.300          48.000
 110910679.370 7  86263870.594 6  20755420.195    20755418.777    20755423.316
     -2945.065       -2290.606          44.100          40.200
 125455419.154 6  97576435.189 6  23452568.555    23452565.965    23452569.566
      4245.792        3302.299          40.400          40.800
 18  1 21 21 26 30.0000000  0 13R16G14G29R18G25R09G31G26G21G02R17R15
                                R19
 104643065.377 7  81389060.517 7  19589401.859    19589401.145    19589402.926
      1574.729        1224.770          44.400          44.400
 129210764.274 6 100683746.17943  24588001.695                    24588006.004
     -2928.492       -2281.888          39.700          21.500
 106929653.906 8  83321840.62347  20348037.469                    20348040.555
     -1035.746        -806.896          51.000          45.000
 104672961.985 8  81412313.579 8  19608772.250    19608770.949    19608773.285
      1817.313        1413.463          50.500          48.000
 114322557.475 8  89082581.33946  21754861.484                    21754867.109
     -2296.895       -1789.604          51.800          40.800
 124945302.730 7  97179691.112 7  23398249.164    23398247.277    23398250.762
      4114.263        3200.002          43.600          43.100
 110235104.386 8  85897518.84246  20977044.203                    20977046.184
      -264.098        -205.501          51.400          41.600
 118567217.918 7  92390104.74646  22562601.813                    22562608.969
      2757.695        2148.943          44.600          36.500
 120918210.575 7  94222008.47445  23009973.172                    23009975.855
      2893.875        2255.141          44.400          32.700
 130342931.607 7 101565927.64643  24803435.125                    24803434.535
     -2746.680       -2140.105          42.900          23.000
 106859312.447 8  83112813.502 7  19969215.945    19969215.230    19969216.703
     -2185.844       -1700.111          51.200          47.600
 110999282.460 7  86332784.103 6  20772001.422    20772000.590    20772004.578
     -2961.203       -2303.153          44.000          39.600
 125328143.179 6  97477442.745 6  23428776.117    23428775.051    23428776.395
      4239.474        3297.366          39.800          39.500
 18  1 21 21 27  0.0000000  0 13R16G14G29R18G25R09G31G26G21G02R17R15
                                R19
 104596136.740 7  81352560.433 7  19580616.789    19580615.957    19580618.117
      1554.566        1209.131          44.300          44.800
 129298686.819 6 100752257.22943  24604732.016                    24604736.461
     -2932.875       -2285.350          38.900          21.300
 106960939.303 8  83346218.85447  20353990.672                    20353994.266
     -1049.887        -817.895          50.600          44.500
 104618783.699 8  81370174.923 7  19598622.008    19598621.766    19598623.828
      1795.363        1396.387          50.700          47.900
 114391609.814 8  89136388.34046  21768001.773                    21768007.797
     -2306.602       -1797.226          52.200          41.000
 124821912.558 7  97083721.117 7  23375140.422    23375140.648    23375143.668
      4111.867        3198.113          43.400          43.200
 110243312.200 8  85903914.53146  20978606.266                    20978608.238
      -283.008        -220.319          50.900          41.800
 118484577.696 7  92325709.74346  22546875.539                    22546882.363
      2751.609        2144.259          44.400          36.800
 120831528.480 7  94154464.00145  22993478.266                    22993480.520
      2884.863        2248.067          46.400          33.700
 130425458.557 7 101630234.28743  24819139.586                    24819140.738
     -2755.117       -2146.734          42.800          22.800
 106925173.017 8  83164038.386 7  19981523.367    19981522.887    19981524.805
     -2204.151       -1714.356          50.700          47.500
 111088368.601 7  86402073.343 6  20788671.508    20788671.852    20788675.949
     -2977.245       -2315.647          44.600          39.600
 125201058.743 6  97378599.298 6  23405019.484    23405018.184    23405019.688
      4233.068        3292.400          41.200          40.900
 18  1 21 21 27 30.0000000  0 13R16G14G29R18G25R09G31G26G21G02R17R15
                                R19
 104549813.089 7  81316530.930 7  19571945.289    19571944.223    19571946.344
      1534.325        1193.358          44.900          44.900
 129386741.901 6 100820871.54943  24621488.758                    24621492.316
     -2937.453       -2288.827          38.500          19.900
 106992647.766 8  83370926.74947  20360024.836                    20360028.168
     -1063.937        -828.906          50.600          44.600
 104565264.120 8  81328548.598 8  19588596.148    19588594.965    19588597.363
      1773.370        1379.281          50.800          48.500
 114460955.296 8  89190423.76146  21781197.586                    21781203.730
     -2316.297       -1804.855          51.700          40.300
 124698597.483 6  96987809.345 6  23352046.430    23352045.598    23352047.145
      4109.274        3196.068          41.700          40.500
 110252090.715 8  85910754.92546  20980276.656                    20980278.461
      -302.172        -235.205          51.900          41.700
 118402119.276 7  92261456.44246  22531184.133                    22531190.633
      2745.641        2139.485          44.500          36.000
 120745120.049 7  94087132.77345  22977034.875                    22977037.949
      2875.727        2240.898          46.200          34.000
 130508239.068 7 101694738.57944  24834893.094                    24834894.324
     -2763.559       -2153.322          43.900          26.700
 106991581.791 8  83215689.645 7  19993933.031    19993932.316    19993934.035
     -2222.444       -1728.566          49.900          47.800
 111177935.376 7  86471736.364 6  20805432.867    20805433.094    20805436.801
     -2993.315       -2328.149          43.600          39.500
 125074168.392 6  97279906.793 6  23381298.086    23381296.902    23381298.637
      4226.476        3287.274          41.600          40.300
 18  1 21 21 28  0.0000000  0 13R16G14G29R18G25R09G31G26G21G02R17R15
                                R19
 104504098.512 7  81280975.148 7  19563387.906    19563386.371    19563388.121
      1513.911        1177.503          45.600          45.500
 129474927.745 6 100889587.78543  24638269.367                    24638272.988
     -2941.609       -2292.189          38.100          19.900
 107024779.235 8  83395964.26647  20366139.164                    20366142.219
     -1078.117        -839.903          51.600          44.400
 104512405.037 8  81287435.979 7  19578694.633    19578693.684    19578695.605
      1751.315        1362.143          50.800          47.800
 114530594.532 8  89244688.08546  21794449.297                    21794455.465
     -2326.254       -1812.501          51.600          39.900
 124575361.597 7  96891959.191 7  23328967.930    23328967.805    23328973.629
      4106.544        3193.964          42.100          43.000
 110261441.613 8  85918041.32446  20982056.211                    20982058.273
      -321.215        -250.084          52.000          41.600
 118319845.460 7  92197346.99045  22515527.938                    22515534.441
      2739.398        2134.641          44.100          35.100
 120658989.059 7  94020017.72645  22960644.430                    22960647.051
      2866.414        2233.666          46.200          32.600
 130591271.624 7 101759439.30944  24850694.508                    24850693.832
     -2771.969       -2159.853          44.900          27.100
 107058537.093 8  83267765.986 7  20006446.344    20006444.691    20006446.719
     -2240.629       -1742.708          49.900          47.700
 111267982.922 7  86541773.321 6  20822284.484    20822283.418    20822287.738
     -3009.296       -2340.548          43.900          39.700
 124947475.801 6  97181368.146 6  23357614.609    23357613.543    23357616.406
      4219.868        3282.085          41.500          41.000
 18  1 21 21 28 30.0000000  0 13R16G14G29R18G25R09G31G26G21G02R17R15
                                R19
 104458994.189 7  81245894.010 7  19554943.430    19554942.598    19554944.867
      1493.605        1161.690          45.800          45.400
 129563239.811 6 100958402.38343  24655074.328                    24655077.480
     -2945.758       -2295.404          38.100          19.900
 107057330.857 8  83421329.16747  20372333.125                    20372336.457
     -1092.031        -850.751          51.700          44.700
 104460205.979 8  81246836.726 8  19568915.406    19568914.809    19568916.820
      1729.329        1345.052          50.700          48.500
 114600525.331 8  89299179.60546  21807757.289                    21807762.418
     -2335.898       -1820.026          51.800          39.600
 124452206.118 7  96796171.666 6  23305904.500    23305904.141    23305908.086
      4103.888        3191.921          42.100          40.800
 110271363.277 8  85925772.49447  20983944.438                    20983946.191
      -340.199        -264.866          51.600          42.400
 118237756.219 7  92133381.34846  22499906.516                    22499912.285
      2733.227        2129.866          44.900          36.000
 120573136.044 7  93953119.28245  22944306.938                    22944309.688
      2857.164        2226.458          45.800          33.000
 130674553.053 7 101824333.86943  24866541.961                    24866541.156
     -2780.191       -2166.237          43.200          23.300
 107126034.215 8  83320263.755 8  20019058.469    20019058.227    20019060.305
     -2258.593       -1756.684          49.400          48.500
 111358507.246 7  86612181.094 6  20839225.672    20839224.020    20839228.520
     -3025.138       -2352.863          44.700          40.000
 124820982.218 7  97082984.234 6  23333967.563    23333967.555    23333969.773
      4213.247        3276.980          42.500          41.500
 18  1 21 21 29  0.0000000  0 13R16G14G29R18G25R09G31G26G21G02R17R15
                                R19
 104414501.953 7  81211288.946 7  19546614.547    19546614.066    19546616.004
      1473.150        1145.784          45.200          45.500
 129651674.394 6 101027312.41143  24671902.930                    24671906.004
     -2949.828       -2298.516          38.900          19.000
 107090300.285 8  83447019.62247  20378607.281                    20378610.539
     -1105.996        -861.613          51.400          45.400
 104408667.184 8  81206751.026 7  19559260.438    19559259.723    19559262.152
      1707.305        1327.894          50.100          47.700
 114670746.002 8  89353896.99946  21821119.547                    21821125.262
     -2345.488       -1827.565          50.200          39.400
 124329133.226 6  96700448.248 5  23282855.977    23282854.910    23282855.098
      4101.094        3189.699          39.100          35.400
 110281854.792 8  85933947.68847  20985940.750                    20985942.516
      -359.293        -279.686          52.300          42.300
 118155851.957 7  92069559.85645  22484320.516                    22484326.750
      2727.070        2125.030          45.700          35.800
 120487562.315 7  93886438.47645  22928023.344                    22928025.402
      2847.836        2219.144          46.300          32.200
 130758080.127 7 101889419.85543  24882436.328                    24882435.879
     -2788.258       -2172.618          42.800          23.800
 107194068.948 8  83373179.664 8  20031772.492    20031772.012    20031774.438
     -2276.488       -1770.603          50.100          48.600
 111449505.723 7  86682957.669 6  20856254.297    20856253.699    20856258.152
     -3040.946       -2365.179          44.400          39.600
 124694689.375 6  96984756.478 6  23310359.711    23310356.770    23310359.695
      4206.493        3271.722          41.600          41.400
 18  1 21 21 29 30.0000000  0 13R16G14G29R18G25R09G31G26G21G02R17R15
                                R19
 104370626.331 7  81177163.454 7  19538399.602    19538399.828    19538402.023
      1452.585        1129.797          44.700          45.700
 129740230.173 6 101096316.90743  24688754.656                    24688757.738
     -2953.906       -2301.640          40.200          19.300
 107123687.885 8  83473035.92947  20384960.852                    20384963.988
     -1119.895        -872.447          51.600          45.500
 104357791.328 8  81167180.931 7  19549729.484    19549728.770    19549731.176
      1685.161        1310.682          49.600          47.900
 114741257.894 8  89408841.31446  21834537.664                    21834543.273
     -2355.250       -1835.120          50.000          38.600
 124206147.751 6  96604792.799 5  23259826.750    23259824.863    23259821.984
      4098.064        3187.459          40.900          34.200
 110292918.072 8  85942568.42846  20988046.008                    20988047.586
      -378.293        -294.527          51.900          41.800
 118074136.222 7  92005885.26645  22468771.086                    22468776.566
      2720.766        2120.113          45.200          35.700
 120402272.141 7  93819978.60445  22911793.617                    22911795.836
      2838.258        2211.757          47.000          34.200
 130841852.855 6 101954697.35744  24898376.891                    24898376.082
     -2796.520       -2178.960          40.900          24.500
 107262640.160 8  83426512.835 8  20044586.945    20044585.996    20044588.449
     -2294.304       -1784.460          49.800          48.800
 111540979.100 7  86754103.643 6  20873371.625    20873371.383    20873376.199
     -3056.728       -2377.450          43.600          40.600
 124568601.686 7  96886688.285 6  23286788.633    23286787.918    23286789.383
      4199.590        3266.350          42.200          41.500
 18  1 21 21 30  0.0000000  0 13R16G14G29R18G25R09G31G26G21G02R17R15
                                R19
 104327368.892 7  81143518.773 7  19530301.719    19530300.887    19530304.043
      1431.857        1113.675          44.300          45.100
 129828903.075 6 101165412.60143  24705628.523                    24705631.492
     -2957.789       -2304.696          39.700          19.900
 107157491.435 8  83499376.35647  20391393.719                    20391396.809
     -1133.730        -883.272          52.200          45.200
 104307578.120 8  81128126.208 8  19540323.281    19540322.684    19540325.066
      1663.027        1293.471          49.700          48.000
 114812059.126 8  89464011.09646  21848010.828                    21848016.406
     -2364.977       -1842.659          50.300          38.300
 124083251.260 6  96509206.842 5  23236811.773    23236810.473    23236810.730
      4095.028        3184.981          41.400          35.700
 110304551.857 8  85951633.70546  20990259.922                    20990262.047
      -397.387        -309.376          51.000          41.700
 117992609.258 7  91942357.78945  22453256.227                    22453262.359
      2714.398        2115.152          47.100          35.400
 120317266.489 7  93753740.44645  22895617.227                    22895619.996
      2828.703        2204.317          47.600          34.500
 130925867.711 6 102020163.46443  24914364.086                    24914364.266
     -2804.516       -2185.286          39.800          19.900
 107331743.534 8  83480259.885 8  20057500.250    20057499.891    20057501.871
     -2312.035       -1798.258          50.100          49.000
 111632923.648 7  86825616.059 6  20890577.961    20890577.719    20890582.211
     -3072.462       -2389.684          43.900          39.800
 124442720.593 6  96788780.799 6  23263256.766    23263253.824    23263256.262
      4192.594        3260.910          41.400          40.800
 18  1 21 21 30 30.0000000  0 12R16G29R18G25R09G31G26G21G02R17R15R19
 104284731.638 7  81110356.467 7  19522321.953    19522319.832    19522322.309
      1411.168        1097.564          43.400          45.300
 107191708.805 8  83526039.24647  20397904.953                    20397908.031
     -1147.582        -894.009          51.800          45.200
 104258027.768 8  81089587.059 8  19531041.172    19531039.754    19531041.832
      1640.922        1276.274          50.100          48.100
 114883148.354 8  89519405.30046  21861538.555                    21861544.227
     -2374.496       -1850.141          50.000          37.900
 123960446.281 6  96413691.903 5  23213814.664    23213813.598    23213810.441
      4091.914        3182.590          41.400          35.300
 110316755.589 8  85961143.10447  20992581.859                    20992584.113
      -416.402        -324.187          52.000          42.100
 117911271.968 7  91878978.09945  22437777.906                    22437784.016
      2707.910        2110.194          44.500          34.300
 120232546.893 7  93687725.18345  22879495.672                    22879498.750
      2819.059        2196.837          47.000          34.300
 131010122.106 6 102085816.22444  24930397.086                    24930399.336
     -2812.520       -2191.472          41.100          24.000
 107401375.058 8  83534417.735 8  20070513.617    20070511.965    20070513.922
     -2329.581       -1811.907          50.400          49.500
 111725337.689 7  86897493.678 6  20907872.273    20907871.324    20907876.180
     -3088.034       -2401.836          43.400          40.400
 124317047.941 6  96691035.422 6  23239761.266    23239759.262    23239762.582
      4185.608        3255.478          39.800          40.400
 18  1 21 21 31  0.0000000  0 12R16G29R18G25R09G31G26G21G02R17R15R19
 104242718.401 7  81077679.480 7  19514456.336    19514455.387    19514457.172
      1390.371        1081.384          44.200          44.900
 107226340.053 8  83553024.63347  20404494.906                    20404497.883
     -1161.270        -904.708          52.200          45.100
 104209142.292 8  81051565.031 7  19521882.727    19521882.719    19521884.551
      1618.791        1259.063          50.100          47.700
 114954526.214 8  89575024.39946  21875121.336                    21875126.469
     -2384.117       -1857.598          49.800          37.900
 123837736.995 6  96318251.373 5  23190833.445    23190834.023    23190830.688
      4088.767        3180.163          41.700          35.600
 110329530.468 8  85971097.55046  20995012.828                    20995015.332
      -435.469        -339.000          51.400          41.900
 117830127.172 7  91815748.38345  22422336.672                    22422343.449
      2701.641        2105.252          44.100          34.200
 120148117.106 7  93621935.74945  22863428.859                    22863432.566
      2809.461        2189.335          46.400          35.100
 131094615.602 7 102151655.37044  24946476.305                    24946477.176
     -2820.406       -2197.597          44.900          27.100
 107471533.031 8  83588985.056 8  20083623.602    20083623.594    20083625.313
     -2347.010       -1825.467          50.200          49.800
 111818219.432 7  86969735.027 6  20925254.188    20925253.355    20925257.715
     -3103.576       -2413.898          44.200          40.300
 124191588.188 6  96593455.626 6  23216307.758    23216306.105    23216310.457
      4178.568        3249.973          39.300          41.400
 18  1 21 21 31 30.0000000  0 12R16G29R18G25R09G31G26G21G02R17R15R19
 104201332.252 7  81045490.235 7  19506708.945    19506707.762    19506710.250
      1369.479        1065.156          45.300          45.100
 107261383.796 8  83580331.44547  20411163.500                    20411166.441
     -1174.949        -915.354          52.900          44.900
 104160923.174 8  81014061.297 7  19512849.766    19512849.051    19512851.273
      1596.599        1241.795          49.900          47.900
 115026192.413 8  89630868.17646  21888759.016                    21888764.184
     -2393.641       -1865.039          50.000          36.900
 123715126.854 7  96222887.967 6  23167873.273    23167873.148    23167872.930
      4085.424        3177.554          42.400          38.900
 110342877.200 8  85981497.59146  20997552.805                    20997555.199
      -454.355        -353.797          51.300          41.000
 117749176.813 7  91752670.14345  22406932.930                    22406939.246
      2695.125        2100.193          43.400          34.900
 120063979.690 7  93556374.10945  22847418.297                    22847421.145
      2799.762        2181.751          47.700          34.400
 131179346.201 7 102217679.19944  24962601.375                    24962598.918
     -2828.203       -2203.722          45.600          24.600
 107542214.645 8  83643959.631 8  20096832.617    20096832.375    20096834.082
     -2364.412       -1838.982          49.900          49.800
 111911568.421 7  87042339.764 6  20942723.078    20942722.363    20942726.223
     -3119.125       -2425.961          44.500          39.800
 124066343.787 6  96496043.313 7  23192895.320    23192892.496    23192897.375
      4171.322        3244.370          38.600          42.100
 18  1 21 21 32  0.0000000  0 12R16G29R18G25R09G31G26G21G02R17R15R19
 104160574.692 7  81013789.912 7  19499078.383    19499077.902    19499079.813
      1348.420        1048.780          45.700          45.400
 107296837.894 8  83607958.01547  20417910.297                    20417913.656
     -1188.508        -926.018          52.300          45.000
 104113370.065 8  80977075.564 8  19503941.469    19503940.520    19503942.871
      1574.381        1224.511          50.100          48.200
 115098145.320 8  89686935.36846  21902450.922                    21902456.324
     -2403.184       -1872.491          49.200          36.500
 123592617.822 7  96127603.129 6  23144932.172    23144931.223    23144932.250
      4081.965        3174.886          43.600          39.700
 110356794.007 8  85992341.84447  21000201.359                    21000203.523
      -473.391        -368.639          51.900          42.200
 117668421.374 7  91689743.81046  22391565.711                    22391572.426
      2688.703        2095.103          43.400          36.200
 119980135.692 7  93491041.13445  22831464.047                    22831465.984
      2789.938        2174.062          46.600          34.400
 131264310.993 7 102283885.42544  24978769.617                    24978769.035
     -2835.941       -2209.776          44.900          25.900
 107613415.690 8  83699338.235 8  20110138.125    20110137.766    20110139.379
     -2381.698       -1852.445          50.000          49.500
 112005381.953 7  87115305.821 6  20960278.617    20960278.492    20960282.309
     -3134.556       -2437.993          43.900          39.900
 123941316.614 6  96398799.984 7  23169522.961    23169522.836    23169525.105
      4163.994        3238.691          38.800          42.100
 18  1 21 21 32 30.0000000  0 12R16G29R18G25R09G31G26G21G02R17R15R19
 104120448.850 7  80982580.935 7  19491567.555    19491566.371    19491568.441
      1327.339        1032.372          45.800          45.100
 107332701.103 8  83635903.37147  20424734.922                    20424737.824
     -1202.242        -936.627          51.300          44.700
 104066484.163 8  80940608.752 8  19495157.750    19495157.270    19495159.281
      1552.139        1207.217          49.900          48.500
 115170384.447 8  89743225.58446  21916197.961                    21916203.039
     -2412.695       -1879.920          48.200          36.300
 123470213.149 7  96032399.504 7  23122010.000    23122008.230    23122011.141
      4078.475        3172.109          43.000          42.100
 110371281.236 8  86003630.58247  21002957.617                    21002960.117
      -492.426        -383.449          50.800          42.600
 117587862.585 7  91626970.73646  22376236.586                    22376243.410
      2682.059        2089.967          45.300          37.300
 119896588.020 7  93425939.07045  22815565.336                    22815567.031
      2779.883        2166.335          47.300          33.900
 131349507.944 7 102350272.72244  24994981.930                    24994980.746
     -2843.793       -2215.799          43.800          26.300
 107685133.290 8  83755118.598 8  20123539.984    20123540.328    20123541.988
     -2398.879       -1865.790          50.000          49.200
 112099657.339 7  87188631.094 6  20977921.727    20977920.426    20977924.660
     -3149.890       -2449.929          42.700          38.600
 123816509.453 6  96301727.760 7  23146193.453    23146192.387    23146193.641
      4156.704        3232.982          38.500          42.200
 18  1 21 21 33  0.0000000  0 12R16G29R18G25R09G31G26G21G02R17R15R19
 104080957.122 7  80951865.139 7  19484174.016    19484173.773    19484175.348
      1306.167        1015.915          45.100          45.300
 107368971.970 8  83664166.39047  20431636.734                    20431639.859
     -1215.723        -947.184          52.100          45.100
 104020266.041 8  80904661.334 8  19486499.609    19486498.895    19486501.660
      1529.849        1189.886          49.800          48.800
 115242909.148 7  89799738.33445  21929998.625                    21930004.348
     -2422.203       -1887.327          46.400          35.800
 123347915.907 7  95937279.433 6  23099108.117    23099107.285    23099108.074
      4074.822        3169.291          44.100          40.900
 110386338.765 8  86015363.71246  21005823.164                    21005825.609
      -511.367        -398.240          50.500          41.800
 117507502.057 8  91564352.14646  22360944.703                    22360950.820
      2675.336        2084.785          48.000          38.800
 119813338.690 8  93361069.51245  22799723.195                    22799725.141
      2770.043        2158.563          48.400          33.500
 131434935.310 6 102416839.51643  25011237.266                    25011235.266
     -2851.324       -2221.736          41.600          22.200
 107757364.220 8  83811298.220 8  20137038.000    20137038.344    20137039.848
     -2415.919       -1879.044          50.600          49.100
 112194393.236 6  87262314.567 6  20995649.180    20995648.699    20995653.313
     -3165.260       -2461.902          41.900          38.600
 123691924.616 6  96204828.475 7  23122903.164    23122902.098    23122904.023
      4149.231        3227.163          39.600          42.400
 18  1 21 21 33 30.0000000  0 12R16G29R18G25R09G31G26G21G02R17R15R19
 104042101.076 7  80921643.768 7  19476899.586    19476899.695    19476901.039
      1284.929         999.396          44.400          44.700
 107405648.423 8  83692745.43347  20438616.156                    20438619.426
     -1229.367        -957.733          52.200          45.000
 103974715.615 8  80869233.230 8  19477966.555    19477966.195    19477968.836
      1507.584        1172.563          49.600          48.800
 115315717.931 7  89856472.43345  21943853.773                    21943859.348
     -2431.742       -1894.709          47.300          35.000
 123225728.416 7  95842244.672 7  23076225.711    23076225.230    23076225.191
      4071.090        3166.406          44.000          42.000
 110401965.910 8  86027540.69347  21008797.188                    21008799.504
      -530.480        -413.065          52.300          42.500
 117427340.501 8  91501888.59046  22345690.758                    22345696.496
      2668.629        2079.601          48.800          39.100
 119730389.146 8  93296433.52645  22783937.945                    22783940.094
      2759.945        2150.733          48.000          33.000
 131520589.892 6 102483583.25643  25027535.898                    25027537.246
     -2859.070       -2227.653          39.700          22.600
 107830104.396 8  83867873.915 8  20150632.000    20150630.348    20150632.219
     -2432.876       -1892.232          51.000          48.900
 112289587.270 6  87336354.372 6  21013463.750    21013463.035    21013467.688
     -3180.459       -2473.719          40.900          38.700
 123567564.212 6  96108103.723 7  23099655.156    23099653.152    23099655.625
      4141.714        3221.345          40.800          42.800
 18  1 21 21 34  0.0000000  0 12R16G29R18G25R09G31G26G21G02R17R15R19
 104003882.736 7  80891918.393 7  19469745.539    19469744.590    19469746.602
      1263.651         982.849          44.400          44.300
 107442728.289 8  83721638.83847  20445672.344                    20445675.246
     -1242.727        -968.172          52.000          44.300
 103929832.870 8  80834324.447 8  19469559.367    19469557.715    19469560.262
      1485.323        1155.241          50.200          48.900
 115388809.404 7  89913426.82445  21957762.805                    21957768.563
     -2441.098       -1902.035          47.600          35.500
 123103652.946 7  95747297.104 7  23053363.422    23053363.414    23053366.414
      4067.333        3163.482          42.600          42.800
 110418161.610 8  86040160.71747  21011879.148                    21011881.902
      -549.410        -427.818          52.100          42.400
 117347378.760 8  91439580.75546  22330473.883                    22330480.242
      2661.938        2074.406          48.700          38.200
 119647740.922 7  93232032.35045  22768210.234                    22768212.852
      2749.824        2142.902          47.500          32.400
 131606468.785 6 102550501.93544  25043879.109                    25043878.555
     -2866.406       -2233.403          41.800          26.400
 107903349.906 8  83924842.656 8  20164319.352    20164318.051    20164319.707
     -2449.619       -1905.256          50.400          48.900
 112385236.523 6  87410748.234 6  21031361.711    21031362.406    21031367.121
     -3195.582       -2485.446          40.600          37.400
 123443429.999 6  96011554.867 7  23076448.797    23076447.848    23076449.867
      4134.106        3215.424          40.100          42.900
 18  1 21 21 34 30.0000000  0 12R16G29R18G25R09G31G26G21G02R17R15R19
 103966303.996 7  80862690.497 7  19462710.563    19462709.965    19462711.590
      1242.261         966.205          44.900          44.100
 107480209.479 8  83750844.96547  20452804.758                    20452807.590
     -1255.980        -978.580          52.100          44.200
 103885618.086 8  80799935.178 8  19461275.563    19461275.082    19461277.117
      1463.002        1137.903          49.900          48.300
 115462182.368 7  89970600.54445  21971725.375                    21971731.004
     -2450.395       -1909.343          47.000          35.500
 122981692.135 6  95652438.663 7  23030523.477    23030523.117    23030526.809
      4063.463        3160.470          41.800          43.300
 110434924.992 8  86053223.08847  21015069.289                    21015071.703
      -568.223        -442.555          52.100          42.800
 117267617.917 7  91377429.46046  22315295.594                    22315302.363
      2655.418        2069.167          46.900          37.700
 119565395.740 7  93167867.27245  22752539.938                    22752542.988
      2739.816        2134.997          45.800          32.300
 131692569.321 6 102617593.25444  25060262.789                    25060263.043
     -2873.730       -2239.167          41.700          25.000
 107977097.093 8  83982201.577 8  20178100.797    20178099.730    20178101.180
     -2466.307       -1918.234          51.100          48.700
 112481338.060 6  87485493.847 6  21049347.695    21049345.926    21049351.098
     -3210.686       -2497.196          40.500          36.900
 123319524.029 6  95915183.654 6  23053285.430    23053284.129    23053287.086
      4126.438        3209.468          41.500          41.500
 18  1 21 21 35  0.0000000  0 12R16G29R18G25R09G31G26G21G02R17R15R19
 103929367.323 7  80833961.976 7  19455796.000    19455795.402    19455797.027
      1220.836         949.557          44.400          44.900
 107518090.758 8  83780362.84847  20460013.211                    20460016.113
     -1269.410        -988.952          52.000          43.600
 103842071.695 8  80766065.774 8  19453118.680    19453117.730    19453119.414
      1440.760        1120.587          50.300          48.500
 115535836.002 7  90027992.97745  21985741.070                    21985747.266
     -2459.906       -1916.629          46.300          34.500
 122859848.890 6  95557671.687 7  23007705.945    23007706.406    23007708.723
      4059.479        3157.374          40.800          43.200
 110452255.989 8  86066727.74947  21018367.133                    21018370.070
      -587.164        -457.293          52.500          42.300
 117188059.410 7  91315435.83146  22300155.945                    22300162.215
      2648.531        2063.892          45.600          36.400
 119483355.272 7  93103939.65945  22736928.633                    22736931.957
      2729.520        2127.051          45.300          32.000
 131778889.760 6 102684855.89144  25076689.555                    25076690.867
     -2880.984       -2244.818          41.800          26.700
 108051342.551 8  84039948.046 8  20191974.898    20191974.418    20191975.918
     -2482.848       -1931.102          51.500          48.000
 112577890.436 6  87560590.141 5  21067417.242    21067414.887    21067418.871
     -3225.670       -2508.870          40.100          35.200
 123195848.624 6  95818991.683 6  23030165.227    23030164.277    23030166.578
      4118.764        3203.500          41.800          40.800
 18  1 21 21 35 30.0000000  0 12R16G29R18G25R09G31G26G21G02R17R15R19
 103893077.153 7  80805736.294 7  19449002.414    19449001.816    19449003.613
      1199.264         932.752          44.400          44.700
 107556372.698 8  83810192.93147  20467298.078                    20467301.004
     -1282.648        -999.315          51.700          43.900
 103799195.962 8  80732718.000 8  19445086.375    19445085.660    19445087.438
      1418.416        1103.220          49.600          48.300
 115609771.438 7  90085604.99845  21999810.320                    21999816.676
     -2469.105       -1923.908          45.400          34.200
 122738128.213 6  95463000.013 7  22984911.758    22984911.160    22984914.797
      4055.426        3154.229          41.300          43.600
 110470156.104 8  86080675.88246  21021773.219                    21021775.918
      -606.098        -472.052          53.100          41.700
 117108706.656 7  91253602.52346  22285055.484                    22285061.074
      2641.688        2058.562          46.300          36.900
 119401624.144 7  93040253.07945  22721375.789                    22721378.762
      2719.355        2119.036          47.700          31.600
 131865429.728 7 102752289.67044  25093157.484                    25093159.207
     -2888.219       -2250.491          43.000          27.100
 108126085.080 8  84098081.140 8  20205942.977    20205942.262    20205943.391
     -2499.357       -1943.939          51.100          48.100
 112674893.495 6  87636036.962 5  21085569.250    21085568.301    21085572.305
     -3240.578       -2520.464          40.500          34.800
 123072408.718 6  95722982.884 6  23007088.180    23007088.055    23007090.488
      4110.921        3197.382          40.500          41.600
 18  1 21 21 36  0.0000000  0 12R16G29R18G25R09G31G26G21G02R17R15R19
 103857435.260 7  80778014.813 7  19442329.742    19442329.617    19442331.785
      1177.599         915.901          44.300          45.300
 107595052.902 8  83840333.34647  20474658.414                    20474661.371
     -1296.008       -1009.665          51.400          43.100
 103756991.219 8  80699892.075 8  19437179.797    19437178.496    19437180.617
      1396.014        1085.800          50.100          48.500
 115683987.561 7  90143435.73045  22013932.930                    22013939.488
     -2478.531       -1931.209          45.900          34.700
 122616532.765 6  95368425.774 7  22962141.414    22962138.941    22962143.750
      4051.144        3150.894          40.400          42.600
 110488624.604 8  86095066.91547  21025287.672                    21025290.844
      -625.152        -486.841          52.000          42.200
 117029560.738 7  91191930.41046  22269994.727                    22269999.609
      2634.676        2053.122          46.200          36.800
 119320203.839 7  92976808.69445  22705882.078                    22705885.355
      2708.813        2110.888          45.000          33.200
 131952186.699 6 102819892.51744  25109666.609                    25109667.199
     -2895.473       -2256.122          41.800          26.800
 108201320.831 8  84156597.826 8  20220002.750    20220001.566    20220002.703
     -2515.778       -1956.695          51.600          48.200
 112772344.334 6  87711832.037 5  21103804.664    21103804.539    21103808.840
     -3255.507       -2532.087          40.400          33.100
 122949205.906 6  95627158.506 6  22984058.234    22984057.402    22984059.551
      4102.914        3191.131          40.600          41.900
 18  1 21 21 36 30.0000000  0 12R16G29R18G25R09G31G26G21G02R17R15R19
 103822442.058 7  80750797.863 7  19435779.656    19435778.824    19435780.848
      1155.987         899.112          44.500          45.300
 107634127.763 8  83870781.29047  20482093.984                    20482097.227
     -1309.094       -1019.871          52.000          43.300
 103715455.602 8  80667586.631 7  19429398.602    19429398.359    19429399.953
      1373.763        1068.468          49.900          47.700
 115758481.366 7  90201482.83745  22028109.211                    22028115.133
     -2487.672       -1938.377          45.800          33.400
 122495063.393 6  95273949.563 7  22939393.320    22939393.195    22939396.266
      4046.956        3147.637          40.400          42.500
 110507658.803 8  86109898.74746  21028909.656                    21028912.395
      -643.895        -501.482          51.900          41.800
 116950620.931 7  91130418.89046  22254972.914                    22254979.016
      2627.879        2047.800          47.800          36.900
 119239094.343 7  92913606.49245  22690447.133                    22690450.355
      2698.438        2102.838          46.800          33.400
 132039156.270 7 102887660.98344  25126216.086                    25126218.105
     -2902.523       -2261.587          42.100          24.900
 108277044.303 8  84215493.852 8  20234153.102    20234152.621    20234154.117
     -2531.924       -1969.257          51.900          48.100
 112870238.400 6  87787971.845 5  21122125.398    21122124.098    21122128.273
     -3270.230       -2543.517          39.400          32.200
 122826240.503 6  95531518.795 7  22961069.469    22961069.109    22961072.672
      4095.011        3184.977          40.100          42.400
 18  1 21 21 37  0.0000000  0 13R16G05G29R18G25R09G31G26G21G02R17R15
                                R19
 103788099.668 7  80724087.110 7  19429350.547    19429350.066    19429352.051
      1134.234         882.192          43.900          45.300
 129555993.745 6 100952755.90543  24653692.875                    24653694.328
      1550.875        1208.687          41.800          22.000
 107673596.244 8  83901535.95247  20489604.547                    20489607.430
     -1322.211       -1030.094          51.300          42.300
 103674589.654 8  80635801.999 8  19421743.063    19421742.465    19421744.340
      1351.412        1051.101          50.300          48.300
 115833252.106 7  90259745.74045  22042337.750                    22042343.285
     -2496.914       -1945.580          46.000          33.000
 122373723.219 6  95179573.905 7  22916670.875    22916670.043    22916673.285
      4042.570        3144.178          41.200          42.800
 110527258.687 8  86125171.37746  21032639.211                    21032642.531
      -662.766        -516.204          51.900          41.900
 116871888.819 7  91069069.20846  22239990.719                    22239997.457
      2620.879        2042.362          47.200          38.300
 119158297.633 8  92850648.03345  22675072.500                    22675074.945
      2687.930        2094.657          49.100          34.100
 132126336.120 6 102955593.37844  25142805.313                    25142807.570
     -2909.414       -2267.033          41.400          25.200
 108353252.181 8  84274766.650 7  20248394.469    20248393.168    20248394.801
     -2548.062       -1981.811          51.400          47.900
 112968574.570 6  87864455.547 5  21140525.445    21140526.375    21140529.906
     -3284.983       -2554.998          37.600          30.500
 122703515.148 6  95436065.710 6  22938128.430    22938127.832    22938128.844
      4086.909        3178.727          40.900          41.300
 18  1 21 21 37 30.0000000  0 12R16G05G29R18G25R09G31G26G21R17R15R19
 103754411.280 7  80697885.018 7  19423044.328    19423043.262    19423045.348
      1112.370         865.188          44.500          44.600
 129509691.412 7 100916676.22744  24644881.797                    24644885.516
      1535.902        1196.960          42.700          26.000
 107713457.372 8  83932596.57247  20497190.008                    20497192.633
     -1335.262       -1040.308          51.200          42.200
 103634394.492 8  80604539.130 8  19414214.336    19414213.152    19414215.270
      1329.003        1033.640          50.200          48.800
 115908299.833 7  90318224.48845  22056618.188                    22056624.438
     -2506.187       -1952.784          46.700          33.000
 122252516.219 6  95085301.744 6  22893971.672    22893973.305    22893974.914
      4038.019        3140.668          41.600          41.200
 110547424.539 8  86140885.01547  21036476.805                    21036479.797
      -681.613        -530.904          52.100          42.000
 116793366.723 7  91007883.13446  22225048.156                    22225055.781
      2613.824        2036.863          45.400          38.300
 119077816.587 8  92787935.55145  22659758.078                    22659759.441
      2677.484        2086.420          48.000          34.900
 108429941.977 8  84334414.280 8  20262725.570    20262724.504    20262726.586
     -2564.089       -1994.290          50.800          48.100
 113067350.769 6  87941281.438 3  21159011.695    21159010.395    21159014.219
     -3299.631       -2566.380          36.200          23.500
 122581033.096 6  95340801.924 6  22915232.883    22915230.996    22915232.848
      4078.761        3172.348          40.600          41.400
 18  1 21 21 38  0.0000000  0 13R16G05G29R18G16G25R09G31G26G21R17R15
                                R19
 103721378.644 7  80672192.970 7  19416861.109    19416858.754    19416860.984
      1090.507         848.172          44.800          45.000
 129463840.772 6 100880948.43943  24636156.945                    24636158.805
      1520.914        1185.257          41.600          22.300
 107753708.916 8  83963961.41547  20504849.594                    20504852.176
     -1348.230       -1050.390          51.200          42.300
 103594870.195 8  80573798.004 8  19406809.102    19406808.504    19406810.797
      1306.673        1016.301          50.100          48.700
 128766040.949 6 100337216.73143  24503369.734                    24503372.980
      3354.184        2613.653          41.000          21.700
 115983623.283 7  90376918.08145  22070952.281                    22070957.738
     -2515.270       -1959.909          47.600          32.600
 122131444.850 7  94991135.128 6  22871300.891    22871301.117    22871301.961
      4033.486        3137.148          43.600          40.900
 110568155.353 8  86157038.88446  21040421.766                    21040424.715
      -700.352        -545.544          51.900          41.600
 116715055.704 7  90946861.54746  22210146.172                    22210153.563
      2606.863        2031.396          45.300          39.100
 118997652.996 7  92725470.44445  22644503.359                    22644504.590
      2666.875        2078.170          47.400          35.000
 108507110.075 8  84394433.917 7  20277146.953    20277145.184    20277147.223
     -2579.936       -2006.620          51.500          47.700
 113166564.829 6  88018439.828 3  21177578.352    21177578.695    21177581.926
     -3314.115       -2577.640          36.200          21.600
 122458796.430 6  95245728.992 6  22892383.516    22892381.746    22892381.848
      4070.605        3166.007          41.400          41.400
 18  1 21 21 38 30.0000000  0 13R16G05G29R18G16G25R09G31G26G21R17R15
                                R19
 103689004.749 7  80647013.282 7  19410799.977    19410799.734    19410801.215
      1068.412         830.977          44.900          44.200
 129418444.801 7 100845575.01744  24627517.641                    24627521.254
      1505.527        1173.322          43.200          27.200
 107794350.364 8  83995630.07647  20512583.422                    20512586.004
     -1361.227       -1060.581          51.900          42.600
 103556017.684 8  80543579.396 8  19399530.531    19399529.582    19399532.109
      1284.163         998.800          49.900          48.600
 128665440.973 6 100258827.19443  24484226.758                    24484230.398
      3352.426        2612.290          41.200          23.800
 116059222.320 7  90435826.39845  22085338.586                    22085343.605
     -2524.687       -1967.149          47.200          33.700
 122010512.985 7  94897077.024 6  22848654.758    22848654.277    22848653.863
      4028.676        3133.416          43.500          39.600
 110589451.316 8  86173633.14346  21044474.133                    21044477.449
      -719.395        -560.312          51.900          41.700
 116636957.847 7  90886006.06446  22195285.000                    22195292.512
      2599.625        2025.762          47.700          39.400
 118917809.426 8  92663254.71145  22629309.742                    22629311.586
      2655.953        2069.735          49.500          35.500
 108584753.596 8  84454823.334 8  20291655.813    20291654.980    20291656.848
     -2595.851       -2019.005          51.800          48.100
 113266215.165 6                  21196224.078    21196226.297
     -3328.763                          37.400
 122336808.252 7  95150849.315 6  22869577.844    22869577.012    22869577.598
      4062.159        3159.441          42.100          41.000
 18  1 21 21 39  0.0000000  0 13R16G05G29R18G16G25R09G31G26G21R17R15
                                R19
 103657292.729 7  80622348.389 7  19404863.641    19404862.223    19404864.320
      1046.484         813.915          44.900          44.700
 129373506.536 7 100810558.18544  24618968.008                    24618970.266
      1490.313        1161.520          42.900          26.900
 107835380.636 8  84027601.72347  20520391.688                    20520393.980
     -1374.059       -1070.513          51.300          42.400
 103517838.216 8  80513884.273 8  19392377.992    19392377.160    19392379.594
      1261.881         981.462          49.700          48.800
 128564890.854 6 100180476.41643  24465091.273                    24465095.926
      3350.945        2611.129          38.800          22.500
 116135096.815 7  90494949.38445  22099776.617                    22099781.836
     -2533.633       -1974.156          47.900          33.500
 121889724.540 7  94803130.491 6  22826035.695    22826034.863    22826034.430
      4024.042        3129.775          44.700          39.600
 110611312.719 8  86190667.99847  21048634.758                    21048637.551
      -737.984        -574.855          53.400          42.000
 116559075.484 7  90825318.51946  22180464.391                    22180471.223
      2592.527        2020.262          47.600          38.800
 118838288.398 8  92601290.30845  22614177.281                    22614179.051
      2645.395        2061.473          49.500          35.900
 108662870.047 8  84515580.568 8  20306254.039    20306252.621    20306254.949
     -2611.392       -2031.087          51.100          48.500
 113366300.033 6                  21214956.414    21214955.699
     -3343.098                          39.400
 122215071.798 7  95056165.381 6  22846820.078    22846819.246    22846820.008
      4053.874        3153.034          42.400          41.100
 18  1 21 21 39 30.0000000  0 13R16G05G29R18G16G25R09G31G26G21R17R15
                                R19
 103626243.527 7  80598198.994 7  19399051.773    19399050.121    19399052.145
      1024.249         796.628          44.100          45.300
 129329026.743 6 100775898.69743  24610502.336                    24610505.836
      1475.004        1149.521          38.100          22.300
 107876797.048 8  84059874.25347  20528272.492                    20528275.250
     -1387.035       -1080.615          51.100          42.300
 103480330.482 8  80484711.615 8  19385351.188    19385350.707    19385353.063
      1239.423         963.996          49.000          48.500
 128464390.758 6 100102164.66043  24445965.648                    24445971.590
      3349.098        2609.722          38.000          22.000
 116211244.874 8  90554285.53245  22114266.750                    22114272.191
     -2542.914       -1981.350          48.900          34.000
 121769081.337 7  94709296.911 6  22803442.609    22803442.836    22803439.516
      4019.032        3125.908          45.100          38.900
 110633738.055 9  86208142.28047  21052902.063                    21052904.785
      -756.891        -589.576          54.000          42.300
 116481408.925 7  90764799.13546  22165684.570                    22165691.383
      2585.277        2014.571          47.900          38.600
 118759091.376 8  92539578.36746  22599106.484                    22599108.738
      2634.422        2052.952          49.600          36.000
 108741454.842 8  84576702.077 8  20320938.578    20320938.098    20320940.141
     -2627.053       -2043.247          51.000          48.400
 113466816.483 6                  21233767.547    21233767.188
     -3357.506                          40.400
 122093588.107 7  94961678.120 6  22824110.469    22824108.582    22824109.895
      4045.322        3146.361          42.700          41.300
 18  1 21 21 40  0.0000000  0 13R16G05G29R18G16G25R09G31G26G21R17R15
                                R19
 103595861.214 7  80574568.292 7  19393362.461    19393362.219    19393364.398
      1002.033         779.366          45.200          44.900
 129285009.635 7 100741599.60344  24602126.945                    24602129.504
      1459.457        1137.501          44.400          29.300
 107918600.309 8  84092448.22747  20536227.633                    20536229.898
     -1399.863       -1090.614          53.000          42.500
 103443497.130 8  80456063.463 8  19378450.359    19378449.762    19378452.531
      1216.930         946.503          49.200          48.300
 128363943.744 6 100023894.26943  24426852.313                    24426857.262
      3347.371        2608.368          39.300          21.800
 116287667.493 8  90613835.62945  22128809.969                    22128815.039
     -2551.930       -1988.424          48.700          33.800
 121648588.438 7  94615580.248 6  22780877.031    22780876.551    22780875.117
      4014.016        3122.010          43.600          38.700
 110656728.622 8  86226057.00647  21057276.852                    21057279.813
      -775.742        -604.218          53.400          42.100
 116403961.563 7  90704450.55446  22150947.047                    22150953.273
      2577.969        2008.879          46.400          38.300
 118680221.812 7  92478121.57345  22584097.445                    22584099.836
      2623.500        2044.471          46.300          35.400
 108820506.832 8  84638186.958 7  20335712.016    20335711.301    20335713.102
     -2642.536       -2055.303          51.400          47.600
 113567764.776 6                  21252658.242    21252657.883
     -3371.820                          40.600
 121972361.674 7  94867390.926 6  22801447.289    22801446.691    22801447.242
      4036.762        3139.683          42.600          40.500
 18  1 21 21 40 30.0000000  0 13R16G05G29R18G16G25R09G31G26G21R17R15
                                R19
 103566147.076 7  80551457.291 7  19387800.359    19387798.824    19387801.266
       979.688         761.970          44.900          45.300
 129241456.827 6 100707662.42044  24593838.773                    24593843.203
      1443.961        1125.399          41.300          27.700
 107960787.758 8  84125321.57147  20544255.898                    20544258.414
     -1412.621       -1100.584          52.200          42.600
 103407337.176 8  80427939.072 8  19371677.109    19371675.926    19371678.785
      1194.482         929.040          49.200          48.100
 128263549.458 6  99945664.92743  24407747.547                    24407752.008
      3345.637        2606.987          38.900          22.000
 116364363.045 8  90673598.38645  22143405.125                    22143409.949
     -2561.074       -1995.510          49.500          34.800
 121528248.282 7  94521982.351 6  22758341.836    22758341.355    22758339.430
      4008.853        3117.979          43.200          38.700
 110680282.900 8  86244410.98647  21061759.414                    21061761.527
      -794.516        -618.873          53.800          42.200
 116326734.119 7  90644273.33246  22136251.367                    22136257.422
      2570.574        2003.130          47.200          37.900
 118601681.057 7  92416921.01245  22569151.531                    22569154.145
      2612.477        2035.868          44.900          35.300
 108900021.524 8  84700031.723 7  20350571.195    20350570.012    20350571.688
     -2657.921       -2067.261          51.100          47.900
 113669140.954 6  88409356.039 3  21271629.469    21271628.871    21271635.406
     -3386.057       -2633.593          38.900          21.900
 121851393.930 6  94773304.895 6  22778833.273    22778832.441    22778833.461
      4028.043        3132.925          41.600          40.500
 18  1 21 21 41  0.0000000  0 13R16G05G29R18G16G25R09G31G26G21R17R15
                                R19
 103537102.173 7  80528866.812 7  19382363.852    19382362.434    19382364.664
       957.380         744.617          44.900          44.400
 129198368.958 7 100674087.56444  24585638.203                    24585643.043
      1428.441        1113.302          43.600          26.800
 108003356.789 8  84158492.24647  20552356.109                    20552359.121
     -1425.277       -1110.455          52.300          42.400
 103371849.765 8  80400337.765 7  19365028.219    19365027.977    19365030.781
      1172.091         911.621          48.900          47.900
 128163208.406 6  99867477.09843  24388652.422                    24388657.531
      3343.848        2605.578          39.200          21.800
 116441329.578 8  90733572.30945  22158050.797                    22158056.789
     -2569.969       -2002.514          48.100          34.700
 121408062.757 7  94428504.743 6  22735833.938    22735833.930    22735832.949
      4003.674        3113.955          42.900          39.200
 110704399.519 8  86263203.14947  21066348.617                    21066350.699
      -813.266        -633.446          53.200          42.000
 116249726.938 8  90584267.75346  22121596.945                    22121603.574
      2563.293        1997.420          48.700          37.400
 118523470.003 7  92355977.34345  22554267.820                    22554271.414
      2601.637        2027.326          45.800          34.500
 108979994.643 8  84762233.042 7  20365515.930    20365514.746    20365516.629
     -2673.098       -2079.078          51.300          47.500
 113770941.485 6  88488519.245 4  21290680.094    21290679.852    21290683.836
     -3400.203       -2644.604          37.500          26.100
 121730686.666 6  94679421.490 6  22756267.734    22756267.254    22756269.031
      4019.358        3126.159          41.300          40.900
 18  1 21 21 41 30.0000000  0 13R16G05G29R18G16G25R09G31G26G21R17R15
                                R19
 103508729.316 7  80506799.026 7  19377053.133    19377051.012    19377052.652
       934.882         727.123          44.600          44.800
 129155749.140 7 100640877.22444  24577529.352                    24577530.742
      1412.875        1101.065          44.800          26.900
 108046306.194 8  84191959.31347  20560528.844                    20560531.770
     -1438.082       -1120.372          51.900          42.600
 103337035.746 8  80373260.198 8  19358507.664    19358506.832    19358509.309
      1149.545         894.096          49.500          48.700
 128062922.354 6  99789332.12843  24369569.156                    24369573.996
      3341.863        2604.097          38.400          21.500
 116518566.818 8  90793757.16245  22172748.414                    22172754.035
     -2579.098       -2009.592          48.600          33.500
 121288035.726 7  94335150.389 6  22713356.953    22713357.063    22713356.199
      3998.287        3109.766          42.900          40.000
 110729078.088 8  86282433.19147  21071044.859                    21071047.023
      -832.031        -648.094          53.700          42.000
 116172942.118 8  90524435.43546  22106985.117                    22106991.359
      2555.723        1991.558          49.500          37.700
 118445591.055 7  92295292.45245  22539447.523                    22539451.367
      2590.313        2018.602          44.000          34.500
 109060423.236 8  84824788.599 7  20380546.711    20380545.293    20380547.051
     -2688.297       -2090.888          51.200          47.700
 113873166.017 5  88568027.285 4  21309808.055    21309808.164    21309812.633
     -3414.323       -2655.598          33.700          25.500
 121610242.287 6  94585742.521 6  22733753.336    22733752.270    22733752.293
      4010.491        3119.305          40.400          40.400
 18  1 21 21 42  0.0000000  0 13R16G05G29R18G16G25R09G31G26G21R17R15
                                R19
 103481030.578 7  80485255.542 7  19371866.086    19371866.078    19371867.730
       912.428         709.674          44.200          45.100
 129113599.680 6 100608033.60644  24569506.531                    24569512.305
      1397.152        1088.886          41.700          26.700
 108089634.893 8  84225721.93647  20568774.211                    20568777.297
     -1450.539       -1130.147          50.800          42.700
 103302895.234 8  80346706.466 8  19352112.063    19352111.703    19352113.992
      1127.159         876.690          49.800          49.200
 127962692.469 6  99711230.91343  24350495.859                    24350500.473
      3340.039        2602.643          40.000          20.900
 116596074.087 8  90854152.41245  22187498.047                    22187503.629
     -2588.164       -2016.565          48.700          33.400
 121168170.492 7  94241921.867 6  22690910.430    22690909.480    22690909.762
      3992.893        3105.561          42.100          40.700
 110754318.320 8  86302100.90247  21075847.211                    21075849.938
      -850.676        -662.638          53.000          42.500
 116096381.335 8  90464777.69646  22092416.156                    22092422.059
      2548.223        1985.764          48.500          37.900
 118368046.390 7  92234868.03145  22524691.359                    22524695.566
      2579.219        2009.945          44.300          34.200
 109141304.124 8  84887695.948 7  20395660.344    20395659.863    20395661.266
     -2703.272       -2102.539          50.500          46.900
 113975810.869 5  88647862.250 3  21329015.711    21329017.227    21329021.344
     -3428.285       -2666.444          35.400          23.000
 121490063.418 6  94492270.088 6  22711287.977    22711285.973    22711285.844
      4001.665        3112.396          40.500          39.600
 18  1 21 21 42 30.0000000  0 13R16G05G29R18G16G25R09G31G26G21R17R15
                                R19
 103454008.212 7  80464238.143 7  19366807.109    19366806.984    19366808.902
       889.815         692.096          44.200          44.600
 129071922.182 7 100575557.66544  24561578.055                    24561580.434
      1381.297        1076.578          47.300          29.400
 108133341.142 8  84259778.75147  20577091.477                    20577094.320
     -1463.113       -1139.944          52.000          42.700
 103269428.773 8  80320676.995 8  19345842.883    19345841.699    19345844.102
      1104.701         859.203          49.600          48.900
 127862520.271 6  99633174.62943  24331434.172                    24331437.727
      3338.105        2601.168          39.700          20.600
 116673850.808 8  90914757.61945  22202298.438                    22202304.051
     -2596.996       -2023.531          49.200          32.100
 121048470.473 7  94148821.825 6  22668495.336    22668493.566    22668494.898
      3987.314        3101.250          42.000          41.100
 110780119.751 8  86322205.89546  21080757.727                    21080759.988
      -869.418        -677.203          53.400          41.800
 116020046.443 8  90405295.97646  22077890.195                    22077895.969
      2540.766        1979.866          48.500          37.500
 118290838.086 7  92174705.70345  22509999.477                    22510003.449
      2568.008        2001.168          43.500          35.100
 109222634.259 8  84950952.722 7  20410859.508    20410858.793    20410860.109
     -2718.196       -2114.154          51.300          47.400
 114078874.810 6  88728023.104 4  21348304.406    21348303.809    21348307.777
     -3442.225       -2677.274          39.000          25.800
 121370153.276 6  94399006.663 6  22688869.984    22688870.680    22688870.887
      3992.647        3105.422          41.200          40.800
 18  1 21 21 43  0.0000000  0 13R16G05G29R18G16G25R09G31G26G21R17R15
                                R19
 103427664.150 7  80443748.333 7  19361876.453    19361875.035    19361876.762
       867.168         674.478          44.100          43.800
 129030719.645 7 100543451.74044  24553736.453                    24553737.844
      1365.469        1064.225          44.000          25.700
 108177423.733 8  84294128.82947  20585480.164                    20585483.016
     -1475.695       -1149.712          51.600          43.000
 103236636.037 8  80295171.553 8  19339699.531    19339698.230    19339700.980
      1082.237         841.739          49.700          50.000
 127762406.543 6  99555163.97943  24312382.680                    24312386.102
      3336.078        2599.576          40.200          20.400
 116751895.889 7  90975571.95545  22217149.563                    22217155.016
     -2605.992       -2030.509          47.600          32.100
 120928938.641 7  94055852.575 6  22646110.586    22646109.402    22646109.988
      3981.622        3096.851          42.500          41.300
 110806481.459 8  86342747.47746  21085773.773                    21085776.266
      -888.090        -691.754          51.900          41.900
 115943938.681 8  90345991.22546  22063407.484                    22063413.563
      2533.059        1973.946          49.700          38.400
 118213968.383 7  92114807.23345  22495372.227                    22495375.977
      2556.609        1992.320          45.200          35.600
 109304409.997 8  85014556.066 7  20426141.234    20426140.051    20426141.527
     -2733.030       -2125.695          51.000          47.300
 114182355.580 6  88808508.148 4  21367671.766    21367669.879    21367672.203
     -3456.002       -2688.025          40.400          24.000
 121250513.344 6  94305953.385 6  22666505.930    22666505.215    22666505.379
      3983.587        3098.373          41.600          41.000
 18  1 21 21 43 30.0000000  0 13R16G05G29R18G16G25R09G31G26G21R17R15
                                R19
 103401999.193 7  80423786.688 7  19357071.227    19357070.867    19357072.453
       844.544         656.864          43.600          43.100
 128989992.521 7 100511716.35845  24545986.117                    24545990.121
      1349.664        1051.866          46.600          31.000
 108221879.443 8  84328769.63747  20593939.523                    20593942.984
     -1488.051       -1159.369          51.200          42.700
 103204515.805 8  80270189.155 7  19333682.102    19333681.035    19333684.145
      1059.825         824.307          48.900          47.800
 127662350.977 6  99477198.57843  24293342.633                    24293346.844
      3334.082        2598.098          39.500          19.900
 116830207.115 7  91036593.68145  22232051.672                    22232057.434
     -2614.828       -2037.403          47.200          31.500
 120809576.789 7  93963015.617 6  22623757.305    22623756.707    22623757.984
      3975.962        3092.376          42.400          40.200
 110833401.817 8  86363724.36647  21090896.594                    21090899.469
      -906.711        -706.232          52.200          42.200
 115868058.222 8  90286863.60746  22048968.234                    22048974.465
      2525.621        1968.044          49.500          38.900
 118137437.448 7  92055172.73245  22480808.578                    22480812.367
      2545.508        1983.544          44.300          35.700
 109386626.629 8  85078502.338 7  20441505.086    20441504.488    20441505.613
     -2747.625       -2137.058          50.300          46.600
 114286248.627 7  88889313.762 4  21387111.641    21387112.453    21387115.168
     -3469.733       -2698.682          42.200          24.400
 121131144.620 6  94213111.116 6  22644190.617    22644188.730    22644190.984
      3974.522        3091.323          41.100          41.500
 18  1 21 21 44  0.0000000  0 13R16G05G29R18G16G25R09G31G26G21R17R15
                                R19
 103377016.546 7  80404355.737 7  19352395.680    19352393.676    19352395.449
       821.758         639.150          44.400          42.300
 128949744.059 7 100480353.96445  24538328.094                    24538331.211
      1333.648        1039.409          47.800          30.700
 108266708.017 8  84363700.98647  20602470.234                    20602473.383
     -1500.379       -1169.024          50.600          42.400
 103173069.523 8  80245730.947 7  19327791.398    19327790.215    19327793.152
      1037.388         806.848          49.200          47.800
 127562356.144 6  99399280.57943  24274315.539                    24274317.867
      3332.043        2596.531          39.400          20.900
 116908785.005 7  91097823.18945  22247004.469                    22247010.711
     -2623.656       -2044.306          47.500          31.500
 120690389.646 7  93870314.479 6  22601438.023    22601436.723    22601437.234
      3970.066        3087.836          43.400          41.100
 110860881.299 8  86385136.93547  21096125.656                    21096128.879
      -925.297        -720.745          51.600          42.100
 115792408.017 8  90227915.39846  22034572.313                    22034578.645
      2517.816        1962.053          48.400          38.300
 118061248.527 7  91995804.73646  22466310.328                    22466313.852
      2533.941        1974.629          44.500          36.000
 109469282.310 8  85142790.069 7  20456951.406    20456951.164    20456952.113
     -2762.214       -2148.398          50.300          46.700
 114390553.871 6  88970440.038 4  21406632.625    21406631.676    21406634.984
     -3483.422       -2709.342          41.800          26.700
 121012051.022 6  94120482.771 6  22621926.820    22621926.695    22621928.313
      3965.367        3084.170          41.800          41.500
 18  1 21 21 44 30.0000000  0 13R16G05G29R18G16G25R09G31G26G21R17R15
                                R19
 103352718.070 7  80385456.935 7  19347846.242    19347845.645    19347846.914
       798.868         621.307          44.500          43.300
 128909975.961 7 100449365.88144  24530759.703                    24530761.867
      1317.574        1026.820          45.500          27.200
 108311907.658 8  84398921.48547  20611071.273                    20611074.988
     -1512.871       -1178.718          51.100          43.200
 103142296.762 8  80221796.578 7  19322026.000    19322025.758    19322028.410
      1014.833         789.313          49.200          47.600
 127462423.150 6  99321410.72743  24255298.273                    24255301.238
      3330.156        2594.823          40.900          21.300
 116987628.601 7  91159259.71645  22262008.688                    22262013.602
     -2632.562       -2051.262          46.900          31.200
 120571380.232 7  93777751.601 6  22579151.516    22579150.801    22579150.148
      3964.007        3083.133          44.200          40.500
 110888918.781 8  86406984.30546  21101461.156                    21101464.277
      -943.887        -735.296          51.700          41.800
 115716989.426 8  90169147.65146  22020220.570                    22020227.055
      2510.051        1955.942          48.600          38.800
 117985403.874 7  91936705.01245  22451877.188                    22451880.391
      2522.324        1965.628          45.000          35.900
 109552373.325 8  85207416.421 7  20472479.133    20472478.535    20472479.746
     -2776.779       -2159.708          50.500          47.100
 114495268.946 6  89051885.103 5  21426228.602    21426227.418    21426230.980
     -3497.115       -2720.004          40.900          30.000
 120893234.785 6  94028070.187 6  22599715.938    22599715.813    22599716.965
      3955.931        3076.839          40.900          41.300
 18  1 21 21 45  0.0000000  0 13R16G05G29R18G16G25R09G31G26G21R17R15
                                R19
 103329105.665 7  80367091.718 7  19343426.227    19343426.219    19343426.949
       776.006         603.563          44.600          43.700
 128870690.723 7 100418753.95045  24523284.391                    24523286.395
      1301.363        1014.306          47.400          30.100
 108357476.565 8  84434429.71847  20619742.867                    20619746.398
     -1525.094       -1188.225          51.000          42.600
 103112197.765 8  80198386.248 7  19316388.070    19316386.652    19316389.055
       992.457         771.930          48.800          47.400
 127362553.226 6  99243589.97943  24236294.211                    24236296.293
      3327.855        2593.222          39.700          20.600
 117066736.939 7  91220902.54945  22277061.898                    22277067.570
     -2641.219       -2058.056          44.600          31.500
 120452551.861 7  93685329.524 6  22556898.680    22556897.965    22556897.531
      3957.994        3078.446          44.300          41.800
 110917513.487 8  86429265.87946  21106902.188                    21106905.434
      -962.418        -749.713          51.200          41.600
 115641803.986 8  90110561.57846  22005913.164                    22005919.191
      2502.246        1949.934          48.800          39.400
 117909904.750 7  91877874.52945  22437510.438                    22437513.598
      2510.828        1956.658          44.300          35.100
 109635896.341 8  85272378.763 7  20488087.773    20488086.941    20488088.539
     -2791.040       -2170.809          50.100          47.000
 114600390.950 6  89133646.669 5  21445898.734    21445899.430    21445903.445
     -3510.558       -2730.479          39.800          31.100
 120774698.321 6  93935875.159 6  22577556.742    22577556.383    22577557.277
      3946.704        3069.685          41.100          40.400
 18  1 21 21 45 30.0000000  0 13R16G05G29R18G16G25R09G31G26G21R17R15
                                R19
 103306181.724 7  80349261.963 7  19339135.211    19339134.379    19339135.324
       753.073         585.724          45.700          43.700
 128831890.684 8 100388520.17945  24515901.883                    24515905.824
      1285.313        1001.736          48.100          33.300
 108403414.157 8  84470225.23747  20628484.461                    20628487.742
     -1537.406       -1197.776          50.800          42.500
 103082772.885 8  80175500.231 7  19310875.531    19310874.816    19310876.672
       970.010         754.449          49.500          47.300
 127262747.561 6  99165819.36743  24217301.742                    24217302.355
      3325.801        2591.573          41.200          20.600
 117146109.842 7  91282751.55645  22292166.273                    22292171.887
     -2650.211       -2064.917          44.700          30.400
 120333908.427 7  93593051.310 7  22534681.250    22534680.418    22534681.469
      3951.827        3073.635          44.600          42.500
 110946665.442 8  86451981.66647  21112449.648                    21112452.871
      -980.992        -764.146          52.100          42.700
 115566853.857 8  90052158.89446  21991650.680                    21991657.164
      2494.465        1943.822          48.600          39.100
 117834753.867 7  91819315.39645  22423209.781                    22423212.645
      2499.250        1947.636          43.400          34.000
 109719848.731 8  85337675.085 7  20503775.828    20503774.996    20503776.844
     -2805.255       -2181.865          50.000          47.500
 114705918.316 6  89215723.505 5  21465647.305    21465645.652    21465652.328
     -3524.035       -2740.919          39.900          33.100
 120656444.294 6  93843899.839 6  22555450.891    22555451.000    22555450.051
      3937.271        3062.322          41.600          39.500
 18  1 21 21 46  0.0000000  0 13R16G05G29R18G16G25R09G31G26G21R17R15
                                R19
 103283946.846 7  80331968.188 7  19334973.133    19334971.363    19334973.051
       729.987         567.763          44.700          44.000
 128793575.888 7 100358664.57444  24508609.531                    24508612.902
      1269.008         989.026          44.500          28.400
 108449717.333 8  84506305.63747  20637295.914                    20637299.563
     -1549.590       -1207.299          50.900          43.000
 103054020.660 8  80153137.387 7  19305488.898    19305488.539    19305490.590
       947.496         736.956          49.100          47.000
 127163006.731 6  99088099.27843  24198320.813                    24198321.777
      3323.555        2589.859          38.700          19.300
 117225744.928 7  91344804.86345  22307319.586                    22307326.332
     -2659.023       -2071.779          44.700          30.700
 120215451.563 7  93500918.197 7  22512497.992    22512497.395    22512497.758
      3945.470        3068.695          45.300          42.700
 110976372.347 8  86475129.89747  21118102.781                    21118106.059
      -999.539        -778.613          52.200          42.400
 115492139.104 8  89993939.60646  21977433.172                    21977438.875
      2486.480        1937.615          48.800          39.300
 117759951.665 7  91761027.99045  22408975.930                    22408978.273
      2487.535        1938.470          45.500          35.800
 109804225.619 8  85403301.571 7  20519543.141    20519542.191    20519544.004
     -2819.419       -2192.893          49.600          47.400
 114811847.433 6  89298112.839 5  21485469.563    21485468.848    21485474.328
     -3537.454       -2751.356          39.900          33.600
 120538473.916 7  93752145.107 6  22533397.891    22533396.824    22533395.738
      3927.718        3054.890          42.200          38.900
 18  1 21 21 46 30.0000000  0 13R16G05G29R18G16G25R09G31G26G21R17R15
                                R19
 103262405.296 7  80315213.665 7  19330940.063    19330939.703    19330940.688
       706.937         549.819          44.700          43.300
 128755752.000 8 100329191.35745  24501412.734                    24501414.117
      1252.656         976.302          48.100          30.700
 108496386.675 8  84542671.35547  20646176.484                    20646180.176
     -1561.715       -1216.738          51.000          43.700
 103025943.595 8  80131299.693 7  19300228.969    19300228.727    19300230.691
       925.120         719.530          49.300          46.600
 127063333.341 6  99010431.78443  24179354.156                    24179354.688
      3321.402        2588.110          37.500          19.600
 117305643.861 7  91407063.75444  22322524.703                    22322530.383
     -2667.613       -2078.552          43.600          29.100
 120097187.335 7  93408934.885 7  22490351.328    22490350.262    22490350.883
      3939.055        3063.726          45.500          42.100
 111006635.974 8  86498711.93347  21123861.930                    21123865.242
     -1017.992        -793.000          52.000          42.200
 115417663.860 8  89935906.95446  21963261.023                    21963266.629
      2478.563        1931.453          49.100          39.400
 117685502.607 7  91703015.75045  22394808.453                    22394810.832
      2475.719        1929.331          46.000          35.500
 109889026.205 8  85469257.581 7  20535390.242    20535389.527    20535391.945
     -2833.404       -2203.763          49.300          47.000
 114918178.215 6  89380814.568 5  21505369.359    21505368.527    21505373.039
     -3550.720       -2761.676          41.400          31.200
 120420791.896 7  93660614.669 6  22511398.578    22511397.512    22511397.184
      3918.129        3047.448          42.300          39.800
 18  1 21 21 47  0.0000000  0 13R16G05G29R18G16G25R09G31G26G21R17R15
                                R19
 103241557.028 7  80298998.340 7  19327036.602    19327036.121    19327037.480
       683.742         531.781          45.400          44.300
 128718418.086 7 100300099.97745  24494308.328                    24494310.363
      1236.344         963.535          46.900          30.400
 108543419.061 8  84579319.97947  20655126.727                    20655130.102
     -1573.781       -1226.185          50.600          43.700
 102998539.228 8  80109985.183 7  19295095.469    19295095.461    19295097.578
       902.610         702.031          49.800          47.500
 126963727.240 5  98932816.60643  24160399.469                    24160400.922
      3319.121        2586.317          35.000          19.900
 117385803.605 7  91469525.87745  22337778.055                    22337784.102
     -2676.293       -2085.355          42.700          30.100
 119979116.715 7  93317102.196 7  22468238.977    22468239.672    22468239.934
      3932.504        3058.612          45.800          42.900
 111037453.253 8  86522725.39547  21129726.156                    21129729.500
     -1036.457        -807.410          52.600          42.300
 115343427.509 8  89878060.46746  21949134.094                    21949139.355
      2470.582        1925.185          48.100          38.500
 117611406.438 7  91645278.50145  22380708.703                    22380710.527
      2464.000        1920.109          47.500          35.000
 109974244.895 8  85535538.793 7  20551315.422    20551314.238    20551316.953
     -2847.344       -2214.589          49.300          47.400
 115024906.158 7  89463825.190 5  21525342.430    21525341.598    21525345.859
     -3563.999       -2772.003          42.200          31.700
 120303398.302 6  93569308.601 6  22489451.953    22489451.121    22489451.762
      3908.424        3039.877          41.900          39.100
 18  1 21 21 47 30.0000000  0 13R16G05G29R18G16G25R09G31G26G21R17R15
                                R19
 103221404.528 7  80283324.167 7  19323264.484    19323264.004    19323265.777
       660.510         513.748          44.800          43.600
 128681576.958 7 100271392.71444  24487295.977                    24487300.566
      1219.781         950.688          45.200          28.900
 108590813.634 8  84616250.81747  20664145.602                    20664149.148
     -1585.895       -1235.558          51.100          43.200
 102971808.145 8  80089194.355 7  19290088.164    19290087.449    19290089.965
       880.179         684.592          48.800          47.800
 126864190.432 6  98855255.46343  24141458.391                    24141460.816
      3316.742        2584.519          36.200          20.600
 117466224.151 7  91532191.23344  22353081.500                    22353087.809
     -2685.152       -2092.140          43.000          29.600
 119861243.876 7  93225423.322 7  22446165.086    22446164.020    22446166.211
      3925.848        3053.443          44.700          42.100
 111068824.437 8  86547170.45947  21135695.961                    21135699.492
     -1054.941        -821.788          53.100          42.000
 115269432.455 7  89820401.99546  21935053.563                    21935059.371
      2462.367        1918.908          47.900          39.400
 117537665.913 8  91587818.39146  22366676.734                    22366678.121
      2452.016        1910.862          48.100          36.100
 110059879.333 8  85602143.374 7  20567318.148    20567317.199    20567319.504
     -2861.165       -2225.354          49.200          46.000
 115132030.055 7  89547143.754 4  21545388.719    21545388.238    21545391.492
     -3577.180       -2782.263          42.500          27.700
 120186296.563 7  93478229.515 6  22467561.555    22467559.082    22467559.047
      3898.668        3032.268          42.300          38.600
 18  1 21 21 48  0.0000000  0 13R16G05G29R18G16G25R09G31G26G21R17R15
                                R19
 103201949.262 7  80268192.270 7  19319621.797    19319621.316    19319623.164
       637.218         495.638          43.100          43.700
 128645230.631 7 100243070.89744  24480380.352                    24480383.777
      1203.316         937.818          47.500          29.500
 108638568.122 8  84653462.11747  20673232.719                    20673235.922
     -1597.809       -1244.909          51.300          43.200
 102945749.970 8  80068926.891 7  19285206.242    19285206.000    19285208.004
       857.754         667.135          49.100          47.000
 126764723.537 6  98777748.76343  24122530.789                    24122533.695
      3314.355        2582.621          37.500          20.100
 117546904.213 7  91595058.81044  22368434.688                    22368440.875
     -2693.648       -2098.844          43.300          29.800
 119743571.813 7  93133900.628 6  22424127.188    22424128.000    22424129.695
      3919.102        3048.186          43.700          41.900
 111100748.253 8  86572046.14647  21141771.125                    21141774.172
     -1073.336        -836.146          53.200          42.400
 115195679.927 8  89762932.50446  21921018.836                    21921025.223
      2454.262        1912.554          48.400          39.900
 117464282.340 8  91530636.41246  22352711.844                    22352713.082
      2440.160        1901.553          48.100          36.000
 110145925.676 8  85669068.301 7  20583397.219    20583396.859    20583399.293
     -2874.851       -2235.979          48.800          46.800
 115239546.729 7  89630767.757 4  21565509.688    21565508.387    21565512.184
     -3590.231       -2792.392          42.800          26.200
 120069488.446 6  93387378.808 6  22445723.938    22445722.402    22445724.223
      3888.857        3024.640          41.400          39.700
 18  1 21 21 48 30.0000000  0 13R16G05G29R18G16G25R09G31G26G21R17R15
                                R19
 103183193.283 7  80253604.287 7  19316110.930    19316109.629    19316111.875
       613.932         477.520          43.800          43.100
 128609380.889 7 100215135.97844  24473559.039                    24473560.734
      1186.742         924.937          44.100          27.200
 108686681.333 8  84690952.93347  20682388.422                    20682391.578
     -1609.742       -1254.163          50.800          42.900
 102920364.731 8  80049182.820 7  19280451.070    19280450.590    19280452.707
       835.345         649.716          49.100          47.000
 126665328.234 6  98700297.88543  24103615.570                    24103619.414
      3312.152        2580.860          36.000          20.100
 117627843.406 7  91658128.28745  22383836.594                    22383842.707
     -2702.273       -2105.535          42.400          30.200
 119626104.361 7  93042537.041 6  22402129.594    22402129.469    22402132.133
      3912.279        3042.894          42.500          41.100
 111133224.067 8  86597351.97747  21147951.023                    21147954.188
     -1091.703        -850.415          52.400          42.500
 115122171.890 8  89705653.51046  21907030.961                    21907037.574
      2446.230        1906.257          48.100          40.700
 117391258.007 8  91473734.37646  22338815.742                    22338818.277
      2428.160        1892.235          48.300          36.600
 110232380.974 8  85736311.291 7  20599554.492    20599553.426    20599555.418
     -2888.374       -2246.499          49.100          46.100
 115347454.255 7  89714695.807 4  21585702.641    21585702.516    21585705.402
     -3603.175       -2802.459          43.700          29.500
 119952976.657 6  93296758.510 6  22423943.133    22423941.949    22423943.871
      3878.916        3016.948          41.500          40.400
 18  1 21 21 49  0.0000000  0 13R16G05G29R18G16G25R09G31G26G21R17R15
                                R19
 103165138.151 7  80239561.396 7  19312730.320    19312730.547    19312732.066
       590.515         459.295          43.700          43.700
 128574029.143 7 100187589.25145  24466830.602                    24466836.188
      1170.137         911.962          45.800          30.900
 108735151.210 8  84728721.67647  20691612.133                    20691615.332
     -1621.582       -1263.437          50.000          42.600
 102895651.710 8  80029961.590 7  19275821.703    19275820.988    19275822.969
       812.906         632.268          48.900          47.500
 126566005.055 6  98622903.20643  24084715.555                    24084718.840
      3309.652        2578.896          37.000          21.700
 117709040.211 7  91721398.51045  22399288.055                    22399294.164
     -2710.805       -2112.243          42.200          30.900
 119508844.245 7  92951334.750 6  22380171.242    22380170.410    22380172.105
      3905.276        3037.431          42.100          40.500
 111166250.390 8  86623086.76647  21154235.875                    21154238.652
     -1110.008        -864.742          53.400          42.100
 115048909.409 8  89648565.84746  21893089.516                    21893096.418
      2438.078        1899.819          48.000          41.100
 117318594.064 8  91417113.15346  22324988.477                    22324990.820
      2416.121        1882.817          49.200          36.900
 110319241.283 8  85803869.321 7  20615786.586    20615785.520    20615787.094
     -2901.852       -2256.996          48.800          46.300
 115455749.769 7  89798925.641 4  21605968.281    21605968.273    21605970.754
     -3616.078       -2812.504          44.200          26.600
 119836762.936 6  93206370.065 6  22402217.539    22402216.238    22402218.805
      3868.969        3009.180          41.700          40.200
 18  1 21 21 49 30.0000000  0 13R16G05G29R18G16G25R09G31G26G21R17R15
                                R19
 103147784.685 7  80226064.244 7  19309481.805    19309481.324    19309483.082
       567.128         441.101          44.500          43.500
 128539177.215 7 100160431.92745  24460199.992                    24460202.797
      1153.414         898.948          46.800          30.200
 108783975.652 8  84766766.69447  20700902.914                    20700906.195
     -1633.355       -1272.602          50.500          43.100
 102871610.235 8  80011262.680 7  19271318.516    19271317.332    19271319.094
       790.594         614.902          49.500          47.000
 126466755.116 6  98545565.61843  24065829.445                    24065832.473
      3307.164        2577.008          37.400          22.200
 117790493.409 7  91784868.51545  22414788.164                    22414794.039
     -2719.348       -2118.874          43.200          30.600
 119391794.392 6  92860295.952 6  22358250.539    22358251.234    22358251.824
      3898.227        3031.959          41.900          39.400
 111199825.783 8  86649249.40447  21160625.055                    21160627.629
     -1128.207        -878.965          52.700          42.000
 114975893.635 8  89591670.43346  21879195.148                    21879201.770
      2429.770        1893.403          50.000          40.400
 117246292.335 8  91360774.16546  22311229.750                    22311232.203
      2404.066        1873.407          48.800          36.800
 110406503.053 8  85871739.591 7  20632093.023    20632092.191    20632093.477
     -2915.129       -2267.331          49.100          45.900
 115564430.201 7  89883454.756 4  21626307.234    21626306.285    21626310.441
     -3628.872       -2822.442          43.700          28.500
 119720849.176 6  93116214.921 6  22380549.211    22380547.441    22380549.281
      3858.946        3001.416          41.100          39.500
 18  1 21 21 50  0.0000000  0 13R16G05G29R18G16G25R09G31G26G21R17R15
                                R19
 103131136.219 7  80213115.430 7  19306365.539    19306364.590    19306366.781
       543.531         422.751          43.900          43.700
 128504828.769 7 100133666.87344  24453663.250                    24453664.051
      1136.539         885.820          43.800          25.600
 108833154.824 8  84805088.13047  20710261.422                    20710264.762
     -1645.180       -1281.842          49.700          42.500
 102848241.470 8  79993086.975 7  19266940.289    19266939.105    19266941.203
       768.106         597.423          48.400          47.000
 126367580.819 6  98468286.90043  24046957.648                    24046960.031
      3304.426        2574.994          38.000          21.700
 117872203.587 7  91848538.76444  22430337.633                    22430343.059
     -2727.949       -2125.582          42.600          29.700
 119274959.779 7  92769424.585 6  22336373.625    22336372.559    22336372.469
      3890.941        3026.286          43.100          39.200
 111233951.043 8  86675840.50547  21167118.969                    21167121.336
     -1146.684        -893.301          52.700          42.500
 114903127.683 8  89534969.68546  21865347.633                    21865354.113
      2421.277        1886.861          48.800          39.100
 117174355.898 8  91304719.79646  22297540.063                    22297542.969
      2391.750        1863.863          48.000          37.500
 110494164.239 8  85939920.496 7  20648474.969    20648473.902    20648475.633
     -2928.466       -2277.695          49.200          45.800
 115673495.010 7  89968282.990 5  21646715.805    21646716.852    21646720.371
     -3641.637       -2832.392          43.400          30.500
 119605239.084 6  93026296.020 6  22358936.992    22358936.512    22358938.617
      3848.736        2993.445          41.200          39.400
 18  1 21 21 50 30.0000000  0 13R16G05G29R18G16G25R09G31G26G21R17R15
                                R19
 103115194.575 7  80200716.369 7  19303381.164    19303381.039    19303383.063
       519.993         404.443          44.200          43.600
 128470984.532 7 100107294.78344  24447221.602                    24447225.469
      1119.727         872.740          43.900          28.400
 108882686.975 8  84843684.62547  20719687.109                    20719690.156
     -1656.867       -1290.924          48.900          43.000
 102825544.918 8  79975434.121 8  19262688.117    19262687.285    19262689.434
       745.761         580.033          49.000          48.000
 126268483.550 6  98391068.22943  24028099.945                    24028102.172
      3301.898        2572.993          37.100          21.800
 117954169.767 7  91912408.51445  22445934.234                    22445941.125
     -2736.477       -2132.167          42.300          30.800
 119158343.743 7  92678723.203 6  22314535.828    22314535.586    22314533.254
      3883.698        3020.646          44.300          38.600
 111268625.217 8  86702859.32746  21173717.266                    21173719.855
     -1164.828        -907.472          52.100          41.700
 114830613.078 7  89478464.80046  21851547.961                    21851554.340
      2413.059        1880.371          46.700          38.300
 117102786.284 7  91248951.27846  22283921.242                    22283923.969
      2379.574        1854.356          47.500          37.300
 110582221.639 8  86008409.594 7  20664931.047    20664930.098    20664931.418
     -2941.549       -2287.872          48.900          46.200
 115782941.193 7  90053407.814 4  21667198.586    21667198.105    21667199.430
     -3654.292       -2842.244          42.900          27.700
 119489935.065 6  92936615.121 6  22337382.047    22337381.805    22337382.078
      3838.548        2985.557          41.400          39.500
 18  1 21 21 51  0.0000000  0 13R16G05G29R18G16G25R09G31G26G21R17R15
                                R19
 103099960.032 7  80188867.271 7  19300529.328    19300528.730    19300530.855
       496.429         386.109          43.700          43.600
 128437646.075 7 100081316.78444  24440878.781                    24440882.672
      1102.840         859.588          45.800          28.800
 108932569.197 8  84882553.88547  20729179.578                    20729182.375
     -1668.535       -1300.005          49.500          43.000
 102803519.065 8  79958302.898 8  19258561.406    19258560.809    19258563.531
       723.425         562.677          48.800          48.200
 126169463.365 6  98313909.68643  24009257.352                    24009258.426
      3299.305        2570.978          39.800          22.500
 118036389.807 7  91976476.05645  22461580.602                    22461587.008
     -2744.844       -2138.734          43.600          30.200
 119041948.298 7  92588193.456 6  22292739.352    22292739.461    22292735.602
      3876.270        3014.875          46.400          38.500
 111303845.854 8  86730303.97247  21180419.227                    21180421.957
     -1183.094        -921.650          52.300          42.200
 114758350.152 7  89422156.03546  21837796.547                    21837802.840
      2404.629        1873.799          47.300          37.200
 117031584.246 8  91193469.20746  22270371.969                    22270374.754
      2367.328        1844.782          49.300          37.400
 110670670.470 8  86077203.137 7  20681459.352    20681458.637    20681459.969
     -2954.535       -2297.975          49.900          46.200
 115892766.087 6  90138827.060 4  21687750.070    21687749.121    21687753.922
     -3666.862       -2852.024          41.500          26.800
 119374937.859 6  92847172.928 6  22315884.703    22315883.871    22315884.598
      3828.299        2977.560          41.400          39.600
 18  1 21 21 51 30.0000000  0 13R16G05G29R18G16G25R09G31G26G21R17R15
                                R19
 103085433.447 7  80177568.830 7  19297810.211    19297809.145    19297810.977
       472.825         367.742          44.200          44.000
 128404814.318 7 100055733.60744  24434630.492                    24434633.316
      1086.039         846.385          43.800          26.800
 108982799.519 8  84921694.39847  20738737.758                    20738741.184
     -1680.078       -1309.028          50.300          42.600
 102782162.932 8  79941692.604 7  19254560.547    19254560.305    19254562.973
       701.095         545.297          48.800          47.400
 126070520.687 6  98236811.51543  23990429.617                    23990428.938
      3296.699        2568.943          41.100          21.100
 118118862.228 7  92040740.24645  22477274.922                    22477280.746
     -2753.242       -2145.281          43.100          31.400
 118925776.362 8  92497837.543 6  22270984.602    22270984.477    22270979.895
      3868.759        3009.031          48.100          38.500
 111339611.357 8  86758173.18846  21187225.602                    21187227.934
     -1201.215        -935.813          53.000          41.600
 114686339.914 7  89366044.18246  21824093.930                    21824099.555
      2396.234        1867.222          45.700          37.600
 116960751.160 8  91138274.63746  22256893.719                    22256895.477
      2354.941        1835.170          48.300          37.500
 110759506.863 8  86146298.107 7  20698060.195    20698059.836    20698061.313
     -2967.425       -2307.988          49.900          45.600
 116002965.301 6  90224537.588 5  21708372.375    21708370.957    21708375.848
     -3679.283       -2861.647          41.700          32.400
 119260249.263 6  92757970.720 6  22294444.977    22294443.793    22294445.773
      3817.967        2969.504          41.000          40.100
 18  1 21 21 52  0.0000000  0 13R16G05G29R18G16G25R09G31G26G21R17R15
                                R19
 103071617.589 7  80166823.161 7  19295224.211    19295222.676    19295224.633
       449.041         349.248          43.900          43.100
 128372491.405 7 100030546.95344  24428478.945                    24428481.297
      1068.848         833.111          43.700          25.300
 109033377.059 8  84961105.46547  20748362.375                    20748365.535
     -1691.762       -1318.080          48.900          42.300
 102761477.046 8  79925603.583 7  19250685.688    19250685.207    19250688.121
       678.716         527.893          48.800          47.700
 125971658.157 7  98159775.85843  23971616.383                    23971614.457
      3294.078        2566.850          42.000          21.100
 118201587.245 7  92105201.29445  22493017.141                    22493023.035
     -2761.738       -2151.894          43.300          31.900
 118809832.465 7  92407658.978 6  22249271.500    22249271.141    22249267.254
      3861.047        3003.038          47.400          39.100
 111375921.939 8  86786467.12446  21194135.438                    21194137.422
     -1219.504        -949.985          52.700          41.100
 114614585.142 7  89310131.38646  21810439.375                    21810445.586
      2387.578        1860.510          46.500          38.600
 116890289.670 7  91083369.60246  22243484.883                    22243487.172
      2342.449        1825.463          47.400          37.600
 110848728.758 8  86215692.927 7  20714734.063    20714732.879    20714734.203
     -2980.270       -2317.987          50.300          46.100
 116113537.784 7  90310538.422 5  21729064.953    21729063.301    21729066.301
     -3691.779       -2871.401          43.000          31.900
 119145873.010 6  92669011.453 6  22273062.695    22273062.688    22273063.723
      3807.488        2961.353          41.700          40.900
 18  1 21 21 52 30.0000000  0 13R16G05G29R18G16G25R09G31G26G21R17R15
                                R19
 103058515.564 7  80156632.676 7  19292770.680    19292770.199    19292772.133
       425.265         330.765          44.300          43.600
 128340681.289 7 100005759.84044  24422427.000                    24422429.672
      1051.887         819.798          46.800          28.900
 109084301.877 8  85000787.14447  20758053.359                    20758056.035
     -1703.180       -1327.036          49.700          42.500
 102741462.650 8  79910036.834 7  19246936.070    19246935.711    19246938.582
       656.370         510.518          49.300          47.300
 125872878.027 7  98082804.36343  23952818.930                    23952817.871
      3291.352        2564.710          43.000          22.300
 118284565.384 7  92169859.55745  22508806.883                    22508813.406
     -2770.047       -2158.402          42.100          32.400
 118694121.539 7  92317661.608 6  22227602.695    22227602.098    22227599.949
      3853.276        2996.992          47.200          39.800
 111412777.976 8  86815186.10646  21201148.703                    21201150.988
     -1237.543        -964.110          52.600          41.000
 114543088.822 7  89254419.97346  21796834.328                    21796840.820
      2379.027        1853.826          47.300          39.900
 116820202.841 7  91028756.49946  22230147.531                    22230150.102
      2330.023        1815.745          47.000          37.700
 110938334.103 8  86285385.977 7  20731478.953    20731478.594    20731479.902
     -2992.973       -2327.859          50.000          46.300
 116224483.172 7  90396829.217 5  21749826.727    21749827.070    21749831.602
     -3704.113       -2880.975          44.600          34.000
 119031812.292 6  92580297.574 7  22251741.266    22251739.848    22251742.734
      3796.944        2953.184          41.100          42.300
 18  1 21 21 53  0.0000000  0 13R16G05G29R18G16G25R09G31G26G21R17R15
                                R19
 103046126.394 7  80146996.644 7  19290452.352    19290451.168    19290452.777
       401.436         312.241          43.900          43.900
 128309383.354 7  99981371.84944  24416471.023                    24416474.938
      1034.820         806.477          45.100          29.300
 109135570.152 8  85040736.45447  20767809.063                    20767812.289
     -1714.621       -1335.955          50.200          42.500
 102722116.610 8  79894989.923 7  19243312.539    19243311.238    19243313.855
       634.099         493.198          48.800          47.600
 125774179.479 6  98005896.50343  23934036.875                    23934037.277
      3288.770        2562.554          41.700          22.300
 118367793.406 7  92234712.54545  22524645.195                    22524651.039
     -2778.422       -2164.919          42.900          33.100
 118578644.613 7  92227846.245 6  22205976.711    22205976.230    22205975.383
      3845.411        2990.865          46.700          41.400
 111450176.125 8  86844327.51646  21208265.258                    21208267.465
     -1255.570        -978.191          53.000          40.900
 114471850.228 8  89198909.38246  21783277.688                    21783284.941
      2370.352        1847.112          48.400          40.200
 116750490.140 7  90974434.92246  22216881.211                    22216884.113
      2317.566        1806.015          47.200          37.100
 111028317.459 8  86355373.049 7  20748294.656    20748293.004    20748294.516
     -3005.520       -2337.620          50.000          45.900
 116335796.531 7  90483406.284 6  21770659.195    21770657.074    21770662.137
     -3716.355       -2890.518          43.600          36.300
 118918066.943 6  92491828.986 7  22230478.133    22230476.363    22230479.945
      3786.399        2944.969          41.800          42.700
 18  1 21 21 53 30.0000000  0 13R16G05G29R18G16G25R09G31G26G21R17R15
                                R19
 103034453.478 7  80137917.713 7  19288266.617    19288265.902    19288267.527
       377.512         293.630          43.800          44.800
 128278601.249 7  99957385.89144  24410612.594                    24410616.109
      1017.504         793.038          43.400          25.300
 109187181.980 8  85080953.46447  20777630.836                    20777633.719
     -1726.016       -1344.888          50.300          42.800
 102703440.512 8  79880464.081 8  19239814.313    19239812.660    19239815.316
       611.728         475.798          48.900          49.000
 125675565.691 6  97929054.56543  23915270.406                    23915272.488
      3285.629        2560.306          39.900          21.500
 118451272.199 7  92299760.93345  22540530.414                    22540536.820
     -2786.730       -2171.426          44.100          33.600
 118463407.027 7  92138217.012 7  22184395.180    22184394.465    22184395.203
      3837.358        2984.607          45.100          43.200
 111488116.870 8  86873891.72446  21215484.930                    21215487.453
     -1273.680        -992.296          53.600          41.300
 114400872.825 7  89143602.29746  21769771.445                    21769778.418
      2361.574        1840.279          46.600          40.900
 116681155.185 7  90920407.69346  22203686.688                    22203690.363
      2304.895        1796.167          45.600          36.300
 111118677.151 8  86425652.809 7  20765179.805    20765179.445    20765181.039
     -3018.029       -2347.358          50.000          46.600
 116447477.121 7  90570268.947 5  21791558.555    21791558.195    21791560.762
     -3728.581       -2899.994          43.600          35.900
 118804641.245 6  92403609.035 7  22209272.438    22209272.664    22209275.363
      3775.694        2936.650          41.800          42.700
 18  1 21 21 54  0.0000000  0 13R16G05G29R18G16G25R09G31G26G21R17R15
                                R19
 103023495.660 7  80129394.969 7  19286214.703    19286214.461    19286216.504
       353.752         275.138          44.300          44.900
 128248334.474 7  99933801.35844  24404853.984                    24404854.441
      1000.348         779.672          47.000          25.800
 109239133.466 8  85121435.14047  20787516.633                    20787519.402
     -1737.379       -1353.635          51.200          42.400
 102685431.364 8  79866456.990 8  19236439.859    19236438.441    19236440.828
       589.584         458.558          48.800          49.400
 125577036.080 6  97852278.25743  23896521.039                    23896523.480
      3282.898        2558.144          39.400          22.500
 118534998.477 7  92365002.16645  22556462.977                    22556469.324
     -2794.996       -2177.794          45.100          34.000
 118348409.747 7  92048774.705 7  22162858.914    22162857.965    22162860.598
      3829.341        2978.353          43.700          43.700
 111526597.230 8  86903876.41146  21222807.430                    21222809.633
     -1291.598       -1006.251          52.900          41.300
 114330155.814 7  89088498.12746  21756314.797                    21756321.730
      2352.965        1833.547          47.500          41.500
 116612197.461 7  90866674.39845  22190564.852                    22190568.379
      2292.305        1786.377          43.800          35.800
 111209407.599 8  86496220.928 7  20782135.070    20782134.828    20782136.398
     -3030.277       -2356.872          49.300          46.500
 116559519.234 6  90657412.760 6  21812524.203    21812523.723    21812528.395
     -3740.562       -2909.309          40.900          36.100
 118691534.998 7  92315637.539 7  22188129.711    22188128.879    22188131.465
      3765.026        2928.337          42.600          43.200
 18  1 21 21 54 30.0000000  0 13R16G05G29R18G16G25R09G31G26G21R17R15
                                R19
 103013254.602 7  80121429.690 7  19284298.250    19284297.066    19284299.082
       329.774         256.494          43.200          45.100
 128218583.979 7  99910619.10544  24399193.188                    24399194.277
       983.051         766.278          45.400          27.400
 109291422.729 8  85162180.03047  20797466.789                    20797469.734
     -1748.629       -1362.390          50.400          43.100
 102668088.367 8  79852967.978 8  19233190.961    19233189.777    19233192.152
       567.338         441.285          48.800          48.700
 125478590.914 6  97775567.76343  23877787.211                    23877789.570
      3280.000        2555.923          39.200          20.600
 118618971.086 7  92430435.34645  22572442.539                    22572448.922
     -2803.262       -2184.201          45.100          33.100
 118233656.112 7  91959521.823 7  22141369.078    22141367.543    22141370.672
      3821.174        2971.992          42.800          44.200
 111565615.410 8  86934280.17146  21230232.156                    21230234.793
     -1309.566       -1020.220          52.500          41.100
 114259700.590 8  89033597.95746  21742907.977                    21742914.617
      2344.090        1826.691          48.600          41.500
 116543618.136 7  90813235.97245  22177514.898                    22177517.664
      2279.605        1776.497          44.600          35.900
 111300505.143 8  86567074.574 7  20799159.438    20799158.254    20799159.813
     -3042.451       -2366.356          48.900          46.800
 116671920.495 6  90744836.012 6  21833557.469    21833556.168    21833562.102
     -3752.526       -2918.554          38.200          36.800
 118578750.268 7  92227916.082 7  22167046.039    22167045.207    22167048.727
      3754.292        2919.996          42.100          43.500
 18  1 21 21 55  0.0000000  0 13R16G05G29R18G16G25R09G31G26G21R17R15
                                R19
 103003733.425 7  80114024.350 7  19282514.922    19282514.563    19282516.383
       305.699         237.758          43.600          44.800
 128189352.835 7  99887841.62344  24393629.914                    24393633.457
       965.570         752.659          42.300          26.600
 109344050.064 8  85203188.33547  20807481.875                    20807485.082
     -1759.898       -1371.211          49.700          42.900
 102651412.968 8  79839998.239 8  19230066.430    19230066.070    19230068.449
       545.008         423.904          49.300          49.000
 125380233.733 6  97698925.78543  23859070.695                    23859072.473
      3277.168        2553.591          37.700          21.300
 118703191.164 7  92496061.35145  22588468.555                    22588475.336
     -2811.559       -2190.686          44.000          32.700
 118119151.666 7  91870462.792 7  22119926.023    22119925.898    22119928.164
      3812.688        2965.417          43.100          44.700
 111605172.333 8  86965103.73346  21237759.695                    21237762.387
     -1327.617       -1034.249          52.900          41.400
 114189510.820 8  88978904.63747  21729551.172                    21729557.848
      2335.164        1819.717          49.300          42.100
 116475421.281 7  90760095.57046  22164538.047                    22164540.289
      2266.773        1766.489          46.000          36.100
 111391968.548 8  86638212.781 7  20816250.422    20816249.473    20816250.957
     -3054.687       -2375.871          48.900          46.000
 116784681.019 6  90832538.705 5  21854659.078    21854658.129    21854662.234
     -3764.473       -2927.964          39.100          34.100
 118466290.980 7  92140447.723 7  22146023.242    22146022.293    22146024.988
      3743.308        2911.508          42.000          43.700
 18  1 21 21 55 30.0000000  0 13R16G05G29R18G16G25R09G31G26G21R17R15
                                R19
 102994934.743 7  80107180.901 7  19280868.555    19280867.488    19280869.527
       281.591         219.021          43.800          44.900
 128160644.871 7  99865471.89044  24388166.367                    24388171.371
       948.270         739.069          45.600          28.500
 109397015.259 8  85244459.92147  20817560.742                    20817563.625
     -1771.098       -1379.950          51.000          42.600
 102635405.765 8  79827548.201 8  19227068.164    19227067.566    19227069.895
       522.834         406.649          48.600          49.300
 125281966.883 6  97622354.24443  23840371.625                    23840372.531
      3274.125        2551.237          39.200          21.800
 118787658.941 7  92561880.37545  22604542.727                    22604548.918
     -2819.707       -2197.093          45.200          32.000
 118004901.055 7  91781601.194 7  22098530.383    22098530.961    22098532.758
      3804.203        2958.840          43.700          44.500
 111645268.194 8  86996347.24846  21245389.859                    21245392.496
     -1345.520       -1048.220          52.700          41.300
 114119589.384 8  88924420.40946  21716245.203                    21716252.727
      2326.246        1812.758          48.100          41.100
 116407609.488 7  90707255.21546  22151633.766                    22151636.078
      2253.934        1756.491          47.800          36.400
 111483795.793 8  86709633.968 7  20833411.289    20833410.340    20833411.672
     -3066.733       -2385.229          48.900          45.700
 116897798.939 6  90920519.247 5  21875829.266    21875827.379    21875832.910
     -3776.302       -2937.116          40.200          34.900
 118354160.740 6  92053235.354 7  22125061.727    22125060.191    22125062.492
      3732.333        2902.931          41.300          43.100
 18  1 21 21 56  0.0000000  0 13R16G05G29R18G16G25R09G31G26G21R17R15
                                R19
 102986859.052 7  80100899.798 7  19279356.086    19279355.605    19279357.805
       257.513         200.298          43.500          44.300
 128132461.129 7  99843510.50444  24382804.961                    24382805.273
       930.715         725.462          46.600          27.300
 109450315.887 8  85285992.88147  20827703.359                    20827706.645
     -1782.227       -1388.638          50.800          43.200
 102620065.335 8  79815616.769 8  19224194.313    19224193.715    19224195.887
       500.639         389.373          49.100          49.700
 125183790.840 6  97545853.47043  23821689.242                    23821690.836
      3270.902        2548.845          39.600          22.000
 118872372.614 7  92627891.02545  22620663.109                    22620669.660
     -2827.875       -2203.448          44.500          32.300
 117890906.923 7  91692939.104 7  22077184.617    22077184.727    22077184.988
      3795.639        2952.167          43.300          44.000
 111685900.840 8  87028009.03947  21253122.125                    21253124.492
     -1363.293       -1062.123          53.000          42.200
 114049936.996 8  88870145.82646  21702990.438                    21702997.309
      2317.191        1805.769          48.100          40.400
 116340183.607 7  90654715.57746  22138802.805                    22138804.891
      2241.078        1746.466          46.600          36.400
 111575982.633 8  86781334.850 7  20850638.352    20850637.285    20850639.051
     -3078.647       -2394.505          49.600          46.000
 117011271.006 6  91008775.292 5  21897063.703    21897062.402    21897065.988
     -3788.091       -2946.273          40.400          34.100
 118242360.886 6  91966279.983 7  22104162.469    22104162.227    22104163.293
      3721.346        2894.360          41.100          43.800
 18  1 21 21 56 30.0000000  0 13R16G05G29R18G16G25R09G31G26G21R17R15
                                R19
 102979507.545 7  80095181.944 7  19277981.117    19277979.816    19277981.707
       233.384         181.531          43.600          45.400
 128104802.330 6  99821958.14544  24377540.570                    24377542.227
       913.254         711.827          41.900          25.500
 109503949.935 8  85327785.63447  20837909.320                    20837912.730
     -1793.297       -1397.228          50.800          42.700
 102605390.632 8  79804203.116 8  19221446.234    19221444.934    19221447.285
       478.442         372.123          49.600          49.300
 125085706.813 6  97469424.38143  23803024.266                    23803027.609
      3267.871        2546.461          39.200          23.600
 118957330.951 7  92694092.30945  22636830.164                    22636836.195
     -2835.910       -2209.746          45.000          32.800
 117777172.624 7  91604479.104 7  22055886.055    22055886.164    22055885.813
      3786.957        2945.410          44.600          43.800
 111727068.815 9  87060087.96347  21260956.422                    21260958.762
     -1381.078       -1075.973          54.000          42.300
 113980554.958 7  88816081.89946  21689787.664                    21689794.336
      2308.219        1798.730          47.100          39.400
 116273145.082 7  90602477.77946  22126045.445                    22126047.770
      2228.195        1736.408          45.600          36.400
 111668525.468 8  86853312.615 7  20867932.547    20867931.246    20867932.969
     -3090.419       -2403.676          49.600          46.100
 117125094.147 6  91097304.382 5  21918361.516    21918362.680    21918366.242
     -3799.722       -2955.387          39.600          30.300
 118130893.124 7  91879582.812 7  22083324.672    22083325.133    22083325.508
      3710.255        2885.755          42.600          43.600
 18  1 21 21 57  0.0000000  0 13R16G05G29R18G16G25R09G31G26G21R17R15
                                R19
 102972880.418 7  80090027.514 7  19276740.180    19276739.230    19276741.051
       209.160         162.674          43.900          45.500
 128077668.924 7  99800815.31344  24372376.094                    24372381.234
       895.578         698.093          42.500          26.400
 109557915.310 8  85369836.56547  20848178.906                    20848182.055
     -1804.441       -1405.886          50.800          42.600
 102591380.198 8  79793306.122 8  19218821.023    19218820.543    19218822.793
       456.271         354.875          49.300          49.400
 124987715.433 6  97393067.45543  23784377.703                    23784381.297
      3264.898        2544.018          38.600          23.200
 119042532.458 7  92760483.07945  22653043.023                    22653049.551
     -2844.164       -2216.104          44.600          31.800
 117663700.829 7  91516223.273 7  22034637.359    22034637.000    22034636.063
      3778.056        2938.501          47.300          43.800
 111768770.447 8  87092582.73547  21268892.281                    21268894.848
     -1399.055       -1089.898          53.900          43.400
 113911444.281 7  88762229.43846  21676636.828                    21676642.773
      2299.082        1791.614          47.600          39.800
 116206494.873 7  90550542.57345  22113362.117                    22113364.676
      2215.121        1726.245          46.400          35.200
 111761420.528 8  86925564.310 7  20885292.898    20885291.129    20885292.488
     -3102.190       -2412.811          49.800          45.700
 117239265.471 6  91186104.261 5  21939728.242    21939728.234    21939734.066
     -3811.332       -2964.355          38.800          32.500
 118019759.099 7  91793145.301 7  22062551.117    22062549.699    22062550.758
      3699.004        2876.989          43.200          44.600
 18  1 21 21 57 30.0000000  0 13R16G05G29R18G16G25R09G31G26G21R17R15
                                R19
 102966980.389 7  80085438.597 7  19275635.094    19275635.438    19275636.934
       184.883         143.800          43.800          45.600
 128051064.587 7  99780084.70845  24367315.500                    24367319.480
       877.996         684.331          46.800          30.400
 109612211.482 8  85412145.27147  20858510.836                    20858514.234
     -1815.273       -1414.469          50.600          42.900
 102578034.706 8  79782926.290 8  19216321.016    19216320.066    19216322.441
       434.092         337.619          50.200          49.000
 124889819.141 6  97316784.61444  23765748.781                    23765751.777
      3261.691        2541.532          41.300          24.700
 119127977.313 7  92827063.46345  22669302.945                    22669309.109
     -2852.184       -2222.436          45.900          31.800
 117550496.288 7  91428175.319 7  22013437.789    22013436.371    22013436.250
      3769.120        2931.521          47.200          42.900
 111811005.293 8  87125492.99547  21276928.961                    21276931.887
     -1416.645       -1103.727          52.800          42.800
 113842607.783 8  88708590.62946  21663537.688                    21663543.328
      2289.992        1784.468          48.300          39.500
 116140235.592 7  90498911.98545  22100753.117                    22100756.191
      2202.246        1716.065          45.500          35.000
 111854665.691 8  86998088.300 7  20902717.227    20902716.277    20902717.785
     -3113.828       -2421.849          49.700          46.000
 117353783.274 6  91275173.701 5  21961158.242    21961158.234    21961161.750
     -3822.855       -2973.329          40.700          31.700
 117908962.109 7  91706969.915 7  22041836.922    22041836.563    22041837.867
      3687.741        2868.237          43.000          44.800
 18  1 21 21 58  0.0000000  0 13R16G05G29R18G16G25R09G31G26G21R17R15
                                R19
 102961807.611 7  80081415.296 7  19274666.766    19274666.168    19274668.063
       160.703         124.997          43.500          45.100
 128024989.578 7  99759766.53744  24362353.508                    24362356.504
       860.289         670.610          45.300          27.100
 109666835.779 8  85454709.65047  20868905.633                    20868908.699
     -1826.293       -1422.903          50.000          43.600
 102565352.331 8  79773062.223 8  19213944.836    19213944.711    19213947.000
       412.061         320.498          49.300          48.800
 124792018.258 6  97240576.15244  23747137.633                    23747140.246
      3258.383        2539.074          40.200          24.800
 119213663.617 7  92893831.98945  22685608.781                    22685614.465
     -2860.141       -2228.646          45.100          30.800
 117437561.694 7  91340337.302 6  21992288.563    21992287.730    21992286.703
      3760.118        2924.526          47.900          41.900
 111853771.365 8  87158817.20947  21285067.297                    21285070.566
     -1434.297       -1117.450          52.800          42.800
 113774046.168 8  88655166.00146  21650490.383                    21650496.500
      2280.809        1777.368          48.800          39.400
 116074368.146 7  90447586.71045  22088219.305                    22088222.285
      2188.965        1705.926          45.400          35.400
 111948256.598 8  87070881.233 7  20920207.203    20920206.137    20920206.988
     -3125.212       -2430.715          50.500          46.600
 117468644.885 7  91364510.412 4  21982655.711    21982654.762    21982659.266
     -3834.190       -2982.152          42.500          29.300
 117798503.529 7  91621057.709 7  22021186.633    22021186.508    22021189.676
      3676.531        2859.489          42.600          44.700
 18  1 21 21 58 30.0000000  0 13R16G05G29R18G16G25R09G31G26G21R17R15
                                R19
 102957363.163 7  80077958.504 7  19273834.984    19273834.504    19273836.480
       136.409         106.105          44.200          46.100
 127999445.328 6  99739861.88143  24357492.641                    24357494.023
       842.625         656.837          41.100          22.500
 109721786.515 8  85497528.40747  20879362.813                    20879365.656
     -1837.066       -1431.359          50.700          43.000
 102553332.203 8  79763713.255 8  19211693.828    19211692.645    19211695.125
       390.020         303.328          48.800          49.100
 124694313.968 6  97164442.94544  23728544.367                    23728547.332
      3255.199        2536.552          39.300          24.500
 119299590.192 7  92960787.73944  22701960.266                    22701966.121
     -2868.363       -2234.869          43.800          29.900
 117324900.392 7  91252711.821 6  21971189.523    21971189.633    21971188.758
      3750.959        2917.409          46.600          41.500
 111897067.271 8  87192554.27447  21293305.773                    21293308.945
     -1452.031       -1131.189          52.600          42.300
 113705760.837 8  88601956.65246  21637496.672                    21637502.008
      2271.527        1770.171          50.000          40.800
 116008893.516 7  90396567.53346  22075760.086                    22075762.371
      2175.957        1695.701          46.100          36.500
 112042189.873 8  87143940.441 7  20937760.484    20937759.770    20937761.789
     -3136.567       -2439.543          49.700          47.300
 117583846.267 7  91454111.521 5  22004213.938    22004213.813    22004217.875
     -3845.467       -2990.925          43.600          33.800
 117688384.810 7  91535409.827 7  22000601.414    22000601.055    22000604.520
      3665.152        2850.676          42.800          45.000
 18  1 21 21 59  0.0000000  0 13R16G05G29R18G16G25R09G31G26G21R17R15
                                R19
 102953649.960 7  80075070.441 7  19273140.406    19273139.574    19273141.477
       112.029          87.146          44.500          45.000
 127974434.521 6  99720373.12843  24352731.000                    24352733.988
       824.875         642.933          38.700          20.600
 109777063.593 8  85540601.44547  20889881.297                    20889884.410
     -1847.965       -1439.809          50.100          43.200
 102541975.012 8  79754879.904 8  19209565.188    19209565.297    19209567.859
       367.945         286.175          48.800          49.600
 124596709.427 6  97088387.40743  23709970.664                    23709974.117
      3251.836        2533.963          37.500          22.200
 119385757.740 7  93027931.25444  22718357.680                    22718361.961
     -2876.098       -2241.123          44.900          27.500
 117212517.545 7  91165302.927 6  21950143.461    21950142.980    21950142.336
      3741.594        2910.128          46.000          40.900
 111940893.091 8  87226704.26746  21301644.883                    21301648.793
     -1469.625       -1144.951          51.500          41.300
 113637755.103 8  88548965.15646  21624555.617                    21624560.953
      2262.242        1762.898          48.700          40.700
 115943815.544 7  90345857.43346  22063376.383                    22063378.598
      2162.715        1685.383          47.900          37.100
 112136463.870 8  87217264.659 7  20955377.305    20955376.945    20955378.961
     -3147.899       -2448.356          50.000          47.000
 117699386.936 7  91543976.486 4  22025835.578    22025834.980    22025836.172
     -3856.770       -2999.714          42.900          27.700
 117578609.918 7  91450029.382 7  21980081.313    21980079.543    21980083.406
      3653.642        2841.720          43.500          44.900
 18  1 21 21 59 30.0000000  0 13R16G05G29R18G16G25R09G31G26G21R17R15
                                R19
 102950669.017 7  80072751.933 7  19272582.438    19272581.605    19272583.023
        87.613          68.161          44.200          44.700
 127949958.970 7  99701301.19843  24348073.844                    24348075.711
       806.957         629.048          45.500          23.400
 109832665.873 8  85583927.89847  20900462.156                    20900465.258
     -1858.812       -1448.242          51.900          43.200
 102531280.304 8  79746561.802 8  19207561.766    19207561.406    19207564.258
       345.882         269.023          48.200          49.600
 124499206.062 6  97012410.76043  23691416.844                    23691420.313
      3248.453        2531.317          39.600          22.800
 119472165.525 7  93095261.96944  22734799.906                    22734805.684
     -2884.238       -2247.317          44.400          26.800
 117100417.022 7  91078113.608 6  21929151.352    21929150.871    21929150.453
      3732.155        2902.793          46.000          41.900
 111985247.820 8  87261266.38646  21310085.688                    21310088.922
     -1487.234       -1158.659          52.100          41.100
 113570030.829 8  88496193.00746  21611668.195                    21611673.789
      2252.820        1755.567          48.000          40.500
 115879135.801 7  90295457.64946  22051068.508                    22051070.465
      2149.445        1675.027          46.200          37.600
 112231075.520 8  87290851.511 7  20973058.102    20973057.387    20973059.313
     -3159.031       -2457.029          48.800          46.500
 117815264.569 6  91634103.438 5  22047518.734    22047519.195    22047524.652
     -3867.964       -3008.415          41.800          30.800
 117469181.500 7  91364918.397 7  21959624.945    21959623.059    21959626.563
      3642.032        2832.712          43.100          44.200
