     2.11           OBSERVATION DATA    M (MIXED)           RINEX VERSION / TYPE
teqc  2016Nov7      IGN-RGP             20180121 22:12:57UTCPGM / RUN BY / DATE
Linux 2.4.21-27.ELsmp|Opteron|gcc|Linux x86_64|=+           COMMENT
teqc  2016Nov7                          20180121 22:12:57UTCCOMMENT
teqc  2016Nov7      IGN-RGP             20180121 22:12:56UTCCOMMENT
teqc  2015Jun23     IGN-RGP             20180121 22:06:30UTCCOMMENT
Linux2.4.20-8|i386|gcc|Win32-MinGW32|=                      COMMENT
   0.000      (antenna height)                              COMMENT
 +48.96934423 (latitude)                                    COMMENT
  +2.74931221 (longitude)                                   COMMENT
0175.602      (elevation)                                   COMMENT
BIT 2 OF LLI FLAGS DATA COLLECTED UNDER A/S CONDITION       COMMENT
19787M001 (COGO code)                                       COMMENT
CT55                                                        MARKER NAME
19787M001                                                   MARKER NUMBER
Automatic           GIE COOP&TECH                           OBSERVER / AGENCY
5132K77647          TRIMBLE NETR5       4.15                REC # / TYPE / VERS
1441009107          TRM55971.00     NONE                    ANT # / TYPE
  4190293.8430   201223.8300  4788453.8890                  APPROX POSITION XYZ
        0.0000        0.0000        0.0000                  ANTENNA: DELTA H/E/N
     1     1                                                WAVELENGTH FACT L1/2
     9    L1    L2    C1    P1    P2    D1    D2    S1    S2# / TYPES OF OBSERV
    30.0000                                                 INTERVAL
    18                                                      LEAP SECONDS
 SNR is mapped to RINEX snr flag value [0-9]                COMMENT
  L1 & L2: min(max(int(snr_dBHz/6), 0), 9)                  COMMENT
teqc_2016 edited: GLONASS # 25 - 30 excluded                COMMENT
Forced Modulo Decimation to 30 seconds                      COMMENT
teqc_2016 edited: GLONASS # 25 - 30 excluded                COMMENT
  2018     1    21    21     0    0.0000000     GPS         TIME OF FIRST OBS
                                                            END OF HEADER
 18  1 21 21  0  0.0000000  0 14R16R24R18G14G25G29G31G26G12R15G21G02
                                R17R14
 107320066.595 7  83471169.560 7  20090540.367    20090539.359    20090541.457
                                        45.400          42.400
 120709049.652 6  93884823.633 5  22573195.195    22573194.910    22573196.152
                                        41.200          31.700
 108012604.627 8  84009814.088 7  20234400.938    20234399.777    20234402.922
                                        50.000          47.100
 124390437.190 7  96927624.46643  23670718.367                    23670721.301
     -2579.195                          42.200          22.900
 110534895.265 8  86131164.12047  21034099.047                    21034104.086
     -1769.430                          53.700          43.700
 105367045.224 8  82104251.83347  20050687.305                    20050689.082
      -219.480                          52.900          44.300
 110080708.713 8  85777177.85446  20947664.000                    20947665.953
       691.332                          50.200          40.200
 122633431.269 7  95558543.80244  23336367.703                    23336372.344
      3008.398                          43.800          28.900
 124465774.272 7  96986381.60444  23685049.953                    23685051.883
     -3164.805                          45.000          28.000
 106488392.906 8  82824518.393 6  19927901.578    19927900.133    19927904.852
                                        48.100          41.100
 125450435.549 6  97753474.19342  23872393.023                    23872393.984
      3255.711                          40.200          17.400
 125709111.825 7  97955179.03844  23921647.867                    23921647.211
     -2203.180                          43.400          29.300
 103641901.115 8  80610382.068 8  19367962.430    19367960.738    19367963.707
                                        50.000          48.800
 123356945.642 7  95944305.354 5  23141448.234    23141447.609    23141450.730
                                        43.000          34.900
 18  1 21 21  0 30.0000000  0 14R16R24R18G14G25G29G31G26G12R15G21G02
                                R17R14
 107245974.480 7  83413542.364 7  20076669.922    20076669.383    20076671.883
      2462.400        1915.203          45.500          42.800
 120830039.621 6  93978926.930 5  22595819.234    22595819.418    22595821.828
     -4036.434       -3139.428          39.700          30.100
 107925409.154 8  83941995.409 7  20218065.711    20218065.137    20218068.012
      2897.383        2253.510          49.800          47.600
 124467959.841 7  96988031.70444  23685471.039                    23685473.301
     -2589.133       -2017.266          42.200          24.700
 110588145.042 8  86172657.44947  21044232.273                    21044237.023
     -1780.629       -1387.279          52.500          43.400
 105373876.989 8  82109575.29147  20051987.070                    20051989.012
      -236.027        -183.646          53.000          44.000
 110060241.661 8  85761229.49146  20943769.547                    20943771.316
       673.105         524.758          49.900          39.900
 122543237.998 7  95488263.35944  23319204.586                    23319209.402
      3004.395        2341.199          43.400          29.800
 124560776.007 7  97060408.91144  23703127.445                    23703130.145
     -3168.676       -2469.025          44.300          28.300
 106550951.700 7  82873175.216 6  19939607.453    19939607.297    19939611.848
     -2094.263       -1628.865          47.500          41.100
 125352838.362 6  97677424.41942  23853819.672                    23853821.480
      3250.926        2533.162          39.300          17.800
 125775391.268 7  98006825.35544  23934259.750                    23934260.070
     -2215.516       -1726.138          43.500          28.400
 103674125.050 8  80635445.143 8  19373984.313    19373982.973    19373985.504
     -1085.456        -844.256          50.100          48.900
 123474912.185 7  96036057.113 5  23163578.672    23163578.164    23163580.129
     -3935.626       -3061.047          43.200          34.700
 18  1 21 21  1  0.0000000  0 14R16R24R18G14G25G29G31G26G12R15G21G02
                                R17R14
 107172336.979 7  83356268.765 7  20062885.453    20062884.094    20062886.164
      2447.332        1903.467          45.200          42.800
 120951239.820 6  94073193.810 4  22618485.258    22618484.035    22618486.641
     -4043.285       -3144.788          39.800          29.200
 107838782.598 8  83874619.222 8  20201838.320    20201837.395    20201840.164
      2878.434        2238.773          49.700          48.000
 124545772.433 7  97048664.85343  23700278.805                    23700281.027
     -2598.629       -2024.668          43.300          22.000
 110641725.811 8  86214408.68447  21054428.195                    21054433.059
     -1791.617       -1395.798          53.200          43.400
 105381199.005 8  82115280.75447  20053380.328                    20053382.570
      -252.289        -196.263          53.500          45.100
 110040319.099 8  85745705.40746  20939977.953                    20939980.238
       654.914         510.688          49.600          40.500
 122453162.086 7  95418074.34144  23302063.852                    23302068.063
      3000.438        2338.219          44.400          28.700
 124655891.223 7  97134524.61344  23721227.898                    23721230.301
     -3172.527       -2471.893          44.800          29.600
 106614065.212 8  82922263.505 6  19951419.023    19951418.047    19951422.922
     -2112.602       -1643.146          48.100          41.500
 125255388.340 6  97601489.34442  23835276.398                    23835277.449
      3245.723        2529.355          39.400          16.900
 125842037.101 7  98058757.17144  23946942.219                    23946941.730
     -2227.754       -1735.597          44.100          28.500
 103707049.773 8  80661053.265 8  19380136.703    19380135.832    19380138.207
     -1108.680        -862.304          49.800          48.500
 123593088.162 7  96127971.721 6  23185747.898    23185746.570    23185750.914
     -3942.484       -3066.373          42.900          37.900
 18  1 21 21  1 30.0000000  0 14R16R24R18G14G25G29G31G26G12R15G21G02
                                R17R14
 107099156.904 7  83299350.922 7  20049186.008    20049184.648    20049186.918
      2431.963        1891.523          45.100          42.600
 121072646.741 6  94167621.360 5  22641191.063    22641189.723    22641191.039
     -4050.194       -3150.124          40.400          30.800
 107752727.131 8  83807687.204 7  20185717.164    20185716.355    20185718.742
      2859.294        2223.901          50.300          47.500
 124623871.884 7  97109521.54444  23715140.867                    23715142.324
     -2607.922       -2032.117          43.200          24.100
 110695636.803 8  86256417.24447  21064686.594                    21064692.203
     -1802.367       -1404.396          53.400          42.900
 105389010.014 8  82121367.26447  20054866.852                    20054868.910
      -268.285        -208.982          51.100          44.700
 110020942.051 8  85730606.39846  20936291.320                    20936292.793
       636.910         496.463          49.100          40.600
 122363204.522 7  95347977.53244  23284945.313                    23284949.793
      2996.672        2335.105          44.100          29.700
 124751119.184 7  97208728.19544  23739348.945                    23739351.352
     -3175.883       -2474.819          44.700          28.900
 106677732.621 7  82971782.561 6  19963333.406    19963332.781    19963337.215
     -2131.114       -1657.536          47.800          41.700
 125158087.854 6  97525670.78643  23816759.617                    23816762.145
      3240.879        2525.382          38.700          18.600
 125909047.206 7  98110972.82144  23959693.711                    23959692.906
     -2239.574       -1745.050          42.600          27.700
 103740672.983 8  80687204.669 8  19386419.984    19386419.348    19386421.855
     -1131.946        -880.414          50.000          49.200
 123711471.585 7  96220047.648 5  23207956.813    23207956.070    23207959.355
     -3949.404       -3071.759          42.600          34.500
 18  1 21 21  2  0.0000000  0 14R16R24R18G14G25G29G31G26G12R15G21G02
                                R17R14
 107026437.517 7  83242791.407 7  20035572.297    20035571.996    20035574.090
      2416.536        1879.524          45.200          42.300
 121194256.912 6  94262207.056 4  22663931.438    22663929.977    22663932.105
     -4056.905       -3155.388          38.600          29.100
 107667245.373 8  83741201.410 8  20169703.281    20169702.473    20169705.129
      2840.148        2208.996          50.500          48.000
 124702255.770 7  97170599.88744  23730056.477                    23730058.402
     -2617.586       -2039.456          43.500          25.100
 110749877.675 8  86298682.84647  21075008.805                    21075014.301
     -1813.660       -1412.978          52.300          43.300
 105397309.279 8  82127834.21947  20056446.070                    20056448.168
      -284.910        -221.668          53.400          44.500
 110002111.829 8  85715933.49146  20932707.461                    20932709.836
       618.352         482.242          50.000          40.900
 122273366.615 7  95277973.97644  23267849.500                    23267854.152
      2992.465        2331.968          43.900          28.000
 124846458.827 7  97283018.80344  23757491.211                    23757494.035
     -3180.012       -2477.734          45.000          28.300
 106741953.091 7  83021731.804 6  19975351.188    19975351.266    19975356.121
     -2149.567       -1671.882          47.200          41.500
 125060939.193 6  97449970.53142  23798273.492                    23798275.508
      3235.535        2521.466          39.600          17.800
 125976419.732 7  98163470.89144  23972514.070                    23972514.230
     -2251.891       -1754.449          43.400          27.900
 103774992.528 8  80713897.647 8  19392833.391    19392832.168    19392834.590
     -1155.133        -898.451          50.300          48.700
 123830060.594 7  96312283.566 6  23230203.672    23230202.227    23230205.266
     -3956.257       -3077.073          43.000          36.500
 18  1 21 21  2 30.0000000  0 14R16R24R18G14G25G29G31G26G12R15G21G02
                                R17R14
 106954181.690 7  83186592.441 7  20022045.398    20022044.625    20022046.949
      2401.000        1867.450          45.300          42.100
 121316066.511 6  94356947.907 4  22686708.211    22686708.160    22686710.656
     -4063.509       -3160.504          38.500          28.100
 107582338.825 8  83675162.998 7  20153797.148    20153796.574    20153799.332
      2820.924        2194.043          49.800          47.400
 124780920.397 7  97231896.96043  23745025.844                    23745027.422
     -2626.855       -2046.740          42.000          23.800
 110804447.432 8  86341204.72547  21085392.930                    21085398.277
     -1824.531       -1421.510          51.000          42.300
 105406095.287 8  82134680.46347  20058117.961                    20058120.508
      -301.117        -234.334          51.900          44.700
 109983828.894 8  85701687.03446  20929228.453                    20929229.922
       600.180         468.003          49.800          41.400
 122183649.134 7  95208064.26545  23250777.656                    23250781.750
      2988.480        2328.789          44.100          30.400
 124941909.981 7  97357396.31144  23775655.297                    23775657.348
     -3183.691       -2480.651          44.700          27.400
 106806724.966 7  83072109.915 6  19987472.703    19987472.313    19987476.906
     -2167.949       -1686.185          47.500          40.600
 124963944.573 6  97374390.33042  23779816.656                    23779817.500
      3230.398        2517.355          39.200          17.400
 126044152.492 7  98216249.66844  23985403.445                    23985402.203
     -2263.793       -1763.813          43.600          28.100
 103810005.744 8  80741130.157 8  19399376.477    19399375.371    19399377.734
     -1178.280        -916.448          49.700          48.600
 123948852.922 6  96404677.573 6  23252488.156    23252486.828    23252492.094
     -3962.994       -3082.332          41.800          38.900
 18  1 21 21  3  0.0000000  0 14R16R24R18G14G25G29G31G26G12R15G21G02
                                R17R14
 106882392.573 7  83130756.464 7  20008606.492    20008605.484    20008607.605
      2385.471        1855.371          45.100          42.400
 121438072.233 6  94451841.210 4  22709525.313    22709524.676    22709526.926
     -4069.919       -3165.499          39.000          29.200
 107498009.953 8  83609573.892 7  20138000.109    20137999.652    20138001.918
      2801.661        2179.053          49.900          47.900
 124859863.103 7  97293410.71943  23760048.961                    23760049.871
     -2635.957       -2053.912          43.200          22.900
 110859345.644 8  86383982.53047  21095839.250                    21095844.879
     -1835.344       -1430.008          51.300          42.900
 105415367.469 8  82141905.53647  20059882.211                    20059884.559
      -317.098        -246.900          51.100          44.100
 109966094.137 8  85687867.73946  20925854.031                    20925855.469
       582.051         453.769          50.100          41.800
 122094053.426 7  95138249.42344  23233727.773                    23233732.098
      2984.582        2325.658          45.000          29.700
 125037471.551 7  97431859.83744  23793839.523                    23793842.098
     -3187.172       -2483.464          44.400          27.100
 106872047.409 7  83122916.218 6  19999696.570    19999696.531    19999700.793
     -2186.267       -1700.409          47.500          40.800
 124867106.566 6  97298932.11642  23761387.844                    23761389.883
      3225.418        2513.344          38.300          16.900
 126112243.476 7  98269307.56944  23998359.781                    23998359.336
     -2275.613       -1773.058          42.600          27.000
 103845710.432 8  80768900.463 8  19406048.539    19406047.668    19406050.016
     -1201.209        -934.286          50.200          48.800
 124067846.702 7  96497228.221 5  23274811.664    23274810.688    23274813.898
     -3969.669       -3087.537          43.300          35.000
 18  1 21 21  3 30.0000000  0 14R16R24R18G14G25G29G31G26G12R15G21G02
                                R17R14
 106811073.318 7  83075285.924 6  19995255.953    19995254.711    19995257.117
      2369.634        1843.065          44.500          41.700
 121560270.407 6  94546884.177 4  22732378.047    22732376.941    22732378.605
     -4076.390       -3170.539          39.200          28.800
 107414260.954 8  83544435.789 7  20122310.945    20122309.551    20122311.977
      2782.198        2163.938          50.000          47.200
 124939081.046 7  97355138.99544  23775123.094                    23775124.254
     -2645.324       -2061.097          43.000          24.600
 110914571.701 8  86427015.80947  21106348.398                    21106353.598
     -1846.535       -1438.608          52.400          42.900
 105425124.840 8  82149508.68547  20061738.648                    20061741.336
      -333.477        -259.584          51.100          44.800
 109948908.904 8  85674476.64047  20922583.750                    20922585.344
       563.512         439.430          50.200          42.000
 122004580.600 7  95068530.34644  23216700.953                    23216705.816
      2980.148        2322.360          45.200          29.500
 125133142.988 7  97506408.98944  23812045.586                    23812047.906
     -3190.949       -2486.399          45.500          27.200
 106937919.665 7  83174150.198 6  20012023.688    20012022.828    20012027.504
     -2204.650       -1714.734          47.800          40.400
 124770427.555 6  97223597.91443  23742992.055                    23742992.633
      3219.844        2509.048          38.900          18.300
 126180690.816 6  98322643.16044  24011385.039                    24011384.652
     -2287.660       -1782.352          41.300          26.400
 103882104.060 8  80797206.626 8  19412850.320    19412848.629    19412850.871
     -1224.272        -952.211          50.300          48.800
 124187039.857 7  96589933.986 6  23297172.477    23297171.031    23297174.215
     -3976.356       -3092.703          42.700          38.300
 18  1 21 21  4  0.0000000  0 14R16R24R18G14G25G29G31G26G12R15G21G02
                                R17R14
 106740226.919 7  83020183.187 7  19981992.961    19981991.602    19981994.043
      2353.859        1830.768          43.800          42.400
 121682657.660 6  94642074.301 4  22755263.406    22755262.066    22755264.754
     -4082.608       -3175.352          38.100          28.500
 107331094.262 8  83479750.612 7  20106730.344    20106729.652    20106732.516
      2762.795        2148.825          50.300          46.900
 125018571.223 6  97417079.35243  23790248.945                    23790250.895
     -2654.484       -2068.106          41.300          22.500
 110970125.133 8  86470304.18347  21116919.477                    21116925.328
     -1857.465       -1447.084          51.900          42.300
 105435366.561 8  82157489.24447  20063687.891                    20063689.992
      -349.625        -272.108          52.700          44.100
 109932273.939 8  85661514.32346  20919418.250                    20919419.926
       545.082         425.135          51.600          41.900
 121915231.975 7  94998908.05745  23199699.250                    23199703.891
      2976.051        2319.147          44.600          30.200
 125228923.495 7  97581043.11144  23830272.719                    23830274.383
     -3194.773       -2489.199          45.300          27.900
 107004340.627 8  83225810.927 6  20024453.242    20024452.617    20024457.164
     -2222.897       -1728.908          48.400          40.900
 124673910.488 6  97148389.79242  23724623.469                    23724626.184
      3214.301        2504.853          37.900          17.800
 126249492.602 7  98376254.93444  24024477.992                    24024477.023
     -2299.367       -1791.515          42.700          26.700
 103919184.628 8  80826047.078 8  19419779.063    19419777.957    19419780.621
     -1247.102        -969.975          50.400          48.300
 124306430.434 6  96682793.274 6  23319567.727    23319567.570    23319572.457
     -3982.897       -3097.801          41.500          37.300
 18  1 21 21  4 30.0000000  0 14R16R24R18G14G25G29G31G26G12R15G21G02
                                R17R14
 106669856.620 7  82965450.720 7  19968819.203    19968818.781    19968821.418
      2337.967        1818.426          44.500          42.200
 121805231.093 6  94737409.174 4  22778184.906    22778184.855    22778187.324
     -4088.716       -3180.093          39.000          29.500
 107248512.139 8  83415520.086 7  20091260.500    20091259.691    20091262.035
      2743.318        2133.688          50.200          47.500
 125098330.805 7  97479229.65844  23805426.766                    23805429.121
     -2662.926       -2075.024          42.100          24.000
 111026005.454 8  86513847.26847  21127553.484                    21127558.992
     -1867.934       -1455.526          52.700          42.400
 105446091.769 8  82165846.55347  20065728.852                    20065731.430
      -365.355        -284.637          50.700          44.100
 109916190.289 8  85648981.60547  20916358.023                    20916359.281
       527.082         410.823          51.400          42.600
 121826008.855 7  94929383.55344  23182719.727                    23182725.102
      2972.297        2315.919          43.900          29.800
 125324811.381 7  97655760.93944  23848519.422                    23848521.520
     -3197.957       -2491.955          45.700          26.500
 107071310.233 7  83277898.386 6  20036985.703    20036985.313    20036989.465
     -2241.113       -1743.090          47.900          40.400
 124577557.688 6  97073309.69142  23706289.719                    23706290.227
      3209.297        2500.599          39.700          16.300
 126318647.027 7  98430141.50544  24037637.211                    24037636.891
     -2310.707       -1800.637          42.400          26.400
 103956949.640 8  80855419.858 8  19426836.711    19426835.371    19426837.727
     -1269.849        -987.659          49.900          48.800
 124426016.546 7  96775804.751 6  23342002.961    23342001.398    23342005.680
     -3989.333       -3102.815          42.000          38.900
 18  1 21 21  5  0.0000000  0 14R16R24R18G14G25G29G31G26G12R15G21G02
                                R17R14
 106599965.383 7  82911090.869 7  19955734.758    19955734.336    19955737.055
      2321.962        1805.974          44.700          42.700
 121927986.353 6  94832885.457 4  22801142.703    22801141.949    22801143.172
     -4094.749       -3184.791          39.100          28.900
 107166516.025 8  83351745.333 7  20075899.891    20075899.316    20075902.059
      2723.692        2118.435          49.700          47.900
 125178356.456 6  97541587.29243  23820655.164                    23820658.168
     -2671.836       -2081.919          41.800          22.200
 111082211.671 8  86557644.30547  21138249.023                    21138254.371
     -1878.957       -1464.004          51.500          42.000
 105457298.917 8  82174579.40247  20067861.586                    20067863.863
      -381.574        -297.149          52.000          44.700
 109900658.608 8  85636878.98647  20913402.289                    20913403.910
       508.543         396.466          51.400          42.200
 121736912.019 7  94859957.45145  23165765.211                    23165771.234
      2967.844        2312.576          43.400          31.000
 125420807.126 7  97730562.80144  23866786.852                    23866788.195
     -3201.656       -2494.749          43.800          25.800
 107138826.028 7  83330410.658 6  20049620.797    20049620.758    20049624.715
     -2259.354       -1757.263          47.900          39.600
 124481371.397 6  96998359.38043  23687985.578                    23687986.840
      3203.418        2496.241          37.400          18.600
 126388151.695 7  98484300.98344  24050863.805                    24050862.750
     -2322.652       -1809.708          42.700          25.700
 103995396.286 8  80885322.808 8  19434021.023    19434020.621    19434022.871
     -1292.542       -1005.298          50.000          48.400
 124545795.838 7  96868966.338 6  23364473.070    23364472.211    23364476.930
     -3995.741       -3107.802          42.400          38.100
 18  1 21 21  5 30.0000000  0 14R16R24R18G14G25G29G31G26G12R15G21G02
                                R17R14
 106530556.209 7  82857105.968 7  19942741.859    19942741.086    19942743.832
      2305.799        1793.393          43.600          42.800
 122050920.141 6  94928500.640 4  22824130.172    22824130.355    22824131.758
     -4100.673       -3189.405          38.500          26.900
 107085108.446 8  83288428.355 7  20060649.453    20060648.879    20060651.301
      2704.051        2103.147          49.300          47.300
 125258645.426 7  97604150.10043  23835934.297                    23835936.254
     -2680.539       -2088.741          42.200          22.600
 111138743.254 8  86601694.88246  21149006.938                    21149011.922
     -1889.762       -1472.461          52.500          41.100
 105468986.820 8  82183686.86347  20070085.297                    20070087.836
      -397.520        -309.642          51.000          44.000
 109885679.902 8  85625207.26247  20910551.547                    20910553.129
       490.121         382.079          51.600          42.300
 121647942.676 7  94790630.69544  23148834.930                    23148841.367
      2963.586        2309.242          44.300          29.300
 125516909.811 7  97805447.96143  23885074.320                    23885075.691
     -3205.125       -2497.550          43.100          22.600
 107206887.453 8  83383347.312 6  20062357.531    20062357.258    20062361.313
     -2277.506       -1771.387          48.000          39.700
 124385353.452 6  96923540.16743  23669713.992                    23669715.602
      3197.781        2491.793          38.700          18.300
 126458004.686 7  98538731.88444  24064156.211                    24064155.047
     -2334.148       -1818.753          42.800          26.000
 104034522.272 8  80915754.139 8  19441333.695    19441331.652    19441333.977
     -1315.179       -1022.928          50.300          48.300
 124665766.262 7  96962276.671 6  23386979.820    23386979.313    23386982.641
     -4002.095       -3112.776          43.500          37.900
 18  1 21 21  6  0.0000000  0 14R16R24R18G14G25G29G31G26G12R15G21G02
                                R17R14
 106461632.076 7  82803498.310 7  19929839.273    19929838.031    19929840.598
      2289.596        1780.800          43.700          42.600
 122174029.340 6  95024252.252 4  22847152.844    22847151.504    22847154.383
     -4106.458       -3193.917          39.600          29.300
 107004291.433 8  83225570.687 7  20045509.906    20045508.629    20045511.250
      2684.352        2087.829          50.100          47.200
 125339194.741 6  97666915.76843  23851261.555                    23851263.922
     -2689.316       -2095.431          40.600          22.900
 111195599.614 8  86645998.53346  21159826.398                    21159830.977
     -1900.742       -1480.873          52.200          41.800
 105481154.951 8  82193168.52947  20072401.461                    20072403.594
      -413.691        -322.101          50.300          44.100
 109871254.843 8  85613966.95546  20907806.813                    20907807.793
       471.496         367.691          50.700          41.600
 121559102.105 7  94721404.28344  23131928.781                    23131935.305
      2958.977        2305.876          44.100          29.700
 125613118.282 7  97880415.59043  23903383.078                    23903383.445
     -3208.770       -2500.277          43.600          22.200
 107275493.140 7  83436707.280 6  20075196.383    20075195.523    20075199.656
     -2295.640       -1785.513          47.500          39.400
 124289506.705 6  96848854.44743  23651474.711                    23651475.578
      3191.867        2487.355          38.100          18.300
 126528204.147 7  98593432.75844  24077514.797                    24077513.965
     -2345.805       -1827.694          43.700          26.900
 104074325.174 8  80946711.942 8  19448770.492    19448769.855    19448772.313
     -1337.677       -1040.402          50.300          48.300
 124785925.787 7  97055734.045 6  23409521.883    23409520.203    23409524.590
     -4008.360       -3117.613          43.800          39.500
 18  1 21 21  6 30.0000000  0 14R16R24R18G14G25G29G31G26G12R15G21G02
                                R17R14
 106393195.948 7  82750270.204 7  19917027.578    19917027.156    19917029.926
      2273.334        1768.148          44.100          43.000
 122297310.336 6  95120137.400 4  22870209.375    22870207.563    22870209.035
     -4112.109       -3198.307          39.800          27.300
 106924066.807 8  83163173.768 7  20030480.547    20030479.738    20030482.477
      2664.604        2072.474          49.300          47.300
 125420001.173 6  97729881.79543  23866638.734                    23866641.160
     -2697.773       -2102.066          39.900          23.200
 111252780.036 8  86690554.69946  21170707.484                    21170712.492
     -1911.234       -1489.253          52.900          41.400
 105493801.982 8  82203023.35847  20074807.641                    20074810.578
      -429.383        -334.481          52.300          43.700
 109857384.364 8  85603158.77647  20905167.422                    20905168.918
       453.277         353.299          51.500          42.000
 121470391.348 7  94652279.01245  23115047.547                    23115054.785
      2954.984        2302.540          43.000          30.600
 125709431.887 7  97955465.15143  23921709.906                    23921711.730
     -3212.055       -2502.971          43.200          21.700
 107344642.224 8  83490489.878 6  20088136.102    20088136.063    20088140.109
     -2313.717       -1799.557          48.000          39.300
 124193834.145 5  96774304.40042  23633267.344                    23633270.973
      3186.445        2482.833          35.700          17.800
 126598747.710 6  98648401.77144  24090938.180                    24090938.230
     -2357.016       -1836.599          41.800          26.000
 104114802.099 8  80978194.006 8  19456335.367    19456334.145    19456336.352
     -1360.042       -1057.826          49.800          48.300
 124906272.596 7  97149337.073 6  23432097.758    23432097.602    23432101.563
     -4014.511       -3122.404          44.600          39.600
 18  1 21 21  7  0.0000000  0 14R16R24R18G14G25G29G31G26G12R15G21G02
                                R17R14
 106325251.287 7  82697424.356 7  19904308.484    19904307.242    19904310.594
      2256.905        1755.342          43.900          43.500
 122420759.645 6  95216153.554 4  22893292.563    22893292.980    22893293.906
     -4117.627       -3202.604          39.400          28.700
 106844436.857 8  83101239.392 7  20015563.773    20015562.730    20015565.418
      2644.739        2057.004          50.200          47.600
 125501062.206 6  97793046.20843  23882064.000                    23882066.652
     -2706.199       -2108.612          38.700          21.500
 111310284.093 8  86735363.05047  21181649.992                    21181655.230
     -1922.113       -1497.657          52.000          42.100
 105506927.096 8  82213250.72947  20077305.344                    20077308.031
      -445.512        -346.900          51.600          44.000
 109844069.517 8  85592783.56446  20902633.313                    20902634.902
       434.516         338.867          51.900          41.200
 121381811.774 7  94583255.99545  23098191.563                    23098198.629
      2950.453        2299.115          43.000          31.400
 125805850.043 6  98030596.12443  23940057.305                    23940059.410
     -3215.785       -2505.687          40.800          22.300
 107414333.423 8  83544694.133 6  20101178.477    20101177.383    20101181.438
     -2331.751       -1813.574          48.000          38.700
 124098337.491 6  96699891.49843  23615095.945                    23615098.059
      3180.184        2478.187          36.800          18.300
 126669633.586 7  98703637.51444  24104428.734                    24104427.852
     -2368.539       -1845.477          43.200          26.200
 104155950.899 8  81010198.613 8  19464024.961    19464023.738    19464025.883
     -1382.387       -1075.187          50.100          48.300
 125026804.392 7  97243083.998 6  23454710.219    23454708.656    23454712.469
     -4020.672       -3127.192          44.300          39.700
 18  1 21 21  7 30.0000000  0 14R16R24R18G14G25G29G31G26G12R15G21G02
                                R17R14
 106257801.023 7  82644963.028 7  19891682.109    19891680.633    19891683.633
      2240.315        1742.452          43.600          43.900
 122544373.941 6  95312298.025 4  22916409.023    22916409.090    22916410.418
     -4123.100       -3206.866          39.600          28.800
 106765403.633 8  83039769.112 7  20000758.070    20000757.027    20000759.719
      2624.759        2041.473          49.700          46.900
 125582374.620 6  97856406.49943  23897536.703                    23897540.086
     -2714.676       -2115.177          39.400          21.700
 111368111.163 8  86780423.10046  21192654.641                    21192659.684
     -1932.984       -1506.079          51.800          41.300
 105520529.125 8  82223849.71647  20079893.703                    20079896.273
      -461.379        -359.311          51.000          43.300
 109831311.090 8  85582841.94246  20900205.648                    20900206.871
       415.969         324.365          51.400          40.900
 121293364.648 7  94514336.14745  23081360.344                    23081367.438
      2945.918        2295.620          43.900          30.300
 125902371.474 7  98105807.58343  23958424.773                    23958426.883
     -3219.195       -2508.385          42.300          22.600
 107484565.782 8  83599319.284 6  20114321.383    20114320.406    20114324.859
     -2349.822       -1827.632          48.200          38.900
 124003019.706 5  96625617.90943  23596956.875                    23596959.578
      3174.152        2473.440          35.500          18.300
 126740859.806 7  98759138.45944  24117982.102                    24117981.613
     -2379.949       -1854.324          43.100          25.500
 104197768.997 8  81042723.802 8  19471839.414    19471838.309    19471840.602
     -1404.723       -1092.555          50.200          48.300
 125147519.361 7  97336973.391 6  23477355.047    23477354.305    23477358.758
     -4026.825       -3131.951          44.600          39.900
 18  1 21 21  8  0.0000000  0 14R16R24R18G14G25G29G31G26G12R15G21G02
                                R17R14
 106190847.742 7  82592888.232 7  19879147.844    19879146.953    19879149.742
      2223.756        1729.570          44.500          43.800
 122668149.870 6  95408568.145 4  22939557.633    22939556.293    22939558.055
     -4128.447       -3210.996          40.500          28.100
 106686968.799 8  82978764.234 7  19986063.945    19986063.020    19986065.898
      2604.834        2025.997          50.100          47.200
 125663935.237 6  97919960.17043  23913057.391                    23913060.684
     -2722.992       -2121.538          38.600          22.300
 111426260.396 8  86825734.18947  21203720.125                    21203724.305
     -1943.922       -1514.412          53.100          42.200
 105534606.687 8  82234819.25047  20082572.406                    20082575.020
      -477.332        -371.591          51.700          43.900
 109819109.429 8  85573334.15346  20897883.930                    20897885.527
       397.191         309.922          52.300          40.800
 121205050.915 7  94445520.25545  23064554.773                    23064561.977
      2941.254        2292.187          43.900          30.600
 125998995.856 7  98181099.30143  23976812.422                    23976814.641
     -3222.727       -2510.980          43.600          23.500
 107555337.694 8  83654364.099 6  20127565.695    20127564.484    20127568.930
     -2367.736       -1841.565          48.200          39.100
 123907882.638 6  96551485.08842  23578854.250                    23578856.539
      3168.117        2468.833          36.400          17.400
 126812424.175 7  98814902.91044  24131600.023                    24131599.234
     -2391.375       -1863.048          42.600          27.000
 104240253.613 8  81075767.392 8  19479778.750    19479777.996    19479780.590
     -1426.881       -1109.796          50.700          48.700
 125268415.208 7  97431003.512 6  23500035.711    23500034.148    23500037.766
     -4032.778       -3136.608          45.000          39.600
 18  1 21 21  8 30.0000000  0 14R16R24R18G14G25G29G31G26G12R15G21G02
                                R17R14
 106124394.967 7  82541202.740 7  19866707.492    19866706.367    19866709.320
      2206.992        1716.535          44.700          43.700
 122792084.217 6  95504961.521 4  22962733.836    22962733.551    22962734.211
     -4133.659       -3215.074          39.400          25.600
 106609134.419 8  82918226.384 7  19971483.266    19971482.340    19971485.211
      2584.753        2010.374          49.300          47.500
 125745741.161 6  97983705.03643  23928624.734                    23928628.680
     -2730.738       -2127.896          38.600          21.100
 111484731.181 8  86871295.83046  21214846.602                    21214851.215
     -1954.297       -1522.770          52.600          41.500
 105549158.908 8  82246158.64147  20085341.547                    20085344.043
      -492.887        -383.950          50.300          42.800
 109807465.600 8  85564261.04046  20895668.297                    20895669.480
       378.797         295.395          50.200          40.300
 121116871.803 7  94376809.27245  23047775.344                    23047781.695
      2937.020        2288.646          43.000          30.900
 126095722.277 7  98256470.48043  23995218.758                    23995220.523
     -3225.875       -2513.648          42.400          22.000
 107626648.705 8  83709828.220 6  20140910.344    20140909.367    20140913.336
     -2385.738       -1855.570          48.500          38.800
 123812928.697 5  96477495.10842  23560783.086                    23560787.320
      3162.352        2464.019          34.400          17.800
 126884324.674 7  98870929.25344  24145282.852                    24145281.641
     -2402.266       -1871.773          43.300          24.700
 104283402.083 8  81109327.316 8  19487841.453    19487840.582    19487843.215
     -1448.946       -1126.945          49.900          48.200
 125389489.822 7  97525172.602 6  23522748.359    23522747.500    23522752.746
     -4038.718       -3141.211          43.900          40.400
 18  1 21 21  9  0.0000000  0 14R16R24R18G14G25G29G31G26G12R15G21G02
                                R17R14
 106058445.738 7  82489908.886 7  19854361.898    19854361.359    19854364.102
      2190.145        1703.458          44.900          43.900
 122916173.415 6  95601475.409 4  22985938.281    22985937.176    22985938.371
     -4138.793       -3219.061          39.200          27.400
 106531902.672 8  82858157.265 7  19957015.438    19957014.043    19957016.996
      2564.641        1994.715          49.100          47.700
 125827789.774 6  98047638.94343  23944238.250                    23944242.418
     -2738.977       -2134.147          39.100          22.000
 111543523.146 8  86917107.74146  21226034.477                    21226038.859
     -1965.129       -1531.109          51.000          41.700
 105564184.922 8  82257867.22047  20088200.750                    20088204.031
      -508.832        -396.243          49.600          42.700
 109796380.419 8  85555623.23446  20893558.500                    20893559.641
       360.066         280.897          49.300          40.400
 121028828.794 7  94308204.33245  23031021.148                    23031027.996
      2932.359        2285.089          43.400          31.400
 126192550.306 6  98331920.85843  24013644.430                    24013646.594
     -3229.477       -2516.291          41.400          21.300
 107698497.643 8  83765710.723 6  20154355.438    20154355.281    20154358.949
     -2403.644       -1869.486          48.500          39.900
 123718160.793 5  96403649.95542  23542749.563                    23542753.430
      3155.797        2459.123          35.700          16.900
 126956559.320 7  98927216.00444  24159028.594                    24159027.402
     -2413.484       -1880.424          43.200          27.600
 104327212.106 8  81143401.777 8  19496028.875    19496027.535    19496030.176
     -1470.980       -1144.094          48.800          48.100
 125510741.481 7  97619479.434 6  23545495.070    23545493.859    23545498.148
     -4044.566       -3145.747          43.800          39.900
 18  1 21 21  9 30.0000000  0 14R16R24R18G14G25G29G31G26G12R15G21G02
                                R17R14
 105993002.816 7  82439008.842 7  19842111.563    19842110.438    19842113.203
      2173.232        1690.287          45.000          43.700
 123040414.239 6  95698107.083 4  23009172.109    23009172.059    23009172.715
     -4143.759       -3222.921          40.500          28.400
 106455275.224 8  82798558.148 7  19942660.836    19942659.207    19942662.242
      2544.481        1979.041          50.000          47.900
 125910077.810 6  98111759.50943  23959897.750                    23959901.605
     -2746.891       -2140.327          39.200          22.300
 111602635.369 8  86963169.21246  21237282.961                    21237287.402
     -1975.895       -1539.402          52.400          41.500
 105579683.345 8  82269943.91447  20091150.063                    20091152.871
      -524.598        -408.476          50.900          43.600
 109785854.503 8  85547421.23046  20891555.336                    20891557.105
       341.379         266.367          50.100          39.300
 120940922.826 7  94239706.17845  23014292.633                    23014300.090
      2927.816        2281.546          42.500          30.900
 126289478.526 6  98407449.32343  24032088.953                    24032091.887
     -3232.816       -2518.869          41.800          22.200
 107770882.798 8  83822010.266 6  20167901.695    20167901.539    20167905.484
     -2421.458       -1883.349          48.400          40.400
 123623580.848 6  96329951.37043  23524752.734                    23524755.480
      3149.242        2454.194          36.300          19.000
 127029126.230 7  98983761.63144  24172838.000                    24172837.461
     -2424.605       -1889.023          42.700          26.700
 104371680.780 8  81177988.518 8  19504338.648    19504338.012    19504340.680
     -1492.872       -1161.117          50.000          48.800
 125632167.721 7  97713922.071 6  23568275.117    23568274.609    23568278.215
     -4050.366       -3150.284          44.200          39.400
 18  1 21 21 10  0.0000000  0 14R16R24R18G14G25G29G31G26G12R15G21G02
                                R17R14
 105928069.139 7  82388504.864 7  19829955.055    19829954.281    19829957.184
      2156.101        1676.978          45.300          43.300
 123164803.128 6  95794853.952 3  23032434.055    23032433.535    23032433.980
     -4148.763       -3226.816          39.600          22.800
 106379253.792 8  82739430.379 7  19928418.586    19928417.660    19928420.609
      2524.110        1963.199          49.400          47.700
 125992602.114 6  98176064.12543  23975600.570                    23975605.973
     -2755.055       -2146.520          37.700          21.700
 111662067.210 8  87009479.73446  21248592.586                    21248597.137
     -1986.652       -1547.777          52.700          41.600
 105595652.697 8  82282387.57447  20094188.500                    20094191.969
      -540.410        -420.781          50.800          43.600
 109775888.382 8  85539655.40846  20889658.664                    20889660.648
       322.578         251.733          49.700          39.100
 120853155.108 7  94171315.77645  22997591.500                    22997598.590
      2923.031        2277.852          43.800          30.900
 126386506.427 7  98483055.44643  24050553.000                    24050555.324
     -3236.289       -2521.546          42.100          21.800
 107843802.415 8  83878725.532 6  20181547.633    20181546.773    20181551.313
     -2439.370       -1897.306          48.500          40.900
 123529191.216 5  96256400.96142  23506788.891                    23506793.816
      3142.598        2449.189          33.800          16.900
 127102023.196 7  99040564.45144  24186709.594                    24186709.191
     -2435.660       -1897.625          44.000          26.900
 104416805.446 8  81213085.508 8  19512771.289    19512770.418    19512772.898
     -1514.795       -1178.187          50.000          48.800
 125753766.560 7  97808498.919 6  23591085.570    23591085.063    23591089.828
     -4056.151       -3154.800          43.700          40.000
 18  1 21 21 10 30.0000000  0 13R16R24R18G14G25G29G31G26G12R15G21G02
                                R17
 105863647.635 7  82338399.252 7  19817896.094    19817894.383    19817896.766
      2139.160        1663.804          45.100          43.000
 123289336.591 6  95891713.440 4  23055721.094    23055720.105    23055721.824
     -4153.352       -3230.401          37.900          26.500
 106303840.303 8  82680775.455 7  19914291.828    19914289.965    19914293.145
      2503.994        1947.557          49.100          47.900
 126075359.209 6  98240550.10943  23991348.969                    23991353.391
     -2762.223       -2152.397          37.300          22.500
 111721817.767 8  87056038.59946  21259962.680                    21259966.824
     -1996.707       -1555.919          51.100          41.400
 105612091.944 8  82295197.37147  20097317.258                    20097320.195
      -555.594        -432.850          50.600          43.600
 109766482.472 8  85532326.12346  20887868.922                    20887870.770
       304.406         237.308          48.800          39.700
 120765526.667 7  94103033.88745  22980916.836                    22980922.953
      2918.684        2274.335          43.900          31.400
 126483633.299 6  98558738.66743  24069035.016                    24069038.406
     -3238.941       -2523.986          40.700          20.900
 107917255.346 8  83935855.548 6  20195293.656    20195293.383    20195297.535
     -2456.982       -1910.980          48.500          40.300
 123434994.158 6  96183000.67842  23488864.766                    23488868.500
      3136.840        2444.250          36.600          17.400
 127175247.664 7  99097622.47844  24200644.766                    24200643.152
     -2445.965       -1905.982          44.700          28.100
 104462583.029 8  81248690.283 8  19521325.117    19521324.598    19521327.434
     -1536.376       -1194.953          49.300          48.700
 18  1 21 21 11  0.0000000  0 13R16R24R18G14G25G29G31G26G12R15G21G02
                                R17
 105799742.032 7  82288694.895 7  19805931.805    19805930.797    19805933.504
      2121.802        1650.289          44.600          43.000
 123414012.415 6  95988683.438 4  23079038.695    23079036.883    23079037.867
     -4158.105       -3234.083          38.700          26.000
 106229037.075 8  82622595.172 8  19900278.016    19900277.090    19900280.133
      2483.535        1931.643          48.000          48.400
 126158347.309 6  98305216.09343  24007140.797                    24007144.484
     -2770.070       -2158.433          36.100          20.900
 111781887.166 8  87102845.92246  21271393.391                    21271397.941
     -2007.699       -1564.275          51.200          41.700
 105629000.786 8  82308373.09947  20100535.180                    20100538.133
      -571.500        -445.103          51.300          43.500
 109757638.409 8  85525434.63146  20886185.891                    20886188.172
       285.402         222.641          48.600          39.300
 120678039.446 7  94034862.03245  22964268.727                    22964274.910
      2913.695        2270.568          42.900          31.500
 126580858.572 6  98634498.60243  24087536.711                    24087540.039
     -3242.445       -2526.604          40.100          20.400
 107991241.342 7  83993400.218 6  20209139.125    20209138.617    20209142.910
     -2474.818       -1924.861          47.200          40.400
 123340993.026 5  96109753.01743  23470975.633                    23470980.875
      3129.813        2439.093          33.600          18.300
 127248798.357 7  99154934.71444  24214640.656                    24214638.895
     -2457.086       -1914.505          44.400          27.900
 104509011.617 7  81284801.415 8  19530002.320    19530001.684    19530004.199
     -1558.094       -1211.846          47.900          48.300
 18  1 21 21 11 30.0000000  0 13R16R24R18G14G25G29G31G26G12R15G21G02
                                R17
 105736354.755 7  82239393.690 7  19794066.258    19794064.664    19794066.906
      2104.479        1636.820          44.600          42.700
 123538826.176 6  96085760.786 3  23102377.820    23102376.598    23102378.570
     -4162.716       -3237.676          38.000          22.700
 106154845.786 8  82564890.848 7  19886379.859    19886378.348    19886381.547
      2463.094        1915.740          49.100          47.700
 126241562.651 6  98370059.17943  24022977.492                    24022979.887
     -2777.523       -2164.308          38.400          20.400
 111842274.266 8  87149900.80047  21282884.906                    21282889.672
     -2018.273       -1572.516          53.500          42.200
 105646377.454 8  82321913.36347  20103841.883                    20103844.344
      -587.039        -457.247          51.500          44.300
 109749356.072 8  85518980.85446  20884609.586                    20884611.969
       266.633         208.032          50.300          40.600
 120590694.180 7  93966800.79645  22947647.000                    22947653.516
      2909.141        2266.881          42.800          31.500
 126678181.191 6  98710334.39543  24106056.633                    24106059.727
     -3245.691       -2529.076          41.000          21.100
 108065758.447 8  84051357.950 6  20223083.930    20223083.305    20223087.785
     -2492.525       -1938.618          48.400          39.600
 123247189.262 6  96036659.23843  23453127.813                    23453130.551
      3123.281        2433.920          37.100          18.600
 127322672.973 7  99212499.36244  24228698.500                    24228696.543
     -2467.949       -1922.900          44.100          29.100
 104556088.151 8  81321416.493 8  19538799.406    19538798.301    19538800.879
     -1579.691       -1228.641          49.500          48.200
 18  1 21 21 12  0.0000000  0 13R16R24R18G14G25G29G31G26G12R15G21G02
                                R17
 105673488.636 7  82190497.800 7  19782296.898    19782296.125    19782298.281
      2087.098        1623.309          44.000          42.000
 123663774.792 6  96182943.115 4  23125742.781    23125741.203    23125743.551
     -4167.082       -3241.065          36.500          24.800
 106081267.766 8  82507663.508 8  19872595.719    19872594.676    19872598.184
      2442.710        1899.889          49.000          48.200
 126325001.989 6  98435076.84443  24038855.047                    24038857.195
     -2784.895       -2170.061          38.900          20.100
 111902978.135 8  87197202.50847  21294436.625                    21294441.137
     -2028.723       -1580.701          53.700          42.600
 105664220.293 8  82335816.86647  20107237.289                    20107240.012
      -602.477        -469.292          51.700          44.000
 109741635.908 8  85512965.13646  20883140.547                    20883143.047
       248.020         193.462          50.200          39.900
 120503491.928 7  93898851.00745  22931052.852                    22931059.230
      2904.398        2263.179          43.400          31.100
 126775600.517 6  98786245.50343  24124595.180                    24124598.586
     -3248.973       -2531.590          41.900          19.900
 108140805.231 7  84109727.670 6  20237128.313    20237127.453    20237131.762
     -2510.101       -1952.300          47.800          39.400
 123153585.594 6  95963721.32443  23435316.266                    23435317.930
      3116.781        2428.747          36.700          18.600
 127396868.967 7  99270314.41744  24242817.742                    24242816.184
     -2478.504       -1931.195          45.200          28.100
 104603809.487 8  81358533.098 8  19547717.406    19547716.652    19547719.070
     -1601.058       -1245.249          49.100          48.600
 18  1 21 21 12 30.0000000  0 13R16R24R18G14G25G29G31G26G12R15G21G02
                                R17
 105611147.013 7  82142009.871 7  19770626.648    19770625.758    19770627.996
      2069.563        1609.667          43.800          42.400
 123788855.322 6  96280227.940 4  23149134.156    23149133.637    23149134.984
     -4171.451       -3244.447          37.700          25.500
 106008305.105 8  82450914.781 8  19858926.820    19858926.832    19858929.887
      2422.146        1883.890          49.500          48.300
 126408662.530 6  98500266.82143  24054774.164                    24054776.535
     -2792.449       -2175.748          38.800          19.900
 111963998.396 8  87244750.76047  21306048.547                    21306053.281
     -2039.437       -1588.916          53.200          42.800
 105682528.606 8  82350083.09347  20110721.172                    20110723.949
      -618.094        -481.381          52.300          44.700
 109734478.979 8  85507388.30446  20881778.656                    20881781.277
       229.098         178.825          50.900          40.700
 120416434.184 7  93831013.82845  22914487.227                    22914492.469
      2899.387        2259.421          43.200          31.900
 126873115.866 6  98862231.44843  24143151.445                    24143155.047
     -3252.273       -2534.094          41.300          19.600
 108216380.428 8  84168508.369 6  20251270.742    20251270.586    20251274.770
     -2527.666       -1965.976          48.600          39.600
 123060184.288 5  95890941.06043  23417539.633                    23417543.832
      3109.793        2423.455          35.700          19.300
 127471384.620 7  99328378.55944  24256996.641                    24256996.941
     -2489.219       -1939.465          44.900          29.300
 104652173.226 8  81396149.352 8  19556755.313    19556754.207    19556756.574
     -1622.430       -1261.885          49.700          48.400
 18  1 21 21 13  0.0000000  0 13R16R24R18G14G25G29G31G26G12R15G21G02
                                R17
 105549332.610 7  82093932.014 7  19759054.992    19759053.633    19759056.508
      2052.021        1596.010          43.800          42.400
 123914064.316 6  96377612.619 3  23172550.164    23172549.176    23172549.832
     -4175.654       -3247.713          37.400          22.500
 105935959.374 8  82394645.888 8  19845374.906    19845373.863    19845377.184
      2401.594        1867.917          48.800          48.700
 126492541.414 6  98565626.95743  24070734.648                    24070738.715
     -2799.781       -2181.355          37.500          19.000
 112025334.402 8  87292545.04746  21317720.344                    21317724.934
     -2049.898       -1597.067          53.300          41.800
 105701301.140 8  82364711.04347  20114293.297                    20114296.043
      -633.590        -493.382          51.800          44.100
 109727885.848 8  85502250.80046  20880524.328                    20880526.457
       210.297         164.222          50.300          41.400
 120329522.168 7  93763290.20045  22897948.094                    22897954.070
      2894.598        2255.673          43.600          32.300
 126970726.543 6  98938291.68443  24161726.617                    24161729.535
     -3255.367       -2536.481          41.300          19.000
 108292482.092 8  84227698.540 6  20265511.758    20265511.250    20265515.703
     -2545.136       -1979.549          48.000          40.200
 122966987.816 6  95818320.49743  23399806.570                    23399809.172
      3103.031        2418.131          36.300          19.300
 127546217.692 7  99386690.06444  24271236.906                    24271237.484
     -2499.832       -1947.640          44.700          28.300
 104701176.493 8  81434263.009 8  19565913.195    19565912.207    19565914.348
     -1643.654       -1278.405          50.200          48.200
 18  1 21 21 13 30.0000000  0 13R16R24R18G14G25G29G31G26G12R15G21G02
                                R17
 105488048.727 7  82046266.760 7  19747582.727    19747581.133    19747584.414
      2034.214        1582.194          43.300          42.100
 124039398.409 5  96475094.772 3  23195985.438    23195983.859    23195988.074
     -4179.757       -3250.892          34.700          22.300
 105864232.418 8  82338858.276 7  19831937.727    19831936.801    19831940.047
      2380.922        1851.830          49.200          47.800
 126576635.533 5  98631154.78443  24086738.727                    24086741.418
     -2806.664       -2186.894          35.900          19.300
 112086985.514 8  87340584.85547  21329451.898                    21329456.816
     -2060.379       -1605.263          53.200          42.000
 105720536.900 8  82379699.94747  20117953.797                    20117956.523
      -648.926        -505.403          51.200          43.800
 109721856.823 8  85497552.84547  20879377.211                    20879379.094
       191.523         149.526          51.600          42.100
 120242757.236 7  93695681.16945  22881437.070                    22881443.332
      2889.664        2251.794          43.600          31.700
 127068431.791 7  99014425.59643  24180319.188                    24180322.469
     -3258.441       -2538.952          42.300          19.600
 108369109.669 8  84287297.750 6  20279851.758    20279851.602    20279855.863
     -2562.686       -1993.214          48.100          40.200
 122873998.423 6  95745861.21743  23382110.273                    23382114.891
      3095.988        2412.716          36.000          20.100
 127621366.356 7  99445247.47144  24285536.328                    24285538.035
     -2510.301       -1955.840          43.700          28.500
 104750816.564 8  81472871.952 8  19575189.914    19575188.809    19575190.777
     -1664.862       -1294.897          50.500          48.200
 18  1 21 21 14  0.0000000  0 13R16R24R18G14G25G29G31G26G12R15G21G02
                                R17
 105427298.125 7  81999016.310 7  19736210.266    19736208.203    19736211.340
      2016.358        1568.270          43.800          42.500
 124164854.513 5  96572671.742 4  23219445.438    23219445.035    23219448.859
     -4183.882       -3254.092          35.800          25.700
 105793126.038 8  82283553.324 8  19818616.859    19818616.520    19818619.609
      2360.176        1835.684          48.600          48.100
 126660942.020 6  98696848.11343  24102782.672                    24102784.305
     -2813.766       -2192.435          38.900          19.000
 112148950.942 8  87388869.59647  21341243.438                    21341248.621
     -2070.793       -1613.450          53.200          42.100
 105740234.376 8  82395048.62747  20121702.148                    20121704.754
      -664.430        -517.442          52.100          43.800
 109716392.439 8  85493294.87947  20878337.438                    20878339.539
       172.660         134.814          50.600          42.100
 120156140.497 7  93628187.60845  22864954.523                    22864960.695
      2884.605        2247.873          43.900          31.700
 127166230.496 7  99090632.36543  24198929.898                    24198932.801
     -3261.566       -2541.446          43.300          18.600
 108446261.552 8  84347304.745 6  20294289.695    20294289.422    20294293.961
     -2580.199       -2006.817          48.100          40.600
 122781218.493 6  95673565.16643  23364456.039                    23364459.102
      3088.973        2407.208          37.100          19.900
 127696828.198 7  99504048.90844  24299896.953                    24299897.160
     -2520.852       -1964.000          42.600          27.300
 104801090.417 8  81511973.840 7  19584584.477    19584583.254    19584585.461
     -1686.021       -1311.354          50.600          47.800
 18  1 21 21 14 30.0000000  0 13R16R24R18G14G25G29G31G26G12R15G21G02
                                R17
 105367083.411 7  81952182.614 7  19724936.742    19724936.203    19724939.129
      1998.444        1554.352          44.200          42.500
 124290429.285 6  96670340.943 4  23242934.227    23242931.359    23242931.984
     -4187.713       -3257.139          38.600          25.600
 105722641.488 8  82228732.021 7  19805412.867    19805412.645    19805415.223
      2339.436        1819.552          49.600          47.900
 126745457.338 6  98762704.16243  24118866.078                    24118867.480
     -2820.727       -2197.835          38.100          20.100
 112211229.822 8  87437398.57947  21353094.430                    21353099.453
     -2081.254       -1621.580          52.600          42.000
 105760392.156 8  82410755.98947  20125538.086                    20125541.168
      -679.598        -529.363          50.700          44.100
 109711493.179 8  85489477.26247  20877405.023                    20877407.184
       153.816         120.135          51.100          42.400
 120069672.969 7  93560810.34145  22848500.813                    22848506.137
      2879.637        2244.007          43.700          31.900
 127264122.134 7  99166911.58743  24217556.953                    24217561.352
     -3264.648       -2543.799          42.500          20.400
 108523936.245 8  84407718.366 6  20308825.891    20308825.500    20308830.008
     -2597.572       -2020.320          48.100          40.700
 122688650.202 5  95601434.04343  23346840.242                    23346843.645
      3081.891        2401.683          35.700          20.100
 127772600.992 7  99563092.64944  24314315.266                    24314315.703
     -2531.027       -1972.004          42.300          26.000
 104851995.066 8  81551566.336 8  19594096.750    19594096.230    19594098.184
     -1707.003       -1327.672          50.900          48.200
 18  1 21 21 15  0.0000000  0 13R16R24R18G14G25G29G31G26G12R15G21G02
                                R17
 105307408.001 7  81905768.404 7  19713766.109    19713764.867    19713767.637
      1980.461        1540.377          44.500          42.900
 124416119.534 6  96768100.054 3  23266436.477    23266436.426    23266436.410
     -4191.507       -3260.077          36.900          21.400
 105652780.886 8  82174395.993 7  19792326.086    19792325.160    19792327.977
      2318.621        1803.372          49.400          47.900
 126830178.795 6  98828720.85443  24134986.445                    24134989.238
     -2827.574       -2203.153          38.100          20.900
 112273821.806 8  87486171.54446  21365005.328                    21365010.922
     -2091.637       -1629.701          53.500          41.900
 105781009.424 8  82426821.39547  20129461.008                    20129463.938
      -695.016        -541.292          52.600          43.600
 109707159.921 8  85486100.68947  20876580.570                    20876582.031
       134.918         105.442          51.600          42.600
 119983356.378 7  93493550.67145  22832074.859                    22832080.746
      2874.586        2240.072          43.900          32.000
 127362105.803 6  99243262.44042  24236203.094                    24236207.527
     -3267.687       -2546.170          41.900          17.800
 108602131.896 7  84468537.184 6  20323458.391    20323457.883    20323462.535
     -2614.958       -2033.842          47.600          40.100
 122596295.975 6  95529469.74843  23329266.039                    23329269.488
      3074.695        2396.109          38.300          20.400
 127848683.121 7  99622377.44044  24328793.648                    24328793.473
     -2541.281       -1980.031          42.500          26.100
 104903528.012 8  81591647.516 7  19603727.289    19603726.184    19603728.359
     -1727.870       -1343.897          50.900          47.800
 18  1 21 21 15 30.0000000  0 13R16R24R18G14G25G29G31G26G12R15G21G02
                                R17
 105248274.395 7  81859775.623 7  19702695.664    19702695.125    19702698.016
      1962.479        1526.362          45.000          42.200
 124541922.156 5  96865915.571 4  23289959.352    23289958.129    23289962.430
     -4195.110       -3262.851          34.800          28.000
 105583545.419 8  82120546.203 7  19779356.148    19779354.988    19779358.285
      2297.818        1787.189          49.100          47.600
 126915103.471 6  98894895.89543  24151147.344                    24151150.086
     -2834.266       -2208.308          37.100          19.900
 112336726.008 8  87535187.78947  21376975.531                    21376981.148
     -2102.113       -1637.725          53.300          42.600
 105802084.566 8  82443243.58247  20133471.758                    20133474.363
      -710.191        -553.055          51.500          43.500
 109703392.839 8  85483165.29747  20875863.773                    20875865.453
       116.090          90.818          53.000          42.000
 119897191.699 7  93426409.36245  22815678.117                    22815683.832
      2869.543        2236.188          43.600          31.400
 127460180.505 7  99319684.27343  24254866.813                    24254869.801
     -3270.805       -2548.480          43.300          18.600
 108680847.122 7  84529760.126 6  20338189.352    20338189.195    20338193.910
     -2632.125       -2047.191          47.400          39.900
 122504158.240 6  95457674.12143  23311732.656                    23311735.676
      3067.434        2390.546          36.000          20.900
 127925072.040 7  99681901.27644  24343330.414                    24343329.586
     -2551.426       -1987.883          42.500          26.500
 104955686.118 8  81632214.929 7  19613474.000    19613472.895    19613475.441
     -1748.542       -1359.975          50.700          47.800
 18  1 21 21 16  0.0000000  0 13R16R24R18G14G25G29G31G26G12R15G21G02
                                R17
 105189685.921 7  81814206.815 7  19691728.695    19691727.102    19691729.746
      1944.143        1512.111          45.100          43.000
 124667834.173 6  96963847.083 3  23313506.609    23313506.090    23313508.934
     -4198.810       -3265.702          36.600          22.300
 105514936.990 8  82067184.109 8  19766502.586    19766501.426    19766504.660
      2276.871        1770.890          48.900          48.000
 127000228.253 6  98961226.81743  24167348.461                    24167349.180
     -2840.727       -2213.486          38.600          19.600
 112399941.826 8  87584446.85247  21389005.570                    21389010.793
     -2112.402       -1645.860          53.200          42.600
 105823616.924 8  82460022.04747  20137569.422                    20137571.750
      -725.391        -564.985          52.200          43.700
 109700192.588 8  85480671.59547  20875254.953                    20875256.289
        97.273          76.021          52.200          42.300
 119811180.366 7  93359387.55445  22799310.359                    22799316.203
      2864.414        2232.133          43.600          31.900
 127558345.912 7  99396176.78743  24273547.094                    24273550.031
     -3273.750       -2550.862          44.600          18.600
 108760080.657 7  84591386.193 6  20353017.133    20353016.859    20353021.414
     -2649.457       -2060.684          47.300          38.900
 122412239.615 6  95386049.22443  23294241.484                    23294244.281
      3060.270        2384.759          38.200          20.400
 128001765.965 7  99741662.79444  24357924.391                    24357924.836
     -2561.535       -1995.837          43.600          25.600
 105008466.674 8  81673266.466 7  19623337.055    19623336.301    19623338.789
     -1769.337       -1376.158          50.200          47.900
 18  1 21 21 16 30.0000000  0 13R16R24R18G14G25G29G31G26G12R15G21G02
                                R17
 105131645.142 7  81769063.982 7  19680863.555    19680862.313    19680864.711
      1925.719        1497.790          45.000          42.800
 124793851.825 6                  23337075.508    23337074.871
     -4202.343                          38.600
 105446956.958 8  82014310.765 8  19753767.938    19753767.129    19753770.059
      2255.749        1754.465          49.800          48.200
 127085549.809 6  99027711.13643  24183584.500                    24183585.977
     -2847.336       -2218.710          38.900          20.600
 112463468.331 8  87633948.00247  21401093.961                    21401099.992
     -2122.645       -1654.001          53.000          42.500
 105845604.632 8  82477155.33047  20141753.438                    20141756.145
      -740.520        -576.900          52.800          43.500
 109697559.272 8  85478619.64847  20874753.383                    20874755.039
        78.313          61.198          52.800          42.800
 119725323.452 7  93292486.04245  22782971.711                    22782978.023
      2859.184        2228.014          43.900          31.700
 127656601.337 6  99472739.46443  24292243.602                    24292247.574
     -3276.664       -2553.297          41.600          18.300
 108839831.494 8  84653414.613 6  20367940.219    20367940.414    20367945.539
     -2666.763       -2074.149          48.100          39.200
 122320541.966 6  95314596.52243  23276791.789                    23276794.762
      3052.941        2378.889          37.600          21.500
 128078762.422 7  99801660.03944  24372576.867                    24372576.680
     -2571.496       -2003.782          44.500          26.800
 105061866.405 8  81714799.591 7  19633316.633    19633315.762    19633318.289
     -1790.041       -1392.274          50.100          47.300
 18  1 21 21 17  0.0000000  0 13R16R24R18G14G25G29G31G26G12R15G21G02
                                R17
 105074155.019 7  81724349.449 7  19670100.633    19670099.859    19670102.258
      1907.444        1483.567          44.300          42.800
 124919972.287 6  97159957.451 4  23360660.430    23360660.496    23360660.480
     -4205.627       -3271.057          39.400          25.900
 105379606.611 8  81961927.170 7  19741151.016    19741150.090    19741152.680
      2234.844        1738.204          49.000          47.900
 127171065.170 6  99094346.45143  24199857.805                    24199859.160
     -2853.781       -2223.576          39.900          20.900
 112527304.805 8  87683690.69047  21413241.633                    21413247.352
     -2133.078       -1661.961          52.500          42.700
 105868046.287 8  82494642.33647  20146024.336                    20146026.434
      -755.633        -588.587          52.300          43.500
 109695493.142 8  85477009.66847  20874360.281                    20874362.309
        59.363          46.546          52.600          42.100
 119639622.039 7  93225705.73645  22766663.844                    22766669.738
      2854.086        2224.067          42.100          31.500
 127754945.584 7  99549371.31743  24310958.914                    24310961.781
     -3279.645       -2555.492          44.100          19.300
 108920096.818 7  84715843.177 6  20382961.219    20382961.297    20382965.766
     -2683.832       -2087.415          47.800          39.100
 122229067.692 6  95243317.91943  23259385.422                    23259388.207
      3045.496        2373.133          38.600          21.500
 128156059.376 7  99861891.43844  24387286.195                    24387286.164
     -2581.629       -2011.458          44.700          26.800
 105115882.554 8  81756812.140 8  19643410.500    19643409.512    19643412.445
     -1810.441       -1408.127          50.000          48.300
 18  1 21 21 17 30.0000000  0 13R16R24R18G14G25G29G31G26G12R15G21G02
                                R17
 105017218.921 7  81680065.819 7  19659442.141    19659440.898    19659443.699
      1888.922        1469.148          44.300          43.900
 125046192.898 6  97258129.052 3  23384261.961    23384262.145    23384264.156
     -4208.934       -3273.638          37.600          23.000
 105312888.064 8  81910034.984 7  19728652.977    19728651.348    19728654.406
      2213.746        1721.801          49.500          47.900
 127256771.471 6  99161130.57243  24216167.289                    24216168.844
     -2859.945       -2228.537          39.600          21.100
 112591451.128 8  87733674.81247  21425448.391                    21425454.016
     -2143.141       -1670.045          53.400          43.000
 105890941.317 8  82512482.61247  20150380.383                    20150383.219
      -770.574        -600.389          52.200          43.700
 109693995.249 8  85475842.46846  20874075.484                    20874076.996
        40.609          31.750          53.200          41.700
 119554078.180 7  93159048.17345  22750385.109                    22750391.426
      2848.941        2219.928          42.800          32.100
 127853377.965 7  99626071.87243  24329690.727                    24329693.371
     -3282.387       -2557.794          44.500          19.000
 109000877.144 7  84778672.308 6  20398078.844    20398078.102    20398082.598
     -2700.968       -2100.733          47.400          38.300
 122137819.734 6  95172215.60443  23242021.078                    23242024.152
      3038.246        2367.197          40.000          21.800
 128233654.955 7  99922355.53244  24402052.039                    24402053.168
     -2591.383       -2019.234          44.500          27.400
 105170512.678 8  81799302.231 8  19653619.617    19653618.160    19653621.168
     -1830.889       -1424.027          49.100          48.500
 18  1 21 21 18  0.0000000  0 13R16R24R18G14G25G29G31G26G12R15G21G02
                                R17
 104960839.145 7  81636214.869 7  19648887.398    19648886.039    19648888.953
      1870.308        1454.686          44.100          43.500
 125172509.775 6  97356375.544 4  23407884.258    23407882.797    23407886.262
     -4212.099       -3276.080          37.900          27.800
 105246802.558 8  81858635.157 7  19716272.297    19716271.840    19716274.598
      2192.657        1705.403          49.300          47.100
 127342665.716 6  99228061.14543  24232511.820                    24232513.668
     -2866.305       -2233.369          37.900          20.400
 112655906.055 8  87783899.41447  21437713.789                    21437719.246
     -2153.824       -1678.031          52.400          42.000
 105914287.820 8  82530674.70047  20154823.367                    20154825.852
      -785.840        -612.077          51.300          44.300
 109693065.573 8  85475118.03747  20873898.516                    20873900.188
        21.359          16.991          52.400          42.400
 119468692.571 7  93092513.93545  22734136.672                    22734143.008
      2843.516        2215.819          43.200          31.900
 127951897.588 7  99702840.37642  24348437.742                    24348440.348
     -3285.613       -2560.080          44.000          17.400
 109082168.960 7  84841899.288 6  20413291.422    20413291.031    20413295.145
     -2717.957       -2113.957          47.500          38.200
 122046799.700 6  95101290.92743  23224701.359                    23224703.551
      3030.145        2361.287          39.400          23.000
 128311546.878 7  99983050.53644  24416874.797                    24416873.609
     -2601.422       -2026.876          44.700          25.900
 105225753.053 8  81842266.980 8  19663942.398    19663941.762    19663944.785
     -1851.150       -1439.801          49.100          48.300
 18  1 21 21 18 30.0000000  0 13R16R24R18G14G25G29G31G26G12R15G21G02
                                R17
 104905018.781 7  81592799.024 7  19638437.898    19638436.656    19638439.395
      1851.659        1440.178          43.700          43.700
 125298919.932 6  97454694.531 4  23431524.938    23431524.887    23431525.633
     -4215.087       -3278.435          39.000          25.500
 105181351.426 8  81807728.731 8  19704011.688    19704010.527    19704013.223
      2171.490        1688.927          49.200          48.000
 127428744.711 5  99295135.60242  24248889.930                    24248893.586
     -2872.047       -2238.101          35.300          17.800
 112720668.820 8  87834363.89147  21450037.578                    21450043.008
     -2163.723       -1685.987          49.800          42.100
 105938084.667 8  82549217.69747  20159351.852                    20159355.012
      -800.641        -623.750          51.200          43.300
 109692704.230 8  85474836.46647  20873829.672                    20873831.582
         2.676           2.256          50.500          42.000
 119383466.504 7  93026104.02245  22717919.273                    22717924.648
      2838.324        2211.649          44.300          32.200
 128050504.353 6  99779676.79543  24367200.500                    24367205.246
     -3288.258       -2562.280          40.900          19.000
 109163971.492 8  84905523.476 6  20428599.688    20428599.063    20428603.180
     -2734.966       -2127.193          48.000          37.600
 121956010.161 6  95030545.82243  23207424.266                    23207426.484
      3022.543        2355.244          39.900          21.800
 128389732.763 7 100043974.58944  24431752.586                    24431751.121
     -2610.957       -2034.454          43.600          25.500
 105281600.867 8  81885704.167 8  19674378.813    19674377.707    19674380.926
     -1871.333       -1455.465          49.000          48.500
 18  1 21 21 19  0.0000000  0 13R16R24R18G14G25G29G31G26G12R15G21G02
                                R17
 104849760.700 7  81549820.490 7  19628094.008    19628092.180    19628095.242
      1832.847        1425.559          43.900          43.400
 125425420.855 6  97553084.093 3  23455182.875    23455181.414    23455181.102
     -4218.099       -3280.771          39.900          22.500
 105116536.156 8  81757316.860 7  19691869.383    19691868.457    19691870.957
      2150.210        1672.392          48.800          47.500
 127515005.687 5  99362351.88943  24265305.180                    24265308.211
     -2878.738       -2242.850          35.100          18.300
 112785739.020 8  87885067.92446  21462420.078                    21462425.539
     -2174.254       -1694.004          49.700          40.600
 105962330.701 8  82568110.70847  20163965.742                    20163968.207
      -815.750        -635.404          50.000          43.400
 109692912.094 8  85474998.43346  20873869.242                    20873870.930
       -16.512         -12.550          49.700          41.000
 119298401.507 7  92959819.60545  22701731.516                    22701737.234
      2832.727        2207.441          44.500          31.900
 128149197.099 7  99856580.23942  24385982.195                    24385984.742
     -3291.250       -2564.563          42.200          16.900
 109246282.771 7  84969543.360 6  20444003.250    20444002.156    20444006.559
     -2751.911       -2140.381          47.400          37.600
 121865453.599 6  94959982.27843  23190191.680                    23190194.688
      3014.551        2349.146          39.600          22.200
 128468210.834 7 100105126.32644  24446685.961                    24446684.430
     -2620.914       -2042.065          43.800          25.500
 105338053.308 8  81929611.630 8  19684928.477    19684927.137    19684930.043
     -1891.461       -1471.129          48.900          48.200
 18  1 21 21 19 30.0000000  0 14R16R24R18G14G25G29G31R09G26G12R15G21
                                G02R17
 104795067.829 7  81507281.605 7  19617854.992    19617853.984    19617857.047
      1813.909        1410.811          44.300          43.900
 125552009.292 6  97651541.716 4  23478854.281    23478853.059    23478854.164
     -4221.062       -3283.039          37.700          27.200
 105052358.237 8  81707400.717 7  19679846.367    19679846.027    19679848.840
      2128.905        1655.821          49.500          47.400
 127601445.458 5  99429707.52543  24281753.086                    24281757.926
     -2884.457       -2247.483          35.100          18.600
 112851115.847 8  87936010.89046  21474860.688                    21474865.844
     -2184.578       -1701.984          51.400          40.500
 105987024.300 8  82587352.47347  20168664.289                    20168667.578
      -830.969        -647.058          51.800          43.900
 109693689.298 8  85475604.03846  20874017.117                    20874018.945
       -35.676         -27.376          51.800          41.400
 126067274.742 6  98052323.482 5  23608346.281    23608345.637    23608345.785
      4125.281        3208.577          37.200          34.200
 119213498.862 7  92893661.71245  22685575.258                    22685580.641
      2827.031        2203.152          43.700          32.600
 128247975.203 7  99933550.21543  24404778.992                    24404782.211
     -3294.297       -2566.789          42.100          18.300
 109329101.840 7  85033958.198 6  20459501.172    20459501.484    20459505.410
     -2768.849       -2153.563          47.600          37.600
 121775131.408 6  94889601.34643  23173004.008                    23173006.703
      3006.512        2343.027          40.900          22.300
 128546978.641 7 100166503.84144  24461675.633                    24461672.969
     -2630.781       -2049.594          43.600          25.200
 105395107.435 8  81973987.052 8  19695590.563    19695589.574    19695592.387
     -1911.541       -1486.739          49.400          48.600
 18  1 21 21 20  0.0000000  0 14R16R24R18G14G25G29G31R09G26G12R15G21
                                G02R17
 104740942.923 7  81465184.458 7  19607722.961    19607721.484    19607724.324
      1795.027        1396.122          44.400          43.400
 125678682.018 6  97750064.991 3  23502540.492    23502538.797    23502542.578
     -4223.748       -3285.115          36.500          22.500
 104988819.048 8  81657981.362 7  19667943.836    19667943.379    19667945.953
      2107.720        1639.335          49.200          47.600
 127688060.866 5  99497199.98643  24298235.844                    24298239.789
     -2890.137       -2251.945          35.200          19.000
 112916798.647 8  87987192.27546  21487360.289                    21487364.676
     -2194.477       -1709.842          51.600          40.500
 106012164.313 8  82606942.09147  20173448.977                    20173451.438
      -845.379        -658.545          51.800          43.500
 109695035.870 8  85476653.30446  20874273.203                    20874275.223
       -54.363         -42.097          50.500          40.900
 125943535.575 6  97956081.828 6  23585178.078    23585177.316    23585176.023
      4124.014        3207.571          41.800          37.700
 119128759.961 7  92827631.39145  22669449.695                    22669454.953
      2821.832        2198.979          44.200          33.100
 128346837.718 6 100010585.89643  24423591.695                    24423595.219
     -3296.727       -2568.899          41.800          18.600
 109412426.796 7  85098766.479 6  20475094.367    20475094.211    20475098.617
     -2785.592       -2166.563          47.000          37.800
 121685046.892 6  94819405.64644  23155861.891                    23155864.055
      2998.996        2336.895          39.900          24.300
 128626034.217 7 100228105.57944  24476720.227                    24476717.477
     -2639.906       -2056.957          45.300          25.200
 105452760.075 8  82018828.023 8  19706363.969    19706363.332    19706365.863
     -1931.354       -1502.167          50.300          49.200
 18  1 21 21 20 30.0000000  0 14R16R24R18G14G25G29G31R09G26G12R15G21
                                G02R17
 104687388.980 7  81423531.382 7  19597697.547    19597696.070    19597698.965
      1775.879        1381.236          44.300          43.300
 125805436.267 6  97848651.711 4  23526244.703    23526243.949    23526246.000
     -4226.409       -3287.252          37.700          25.500
 104925920.231 8  81609060.079 7  19656160.859    19656158.879    19656162.457
      2086.272        1622.641          49.600          47.900
 127774849.302 5  99564827.31743  24314750.258                    24314755.309
     -2896.160       -2256.440          34.200          18.600
 112982787.011 8  88038611.77846  21499917.336                    21499922.004
     -2204.801       -1717.834          51.800          40.800
 106037750.038 8  82626879.02247  20178317.430                    20178320.156
      -860.387        -670.173          52.100          43.600
 109696952.589 8  85478146.84646  20874637.859                    20874639.926
       -73.531         -56.966          49.700          40.600
 125819837.111 6  97859872.101 6  23562013.258    23562011.441    23562013.297
      4122.551        3206.409          40.600          39.600
 119044186.345 7  92761729.88145  22653355.859                    22653361.570
      2816.250        2194.617          43.900          33.100
 128445784.112 6 100087686.93542  24442420.914                    24442422.941
     -3299.742       -2571.097          41.100          17.400
 109496256.181 7  85163967.107 6  20490781.469    20490781.195    20490785.867
     -2802.484       -2179.696          46.500          37.200
 121595202.499 6  94749397.01543  23138765.156                    23138766.926
      2990.789        2330.611          40.200          22.600
 128705375.776 7 100289930.15244  24491818.500                    24491816.371
     -2649.543       -2064.392          45.300          24.700
 105511008.773 8  82064132.560 8  19717249.773    19717248.785    19717251.160
     -1951.226       -1517.617          50.900          48.600
 18  1 21 21 21  0.0000000  0 14R16R24R18G14G25G29G31R09G26G12R15G21
                                G02R17
 104634408.719 7  81382324.524 7  19587780.086    19587778.375    19587781.195
      1756.750        1366.338          44.700          43.400
 125932268.656 6  97947298.999 4  23549964.711    23549964.895    23549966.059
     -4229.007       -3289.238          38.100          27.200
 104863662.569 8  81560637.456 7  19644497.711    19644496.316    19644499.324
      2064.919        1606.056          48.900          47.900
 127861807.179 6  99632586.61043  24331300.461                    24331303.176
     -2901.680       -2260.737          36.700          18.300
 113049079.697 8  88090268.40446  21512532.461                    21512536.973
     -2215.023       -1725.720          52.700          40.600
 106063779.437 8  82647161.67047  20183270.359                    20183272.910
      -875.195        -681.671          51.600          44.100
 109699439.299 8  85480084.52746  20875110.898                    20875113.191
       -92.574         -71.758          49.900          40.600
 125696181.954 6  97763695.811 6  23538853.453    23538853.043    23538855.996
      4121.108        3205.306          39.200          36.800
 118959778.921 7  92695957.86845  22637294.711                    22637299.844
      2810.738        2190.293          44.200          33.900
 128544813.399 7 100164852.64443  24461265.680                    24461267.934
     -3302.480       -2573.214          43.700          20.400
 109580588.113 7  85229558.605 6  20506563.031    20506563.227    20506567.605
     -2819.125       -2192.657          45.900          38.100
 121505600.304 6  94679577.12343  23121714.531                    23121715.926
      2982.551        2324.278          39.600          22.200
 128785000.684 7 100351975.55744  24506969.508                    24506969.648
     -2658.953       -2071.718          43.800          26.200
 105569849.707 8  82109897.734 8  19728245.391    19728244.402    19728246.883
     -1970.900       -1532.911          51.000          48.000
 18  1 21 21 21 30.0000000  0 14R16R24R18G14G25G29G31R09G26G12R15G21
                                G02R17
 104582004.911 7  81341565.987 7  19577968.695    19577967.688    19577970.836
      1737.370        1351.292          44.400          43.300
 126059176.229 6  98046004.848 3  23573694.180    23573695.535    23573697.910
     -4231.512       -3291.166          36.700          22.500
 104802047.845 8  81512714.909 7  19632954.953    19632953.559    19632956.516
      2043.403        1589.313          49.300          47.700
 127948931.623 6  99700475.79343  24347879.180                    24347881.633
     -2907.180       -2265.058          39.200          19.300
 113115676.212 8  88142161.79546  21525205.336                    21525209.578
     -2225.227       -1733.644          51.700          40.400
 106090251.595 8  82667789.31847  20188308.211                    20188310.930
      -890.062        -693.172          52.200          43.200
 109702496.814 8  85482466.99246  20875693.094                    20875695.410
      -111.762         -86.619          49.300          40.500
 125572572.704 6  97667555.302 6  23515706.258    23515704.793    23515707.023
      4119.509        3204.014          39.600          37.300
 118875539.276 7  92630316.58045  22621263.773                    22621269.434
      2804.914        2185.878          44.600          34.500
 128643924.787 6 100242082.24543  24480126.047                    24480128.371
     -3305.418       -2575.377          41.600          20.900
 109665420.606 7  85295539.413 6  20522438.953    20522438.328    20522443.184
     -2835.894       -2205.691          45.800          38.500
 121416242.226 6  94609947.46243  23104709.633                    23104712.129
      2974.082        2317.851          40.200          22.300
 128864907.206 7 100414240.37144  24522174.742                    24522175.270
     -2668.504       -2079.042          42.900          25.100
 105629280.220 8  82156121.489 8  19739351.313    19739350.793    19739353.008
     -1990.554       -1548.222          50.900          48.300
 18  1 21 21 22  0.0000000  0 15R16R24R18G14G25G29G31R09G26G12R15G21
                                G02R19R17
 104530179.735 7  81301257.515 7  19568267.305    19568265.711    19568268.539
      1718.112        1336.293          44.100          42.800
 126186155.527 5  98144766.644 3  23597439.367    23597439.434    23597443.035
     -4233.811       -3292.993          35.200          23.800
 104741076.638 8  81465292.885 7  19621533.219    19621532.410    19621534.898
      2021.927        1572.608          48.800          47.900
 128036218.939 6  99768491.87443  24364489.875                    24364491.605
     -2912.437       -2269.234          39.900          19.000
 113182575.263 8  88194290.91946  21537935.773                    21537940.148
     -2235.301       -1741.459          51.100          41.200
 106117164.044 8  82688760.06247  20193429.625                    20193432.086
      -904.672        -704.572          51.900          43.600
 109706124.118 8  85485293.44946  20876382.781                    20876385.207
      -130.730        -101.408          48.400          40.200
 125449011.446 6  97571452.078 6  23492567.781    23492566.668    23492567.613
      4117.873        3202.795          40.900          37.300
 118791468.129 7  92564806.59345  22605265.352                    22605271.484
      2799.277        2181.514          44.300          34.300
 128743117.409 7 100319375.16543  24499001.977                    24499004.234
     -3308.016       -2577.473          42.300          20.400
 109750752.911 7  85361908.956 6  20538407.188    20538406.797    20538411.609
     -2852.461       -2218.567          45.900          38.600
 121327130.442 6  94540509.71043  23087752.164                    23087754.238
      2965.992        2311.458          39.800          22.200
 128945092.402 7 100476722.30644  24537433.859                    24537434.438
     -2677.703       -2086.242          42.200          24.700
 126113990.416 6  98088663.834 6  23575682.016    23575680.762    23575682.484
      4282.721        3331.005          39.000          36.500
 105689296.506 8  82202800.819 8  19750566.961    19750565.973    19750568.031
     -2009.987       -1563.340          51.000          48.000
 18  1 21 21 22 30.0000000  0 15R16R24R18G14G25G29G31R09G26G12R15G21
                                G02R19R17
 104478937.069 7  81261402.117 7  19558674.430    19558673.539    19558676.242
      1698.678        1321.178          44.300          42.600
 126313204.439 6  98243582.381 4  23621200.492    23621200.441    23621201.598
     -4236.030       -3294.708          36.600          27.200
 104680750.915 8  81418372.893 7  19610232.289    19610231.480    19610233.883
      2000.471        1555.906          49.100          47.600
 128123667.195 6  99836633.37142  24381130.414                    24381132.219
     -2917.344       -2273.327          36.800          17.800
 113249776.811 8  88246655.75146  21550724.164                    21550728.973
     -2244.934       -1749.287          52.300          40.900
 106144516.604 8  82710073.75347  20198634.492                    20198636.922
      -918.957        -715.974          53.100          44.000
 109710322.241 8  85488564.69946  20877181.820                    20877184.023
      -149.344        -116.201          48.900          39.800
 125325501.615 6  97475388.848 6  23469435.852    23469435.910    23469437.105
      4116.148        3201.430          37.900          37.000
 118707567.543 7  92499429.52245  22589299.594                    22589305.336
      2793.902        2177.081          43.800          34.700
 128842390.593 7 100396730.88343  24517892.070                    24517895.238
     -3310.273       -2579.523          42.200          22.200
 109836581.760 7  85428664.716 6  20554469.320    20554468.695    20554473.688
     -2868.971       -2231.438          46.100          38.900
 121238267.449 6  94471265.83143  23070842.977                    23070844.313
      2958.008        2304.984          39.400          22.200
 129025554.885 7 100539420.33744  24552745.695                    24552746.367
     -2686.395       -2093.362          43.300          26.200
 125985593.560 6  97988799.616 6  23551681.195    23551680.059    23551681.727
      4277.209        3326.712          40.300          36.800
 105749896.232 8  82249933.939 7  19761891.445    19761891.043    19761893.035
     -2029.320       -1578.367          50.900          47.400
 18  1 21 21 23  0.0000000  0 15R16R24R18G14G25G29G31R09G26G12R15G21
                                G02R19R17
 104428278.989 7  81222001.374 7  19549190.977    19549190.438    19549192.813
      1679.180        1306.035          44.900          43.200
 126440319.699 6  98342457.690 3  23644974.516    23644972.234    23644974.137
     -4238.181       -3296.331          36.800          21.900
 104621071.551 8  81371955.618 7  19599052.672    19599051.395    19599054.070
      1978.896        1539.141          49.700          47.600
 128211273.81215                  24397798.117
     -2922.820                          32.800
 113317279.917 8  88299255.56046  21563569.492                    21563574.414
     -2255.137       -1757.098          51.300          41.000
 106172307.514 8  82731729.00747  20203923.102                    20203925.547
      -933.660        -727.318          51.900          43.500
 109715091.423 8  85492280.93046  20878089.680                    20878091.895
      -168.508        -131.024          49.100          40.200
 125202045.618 6  97379367.420 6  23446318.938    23446318.176    23446319.223
      4114.332        3200.030          40.200          39.200
 118623838.613 7  92434186.21345  22573367.242                    22573372.504
      2788.184        2172.633          44.300          34.300
 128941743.659 7 100474148.80043  24536799.547                    24536802.453
     -3313.078       -2581.579          42.400          22.300
 109922906.612 7  85495806.230 6  20570623.883    20570622.906    20570628.293
     -2885.428       -2244.227          46.100          39.100
 121149655.845 6  94402217.83743  23053979.266                    23053982.465
      2949.527        2298.454          38.500          22.200
 129106292.196 7 100602332.54244  24568110.266                    24568110.449
     -2695.754       -2100.466          45.000          27.000
 125857363.879 6  97889065.466 5  23527710.125    23527708.754    23527709.047
      4271.621        3322.356          40.200          34.100
 105811076.225 8  82297518.369 7  19773324.484    19773323.145    19773325.367
     -2048.634       -1593.390          50.600          47.400
 18  1 21 21 23 30.0000000  0 15R16R24R18G14G25G29G31R09G26G12R15G21
                                G02R19R17
 104378208.466 7  81183057.633 7  19539818.500    19539816.906    19539819.551
      1659.509        1290.736          44.600          43.200
 126567498.016 5                  23668751.391    23668750.285
     -4240.335                          33.200
 104562039.851 8  81326042.080 7  19587993.508    19587992.113    19587994.938
      1957.282        1522.321          49.300          47.600
 128299033.637 5  99973282.37542  24414499.523                    24414504.262
     -2927.637       -2281.367          34.800          16.900
 113385083.731 8  88352089.68346  21576472.148                    21576476.254
     -2265.176       -1764.924          51.200          40.700
 106200535.305 8  82753724.69147  20209294.461                    20209296.895
      -948.184        -738.703          52.500          43.600
 109720431.453 8  85496441.99046  20879105.773                    20879107.750
      -187.559        -145.920          49.800          39.800
 125078646.034 6  97283390.081 6  23423209.219    23423208.574    23423213.277
      4112.357        3198.486          40.000          41.200
 118540282.668 7  92369077.68845  22557466.945                    22557472.469
      2782.301        2168.069          44.500          34.200
 129041175.638 7 100551628.22443  24555720.766                    24555723.680
     -3315.746       -2583.672          42.100          22.500
 110009725.646 7  85563332.125 6  20586870.695    20586870.188    20586875.027
     -2901.944       -2257.073          46.700          38.300
 121061297.410 6  94333367.14043  23037166.602                    23037168.262
      2941.035        2291.788          38.500          21.800
 129187302.150 7 100665457.20644  24583526.117                    24583525.648
     -2704.891       -2107.596          44.600          26.200
 125729304.164 6  97789463.400 5  23503768.039    23503766.668    23503768.629
      4265.842        3317.891          37.200          34.800
 105872833.195 8  82345551.550 7  19784865.625    19784864.402    19784866.625
     -2067.865       -1608.325          50.600          47.600
 18  1 21 21 24  0.0000000  0 14R16R18G14G25G29G31R09G26G12R15G21G02
                                R19R17
 104328728.052 7  81144572.863 7  19530554.633    19530554.332    19530556.824
      1639.662        1275.304          44.500          43.600
 104503656.892 8  81280633.126 7  19577056.445    19577055.637    19577058.203
      1935.500        1505.387          49.100          47.800
 128386945.245 6 100041784.86142  24431230.516                    24431233.520
     -2933.129       -2285.400          38.600          16.300
 113453187.571 8  88405157.61146  21589431.977                    21589436.555
     -2275.289       -1772.784          51.600          40.400
 106229198.701 8  82776059.81047  20214748.711                    20214751.445
      -962.867        -750.051          51.200          43.700
 109726342.669 8  85501048.13446  20880231.047                    20880232.602
      -206.727        -160.799          50.000          40.100
 124955305.742 6  97187458.717 6  23400111.789    23400110.910    23400114.910
      4110.254        3196.868          39.500          40.800
 118456901.085 7  92304105.02545  22541599.680                    22541605.363
      2776.293        2163.457          43.900          34.900
 129140686.141 7 100629168.88944  24574657.547                    24574659.496
     -3318.422       -2585.754          43.700          24.300
 110097036.558 7  85631240.609 6  20603209.672    20603209.750    20603214.910
     -2918.368       -2269.870          46.400          38.700
 120973194.613 6  94264715.64843  23020400.563                    23020403.297
      2932.191        2285.058          37.400          22.000
 129268582.596 7 100728792.61844  24598992.617                    24598991.273
     -2714.066       -2114.660          42.400          25.800
 125601416.868 6  97689995.423 6  23479863.086    23479861.477    23479863.551
      4259.958        3313.282          37.200          37.000
 105935163.982 8  82394031.073 7  19796513.250    19796512.613    19796514.547
     -2086.996       -1623.226          50.000          47.000
 18  1 21 21 24 30.0000000  0 14R16R18G14G25G29G31R09G26G12R15G21G02
                                R19R17
 104279839.998 7  81106548.830 7  19521403.820    19521402.227    19521404.539
      1620.035        1260.027          45.200          43.500
 104445923.501 8  81235729.402 8  19566240.680    19566239.520    19566242.488
      1913.983        1488.636          49.300          48.600
 128475004.846 6 100110402.78442  24447987.281                    24447989.961
     -2937.574       -2289.076          38.700          16.900
 113521590.353 8  88458458.47346  21602447.992                    21602452.840
     -2285.117       -1780.428          50.600          40.300
 106258295.917 8  82798732.95947  20220285.766                    20220288.270
      -977.121        -761.197          51.200          43.400
 109732824.638 8  85506099.01646  20881464.508                    20881465.688
      -225.621        -175.528          50.800          40.100
 124832026.858 6  97091575.137 6  23377027.602    23377026.254    23377026.844
      4108.289        3195.380          41.400          38.700
 118373694.881 7  92239269.02145  22525766.133                    22525771.664
      2770.453        2158.984          44.700          34.400
 129240274.213 7 100706769.95344  24593608.180                    24593610.996
     -3320.988       -2587.669          42.800          24.200
 110184837.724 7  85699530.377 6  20619641.211    20619640.234    20619644.539
     -2934.575       -2282.463          47.500          38.100
 120885349.017 6  94196264.51643  23003683.609                    23003685.754
      2923.887        2278.480          37.100          20.600
 129350131.116 6 100792336.89644  24614509.922                    24614508.871
     -2722.691       -2121.479          41.300          24.800
 125473704.040 6  97590663.289 6  23455987.383    23455986.480    23455989.012
      4254.230        3308.845          39.200          36.900
 105998065.208 8  82442954.246 7  19808267.469    19808266.480    19808268.477
     -2105.845       -1637.883          49.900          47.300
 18  1 21 21 25  0.0000000  0 14R16R18G14G25G29G31R09G26G12R15G21G02
                                R19R17
 104231548.107 7  81068988.480 7  19512362.797    19512361.672    19512364.281
      1600.103        1244.505          44.900          44.100
 104388841.596 8  81191332.374 7  19555547.914    19555546.285    19555549.477
      1892.204        1471.714          48.800          47.800
 128563210.047 6 100179134.07442  24464770.719                    24464775.305
     -2942.527       -2292.802          36.500          16.300
 113590292.071 8  88511992.27046  21615521.742                    21615526.461
     -2295.012       -1788.216          50.900          40.400
 106287826.609 8  82821743.88847  20225905.438                    20225908.207
      -991.508        -772.464          52.100          43.700
 109739878.263 8  85511595.35446  20882806.766                    20882807.953
      -244.621        -190.387          52.200          40.900
 124708813.115 6  96995742.123 6  23353951.500    23353950.973    23353954.172
      4106.034        3193.600          39.800          41.200
 118290666.206 7  92174571.35545  22509966.195                    22509971.566
      2764.758        2154.347          44.500          35.400
 129339938.998 6 100784430.76543  24612572.773                    24612575.719
     -3323.348       -2589.662          41.100          22.600
 110273127.705 7  85768200.349 6  20636162.711    20636162.906    20636167.012
     -2950.901       -2295.135          47.300          38.500
 120797763.906 6  94128016.43143  22987016.906                    22987019.684
      2915.238        2271.627          36.100          20.100
 129431946.229 7 100856088.90644  24630079.633                    24630076.633
     -2731.422       -2128.374          43.400          24.900
 125346169.246 6  97491469.574 5  23432144.734    23432143.008    23432145.801
      4248.231        3304.200          36.200          35.200
 106061534.517 8  82492319.267 7  19820128.156    19820127.754    19820129.938
     -2124.779       -1652.617          50.200          47.300
 18  1 21 21 25 30.0000000  0 14R16R18G14G25G29G31R09G26G12R15G21G02
                                R19R17
 104183854.751 7  81031893.625 7  19503434.578    19503433.453    19503436.152
      1580.121        1228.978          44.300          43.200
 104332411.910 8  81147442.648 8  19544976.367    19544975.207    19544978.469
      1870.472        1454.784          48.900          48.700
 128651557.646 5 100247976.28042  24481581.852                    24481587.461
     -2947.121       -2296.520          33.000          15.600
 113659291.509 8  88565758.05546  21628651.578                    21628656.781
     -2304.902       -1795.915          51.500          40.500
 106317788.471 8  82845090.80147  20231607.273                    20231609.191
     -1005.957        -783.629          50.900          43.100
 109747503.128 8  85517536.80446  20884258.086                    20884258.906
      -263.648        -205.217          51.500          40.700
 124585666.644 6  96899961.575 7  23330892.031    23330891.270    23330895.031
      4103.778        3191.813          41.800          42.400
 118207815.991 7  92110012.74645  22494200.078                    22494205.980
      2758.609        2149.697          44.100          34.600
 129439680.009 7 100862151.03944  24631553.172                    24631556.074
     -3325.840       -2591.599          42.200          24.400
 110361904.706 7  85837249.121 6  20652776.961    20652776.102    20652780.219
     -2967.039       -2307.697          47.600          38.300
 120710441.170 6  94059972.75243  22970399.406                    22970402.980
      2906.152        2264.786          36.100          20.100
 129514024.934 7 100920046.33843  24645699.180                    24645695.000
     -2740.363       -2135.236          43.600          22.900
 125218814.508 6  97392415.792 6  23408336.734    23408335.949    23408339.895
      4242.230        3299.511          36.600          37.200
 106125568.176 8  82542123.216 7  19832094.828    19832093.957    19832096.230
     -2143.488       -1667.156          50.000          46.800
 18  1 21 21 26  0.0000000  0 14R16R18G14G25G29G31R09G26G12R15G21G02
                                R19R17
 104136762.259 7  80995266.123 7  19494619.305    19494617.477    19494620.184
      1559.985        1213.323          44.300          43.900
 104276635.238 8  81104060.788 8  19534527.688    19534526.879    19534529.887
      1848.663        1437.847          48.700          48.300
 128740044.527 5 100316927.03642  24498421.797                    24498425.465
     -2951.824       -2300.065          35.200          16.900
 113728587.971 8  88619755.27246  21641838.609                    21641843.797
     -2314.863       -1803.675          50.300          40.700
 106348180.171 8  82868772.64147  20237390.359                    20237393.219
     -1020.336        -794.841          51.800          43.600
 109755699.609 8  85523923.66746  20885817.570                    20885818.906
      -282.859        -220.116          52.100          41.100
 124462590.263 6  96804235.597 7  23307842.609    23307841.145    23307846.145
      4101.359        3189.911          41.100          42.200
 118125145.549 7  92045594.24245  22478468.695                    22478474.359
      2752.664        2144.972          44.300          34.800
 129539495.681 7 100939929.42843  24650547.906                    24650550.129
     -3328.469       -2593.601          43.400          22.900
 110451166.433 7  85906674.893 6  20669481.188    20669479.859    20669484.031
     -2983.253       -2320.303          47.500          37.900
 120623383.171 6  93992135.39943  22953832.375                    22953836.813
      2897.418        2257.891          36.500          20.100
 129596365.618 7 100984207.91843  24661368.203                    24661364.102
     -2749.129       -2142.024          43.100          23.000
 125091642.576 6  97293504.342 6  23384563.133    23384562.699    23384568.605
      4236.011        3294.667          38.700          38.500
 106190163.058 8  82592363.676 7  19844165.594    19844164.723    19844166.863
     -2162.236       -1681.731          50.500          47.700
 18  1 21 21 26 30.0000000  0 14R16R18G14G25G29G31R09G26G12R15G21G02
                                R19R17
 104090273.062 7  80959107.859 7  19485916.250    19485914.539    19485917.355
      1539.842        1197.665          44.100          43.900
 104221512.564 8  81061187.620 8  19524200.531    19524200.191    19524203.336
      1826.845        1420.874          48.800          48.100
 128828667.129 6 100385983.58243  24515288.367                    24515289.879
     -2956.105       -2303.633          38.200          18.600
 113798180.352 8  88673983.07646  21655081.242                    21655086.848
     -2324.535       -1811.347          50.100          41.200
 106379000.149 8  82892788.20647  20243255.461                    20243257.746
     -1034.285        -805.923          51.600          43.800
 109764467.083 8  85530755.46146  20887486.102                    20887487.891
      -301.605        -234.938          51.900          41.300
 124339586.620 7  96708566.025 6  23284809.477    23284807.660    23284808.883
      4098.861        3188.011          42.200          40.100
 118042656.074 7  91981316.71745  22462771.813                    22462776.602
      2746.828        2140.266          44.700          34.700
 129639386.074 7 101017766.07543  24669555.469                    24669559.070
     -3330.730       -2595.524          43.200          23.500
 110540911.502 7  85976476.616 6  20686275.563    20686274.703    20686278.922
     -2999.307       -2332.806          47.100          37.300
 120536591.519 5  93924505.55643  22937316.633                    22937320.633
      2888.863        2250.929          35.400          19.600
 129678965.755 6 101048571.64543  24677084.023                    24677082.441
     -2757.539       -2148.735          40.800          22.200
 124964655.545 6  97194736.657 6  23360823.922    23360822.785    23360829.492
      4229.814        3289.858          37.900          38.700
 106255315.823 8  82643038.071 7  19856340.898    19856340.145    19856342.422
     -2180.777       -1696.167          50.200          47.500
 18  1 21 21 27  0.0000000  0 13R16R18G14G25G29G31R09G26R15G21G02R19
                                R17
 104044390.510 7  80923421.432 7  19477326.383    19477325.141    19477327.887
      1519.594        1181.900          44.600          43.600
 104167045.062 8  81018824.028 8  19513997.047    19513996.355    19513999.320
      1804.961        1403.856          48.700          48.400
 128917422.847 6 100455143.89643  24532178.406                    24532180.734
     -2960.922       -2307.041          39.000          20.400
 113868068.350 8  88728441.23446  21668380.359                    21668385.965
     -2334.699       -1819.012          51.000          40.500
 106410247.558 8  82917136.84647  20249201.328                    20249204.027
     -1048.805        -817.001          51.900          43.500
 109773806.189 8  85538032.68047  20889263.148                    20889265.090
      -320.980        -249.779          53.000          42.000
 124216658.615 7  96612955.340 6  23261788.359    23261788.066    23261789.477
      4096.314        3186.016          42.100          41.500
 117960349.356 7  91917181.60845  22447108.813                    22447114.395
      2740.324        2135.505          45.000          35.300
 110631137.971 7  86046652.741 6  20703160.594    20703159.500    20703163.891
     -3015.305       -2345.248          47.000          37.700
 120450068.680 5  93857085.18143  22920850.914                    22920856.125
      2879.477        2243.916          34.600          18.600
 129761823.592 7 101113136.11843  24692852.992                    24692851.055
     -2766.430       -2155.418          42.000          22.000
 124837856.190 6  97096114.907 6  23337121.102    23337120.199    23337124.090
      4223.568        3284.993          39.200          38.300
 106321023.667 8  82694144.154 7  19868619.945    19868618.840    19868621.594
     -2199.204       -1710.482          50.300          47.300
 18  1 21 21 27 30.0000000  0 13R16R18G14G25G29G31R09G26R15G21G02R19
                                R17
 103999116.748 7  80888208.510 7  19468851.406    19468850.750    19468853.133
      1499.313        1166.128          45.000          43.500
 104113234.077 7  80976971.053 8  19503916.414    19503915.957    19503918.855
      1783.183        1386.916          47.900          48.000
 129006308.701 6 100524405.61343  24549092.727                    24549094.277
     -2965.062       -2310.314          38.900          20.100
 113938251.001 8  88783128.99446  21681736.063                    21681741.055
     -2344.352       -1826.568          50.100          40.300
 106441920.551 8  82941817.10347  20255228.797                    20255231.203
     -1062.937        -827.976          51.200          43.200
 109783716.352 8  85545754.88246  20891148.773                    20891151.316
      -339.906        -264.554          52.400          41.900
 124093809.138 6  96517405.713 7  23238781.680    23238779.980    23238785.402
      4093.734        3184.010          40.600          42.100
 117878226.570 7  91853189.83946  22431481.727                    22431486.797
      2734.363        2130.776          44.700          36.000
 110721843.460 7  86117201.462 6  20720133.766    20720133.727    20720137.871
     -3031.201       -2357.606          46.700          37.000
 120363816.982 5  93789876.06943  22904438.422                    22904443.125
      2870.363        2236.889          35.900          19.600
 129844936.958 7 101177899.79044  24708670.023                    24708667.602
     -2774.793       -2161.943          44.200          24.200
 124711247.078 6  96997641.189 6  23313453.227    23313452.090    23313456.945
      4217.232        3280.087          40.500          40.500
 106387282.993 8  82745679.195 7  19881002.094    19881001.223    19881003.660
     -2217.445       -1724.685          50.600          47.600
 18  1 21 21 28  0.0000000  0 13R16R18G14G25G29G31R09G26R15G21G02R19
                                R17
 103954454.467 7  80853471.166 7  19460490.789    19460489.547    19460491.941
      1478.866        1150.243          44.300          44.100
 104060080.087 8  80935629.067 8  19493959.453    19493958.293    19493961.227
      1761.253        1369.874          48.500          48.200
 129095321.674 6 100593766.38243  24566030.797                    24566033.027
     -2969.141       -2313.582          38.600          18.600
 114008727.572 8  88838045.79246  21695147.078                    21695153.188
     -2354.109       -1834.224          51.200          40.700
 106474017.738 8  82966827.89847  20261336.586                    20261339.066
     -1076.875        -838.985          51.000          43.100
 109794197.967 8  85553922.37047  20893143.516                    20893145.578
      -358.937        -279.393          52.700          42.400
 123971040.845 7  96421919.339 6  23215792.844    23215791.730    23215793.398
      4090.963        3181.864          42.600          41.900
 117796289.179 7  91789342.52845  22415889.656                    22415894.766
      2728.156        2125.930          45.100          35.500
 110813026.812 7  86188121.824 6  20737198.234    20737197.141    20737201.023
     -3047.075       -2369.933          47.200          36.700
 120277838.828 6  93722880.12843  22888078.711                    22888080.992
      2861.406        2229.760          36.100          19.000
 129928303.101 7 101242860.45743  24724533.227                    24724531.969
     -2783.047       -2168.523          43.300          22.600
 124584830.699 6  96899317.368 6  23289820.492    23289819.238    23289825.457
      4210.793        3275.049          39.700          40.400
 106454090.840 8  82797640.863 7  19893486.672    19893486.035    19893488.145
     -2235.687       -1738.866          50.500          47.600
 18  1 21 21 28 30.0000000  0 13R16R18G14G25G29G31R09G26R15G21G02R19
                                R17
 103910406.295 7  80819211.474 7  19452244.422    19452243.766    19452246.398
      1458.285        1134.244          44.500          44.000
 104007584.085 8  80894798.866 7  19484124.602    19484124.027    19484126.867
      1739.241        1352.742          48.000          47.100
 129184458.650 6 100663223.71143  24582992.430                    24582994.785
     -2973.273       -2316.749          38.600          18.300
 114079497.292 8  88893191.00946  21708614.539                    21708619.539
     -2364.066       -1841.863          51.100          40.900
 106506537.762 8  82992168.18147  20267524.719                    20267527.027
     -1091.262        -849.990          51.300          43.300
 109805250.838 8  85562534.98747  20895246.453                    20895248.547
      -378.168        -294.287          52.200          42.500
 123848356.599 6  96326498.262 6  23192816.086    23192815.207    23192817.090
      4088.097        3179.608          41.200          39.900
 117714538.617 8  91725640.77946  22400333.352                    22400337.934
      2721.699        2121.041          48.100          37.400
 110904685.394 7  86259411.833 6  20754350.266    20754349.641    20754353.723
     -3062.932       -2382.288          46.400          36.700
 120192136.234 6  93656098.87143  22871769.102                    22871772.313
      2851.941        2222.567          36.300          18.600
 130011920.292 6 101308016.71443  24740442.727                    24740443.863
     -2791.613       -2175.021          39.200          21.800
 124458609.621 6  96801145.432 6  23266225.813    23266225.145    23266227.426
      4204.198        3269.914          40.600          39.400
 106521443.996 8  82850026.644 8  19906073.492    19906072.855    19906075.254
     -2253.884       -1753.010          51.200          48.500
 18  1 21 21 29  0.0000000  0 13R16R18G14G25G29G31R09G26R15G21G02R19
                                R17
 103866974.916 7  80785431.536 7  19444114.039    19444112.914    19444115.684
      1437.782        1118.276          44.500          44.000
 103955747.279 8  80854481.356 7  19474413.906    19474413.098    19474416.035
      1717.319        1335.707          48.600          47.500
 129273716.825 6 100732775.45543  24599977.672                    24599980.004
     -2977.227       -2319.817          37.200          18.300
 114150559.350 8  88948564.02946  21722136.945                    21722142.520
     -2373.555       -1849.388          51.400          41.300
 106539479.127 8  83017836.78047  20273793.359                    20273796.105
     -1104.984        -860.867          51.300          43.200
 109816874.821 8  85571592.62547  20897458.930                    20897461.090
      -396.863        -309.060          53.000          42.100
 123725759.384 6  96231144.789 6  23169857.727    23169857.316    23169860.254
      4085.183        3177.381          41.800          41.700
 117632976.236 8  91662085.67346  22384812.266                    22384817.234
      2715.684        2116.161          48.400          37.000
 110996817.478 7  86331070.123 6  20771591.234    20771591.664    20771595.000
     -3078.653       -2394.496          47.000          36.000
 120106711.375 5  93589534.02743  22855512.977                    22855516.777
      2842.922        2215.391          34.700          18.600
 130095786.241 6 101373366.69743  24756403.617                    24756403.742
     -2799.555       -2181.408          41.800          22.300
 124332586.479 6  96703127.383 6  23242667.703    23242666.449    23242669.984
      4197.614        3264.818          40.500          41.300
 106589339.124 8  82902833.973 8  19918761.219    19918760.230    19918762.465
     -2271.833       -1766.990          51.500          48.700
 18  1 21 21 29 30.0000000  0 12R16R18G25G29G31R09G26R15G21G02R19R17
 103824162.785 7  80752133.210 7  19436099.602    19436099.180    19436101.492
      1417.137        1102.219          44.400          43.700
 103904570.266 8  80814677.043 8  19464827.086    19464826.043    19464828.824
      1695.295        1318.556          48.800          48.000
 114221913.030 8  89004164.28346  21735715.234                    21735720.570
     -2383.070       -1856.946          50.800          40.900
 106572840.214 8  83043832.42947  20280141.844                    20280144.090
     -1118.844        -871.743          50.500          43.100
 109829069.862 8  85581095.24147  20899779.242                    20899781.809
      -415.859        -323.877          51.600          42.100
 123603251.925 6  96135861.288 7  23146916.180    23146914.715    23146919.406
      4082.158        3175.004          41.600          43.100
 117551603.496 7  91598678.34746  22369327.211                    22369332.531
      2709.438        2111.236          46.700          37.500
 111089421.738 7  86403095.665 5  20788920.625    20788920.938    20788924.789
     -3094.317       -2406.700          45.900          35.900
 120021566.500 6  93523187.41743  22839310.664                    22839313.938
      2833.715        2208.079          36.900          18.600
 130179898.766 7 101438908.98644  24772410.234                    24772409.059
     -2807.555       -2187.774          43.600          24.000
 124206763.727 6  96605265.317 6  23219145.906    23219144.418    23219148.715
      4190.820        3259.543          39.700          41.100
 106657773.056 8  82956060.367 7  19931549.945    19931548.723    19931551.387
     -2289.726       -1780.893          51.000          47.700
 18  1 21 21 30  0.0000000  0 12R16R18G25G29G31R09G26R15G21G02R19R17
 103781973.116 7  80719319.001 7  19428202.016    19428200.773    19428203.398
      1396.290        1086.018          44.000          43.900
 103854054.452 8  80775386.959 7  19455364.008    19455362.145    19455365.406
      1673.223        1301.409          48.700          47.800
 114293558.046 8  89059991.55746  21749348.789                    21749354.133
     -2392.926       -1864.550          51.000          41.600
 106606620.442 8  83070154.68847  20286569.867                    20286572.703
     -1132.965        -882.640          51.200          43.100
 109841836.236 8  85591043.05947  20902208.789                    20902211.016
      -435.027        -338.760          52.300          42.400
 123480837.725 6  96040650.205 6  23123990.281    23123989.754    23123993.293
      4078.948        3172.536          40.300          41.000
 117470422.293 8  91535420.27346  22353879.609                    22353884.352
      2702.859        2106.197          48.000          36.900
 111182496.051 7  86475486.796 6  20806338.875    20806338.836    20806342.711
     -3110.038       -2418.913          46.300          37.100
 119936704.206 6  93457060.96043  22823162.047                    22823165.398
      2823.961        2200.655          36.400          18.600
 130264256.127 6 101504642.01443  24788461.898                    24788462.234
     -2815.965       -2194.147          41.300          22.800
 124081144.297 6  96507561.324 6  23195662.164    23195661.027    23195663.691
      4183.990        3254.233          39.700          39.100
 106726743.142 8  83009703.762 7  19944438.305    19944437.434    19944440.035
     -2307.586       -1794.791          51.000          47.900
 18  1 21 21 30 30.0000000  0 12R16R18G25G29G31R09G26R15G21G02R19R17
 103740407.610 7  80686990.269 7  19420421.156    19420419.445    19420422.449
      1375.455        1069.804          44.500          44.000
 103804199.849 7  80736611.183 7  19446024.234    19446022.488    19446025.586
      1651.177        1284.243          47.800          47.700
 114365492.814 8  89116044.60646  21763037.438                    21763043.285
     -2402.531       -1872.059          50.000          41.100
 106640817.423 8  83096801.68847  20293077.633                    20293079.691
     -1146.758        -893.447          51.300          42.700
 109855173.102 8  85601435.41747  20904746.375                    20904748.273
      -453.969        -353.570          51.900          42.500
 123358518.716 7  95945513.220 6  23101086.008    23101085.246    23101085.789
      4075.756        3170.025          42.900          40.200
 117389433.302 8  91472311.97246  22338468.266                    22338472.980
      2696.504        2101.185          48.600          37.200
 111276038.448 7  86548241.969 6  20823844.305    20823842.508    20823847.102
     -3125.561       -2430.987          46.400          36.800
 119852125.698 5  93391155.67443  22807066.781                    22807069.988
      2814.527        2193.244          35.500          18.300
 130348855.479 6 101570563.56043  24804560.000                    24804561.137
     -2823.996       -2200.433          39.900          22.300
 123955729.925 6  96410016.769 6  23172217.258    23172217.293    23172219.488
      4177.092        3248.891          40.600          40.700
 106796245.121 8  83063760.870 7  19957426.828    19957425.723    19957428.328
     -2325.237       -1808.526          50.700          47.800
 18  1 21 21 31  0.0000000  0 12R16R18G25G29G31R09G26R15G21G02R19R17
 103699468.916 7  80655149.065 7  19412756.578    19412755.219    19412758.195
      1354.461        1053.461          44.300          43.900
 103755007.348 8  80698350.353 7  19436808.047    19436807.707    19436811.008
      1629.040        1267.040          48.900          47.600
 114437716.801 8  89172323.01746  21776781.398                    21776786.898
     -2412.359       -1879.609          50.400          41.400
 106675430.116 8  83123772.61147  20299663.617                    20299666.383
     -1160.770        -904.272          51.300          43.500
 109869080.574 8  85612272.39547  20907392.859                    20907395.383
      -473.211        -368.432          51.600          42.400
 123236298.197 7  95850452.801 6  23078197.945    23078196.949    23078199.445
      4072.339        3167.372          42.300          41.800
 117308638.266 8  91409354.78146  22323092.180                    22323097.590
      2689.723        2096.085          48.500          37.200
 111370045.966 7  86621358.924 6  20841436.203    20841435.813    20841440.383
     -3141.114       -2443.092          46.700          37.400
 119767833.751 5  93325473.61443  22791026.609                    22791030.543
      2804.676        2185.751          34.800          19.900
 130433695.113 7 101636672.34143  24820706.117                    24820705.031
     -2831.980       -2206.635          42.400          22.600
 123830523.761 6  96312634.316 6  23148811.289    23148809.328    23148814.090
      4170.101        3243.403          40.000          41.100
 106866276.238 8  83118229.508 8  19970512.664    19970512.496    19970515.102
     -2342.893       -1822.243          50.500          48.200
 18  1 21 21 31 30.0000000  0 12R16R18G25G29G31R09G26R15G21G02R19R17
 103659159.477 7  80623797.288 7  19405210.539    19405209.766    19405212.367
      1333.501        1037.163          43.800          43.600
 103706477.847 8  80660605.209 8  19427717.375    19427716.449    19427719.262
      1606.965        1249.851          48.900          48.000
 114510229.068 8  89228826.05446  21790580.016                    21790585.289
     -2421.687       -1887.033          50.800          41.500
 106710456.534 8  83151065.92547  20306329.398                    20306331.965
     -1174.238        -914.970          51.600          43.400
 109883558.639 8  85623553.99547  20910147.906                    20910150.031
      -491.887        -383.193          51.100          42.000
 123114178.876 7  95755471.125 6  23055329.102    23055327.871    23055331.109
      4068.984        3164.766          42.300          41.100
 117228038.329 7  91346549.64946  22307754.289                    22307759.828
      2683.645        2091.044          47.500          36.900
 111464517.463 7  86694836.720 6  20859115.914    20859115.172    20859119.535
     -3156.541       -2455.081          46.100          38.000
 119683830.124 6  93260016.28243  22775041.656                    22775044.590
      2795.430        2178.283          36.400          19.000
 130518772.366 7 101702966.36844  24836895.758                    24836894.219
     -2839.691       -2212.768          43.500          25.500
 123705527.654 6  96215415.152 6  23125444.141    23125442.887    23125445.504
      4163.146        3237.970          38.600          39.200
 106936832.930 8  83173106.950 7  19983699.047    19983697.824    19983700.590
     -2360.306       -1835.800          49.600          47.800
 18  1 21 21 32  0.0000000  0 12R16R18G25G29G31R09G26R15G21G02R19R17
 103619481.424 7  80592936.575 7  19397783.102    19397781.625    19397784.355
      1312.400        1020.764          43.600          43.300
 103658611.665 8  80623375.969 7  19418750.586    19418749.309    19418752.285
      1584.848        1232.661          48.800          47.200
 114583028.608 8  89285552.95546  21804433.539                    21804439.035
     -2431.477       -1894.503          50.800          41.800
 106745895.185 8  83178680.45847  20313072.766                    20313075.594
     -1188.234        -925.661          50.900          43.400
 109898606.166 8  85635279.32847  20913011.703                    20913013.934
      -511.180        -398.002          51.500          42.300
 122992163.391 7  95660570.197 6  23032481.016    23032479.434    23032479.160
      4065.450        3162.038          43.700          39.500
 117147634.835 8  91283897.59246  22292454.898                    22292459.473
      2676.762        2085.913          48.000          36.900
 111559450.851 7  86768673.790 6  20876881.766    20876880.789    20876885.406
     -3171.868       -2466.998          46.400          38.900
 119600116.658 6  93194785.00343  22759112.273                    22759114.727
      2785.500        2170.674          37.300          19.000
 130604085.167 6 101769443.86343  24853128.828                    24853129.777
     -2847.840       -2218.867          40.200          22.800
 123580744.237 6  96118361.339 6  23102117.938    23102117.152    23102119.586
      4155.965        3232.418          40.100          40.800
 107007911.790 8  83228390.509 8  19996981.938    19996980.246    19996983.285
     -2377.683       -1849.292          49.200          48.100
 18  1 21 21 32 30.0000000  0 12R16R18G25G29G31R09G26R15G21G02R19R17
 103580438.231 7  80562569.636 7  19390474.266    19390473.023    19390475.273
      1291.183        1004.273          44.200          44.000
 103611410.387 8  80586663.866 7  19409908.336    19409907.293    19409909.918
      1562.688        1215.426          48.700          47.700
 114656115.260 8  89342503.57546  21818341.570                    21818346.523
     -2441.027       -1901.936          51.200          41.600
 106781745.169 8  83206615.50947  20319895.242                    20319897.781
     -1201.844        -936.320          51.000          43.200
 109914223.820 8  85647448.91947  20915983.969                    20915985.469
      -530.160        -412.818          52.500          42.400
 122870255.392 7  95565752.836 6  23009649.375    23009649.082    23009651.004
      4061.878        3159.219          42.300          41.200
 117067429.869 8  91221400.21746  22277192.438                    22277196.688
      2670.133        2080.737          48.800          36.400
 111654843.849 7  86842868.307 6  20894733.375    20894732.516    20894736.656
     -3187.139       -2478.877          47.000          38.500
 119516696.465 6  93129782.28743  22743237.703                    22743239.945
      2775.828        2163.060          36.900          19.900
 130689631.784 6 101836103.48943  24869408.813                    24869408.277
     -2855.363       -2224.888          40.900          22.000
 123456176.606 6  96021475.499 6  23078831.250    23078830.816    23078834.289
      4148.775        3226.804          40.900          41.100
 107079510.289 8  83284078.233 7  20010360.961    20010359.504    20010362.895
     -2394.958       -1862.749          49.400          47.800
 18  1 21 21 33  0.0000000  0 12R16R18G25G29G31R09G26R15G21G02R19R17
 103542031.555 7  80532697.791 7  19383284.008    19383283.000    19383285.820
      1269.916         987.713          44.700          43.400
 103564873.960 8  80550468.882 8  19401190.008    19401189.316    19401192.105
      1540.448        1198.123          49.300          48.000
 114729487.718 8  89399676.90546  21832303.641                    21832308.797
     -2450.523       -1909.385          49.900          40.900
 106818004.431 8  83234869.48347  20326795.000                    20326797.805
     -1215.457        -946.951          51.400          43.100
 109930410.814 8  85660062.15746  20919063.820                    20919065.895
      -549.148        -427.637          51.700          41.700
 122748457.352 7  95471021.053 7  22986840.648    22986839.418    22986843.512
      4058.105        3156.314          42.300          42.400
 116987424.316 8  91159058.23046  22261967.820                    22261971.887
      2663.418        2075.500          48.000          36.700
 111750694.386 7  86917418.694 6  20912670.133    20912669.508    20912673.605
     -3202.413       -2490.759          47.500          37.800
 119433571.107 6  93065009.28243  22727419.594                    22727422.160
      2766.063        2155.366          36.200          19.600
 130775409.763 7 101902943.55943  24885732.086                    24885730.867
     -2863.113       -2230.911          43.000          23.000
 123331826.331 6  95924758.624 6  23055583.672    23055582.301    23055585.254
      4141.500        3221.127          38.600          38.500
 107151624.509 8  83340167.080 7  20023836.953    20023836.316    20023839.406
     -2412.118       -1876.084          49.400          47.900
 18  1 21 21 33 30.0000000  0 12R16R18G25G29G31R09G26R15G21G02R19R17
 103504263.618 7  80503322.709 7  19376214.336    19376212.977    19376215.199
      1248.571         971.120          44.400          43.400
 103519002.976 8  80514791.460 7  19392597.461    19392596.184    19392599.023
      1518.271        1180.886          48.900          47.700
 114803145.083 8  89457072.24646  21846320.508                    21846325.637
     -2459.758       -1916.780          50.500          40.800
 106854671.519 8  83263441.23247  20333772.750                    20333774.922
     -1228.809        -957.526          52.300          43.200
 109947167.019 8  85673118.92746  20922252.398                    20922254.496
      -567.832        -442.407          50.000          41.900
 122626772.151 7  95376377.047 6  22964053.734    22964052.855    22964054.805
      4054.270        3153.317          43.400          41.200
 116907619.539 7  91096872.70346  22246781.203                    22246785.496
      2657.008        2070.292          47.900          36.700
 111847000.689 7  86992323.585 6  20930692.078    20930692.273    20930696.332
     -3217.534       -2502.519          47.000          36.900
 119350742.490 6  93000467.52743  22711657.023                    22711659.910
      2756.164        2147.633          36.400          18.300
 130861416.534 6 101969961.83043  24902097.883                    24902097.816
     -2870.473       -2236.796          40.300          21.800
 123207696.320 6  95828213.023 6  23032379.570    23032379.137    23032382.523
      4134.094        3215.404          39.700          40.900
 107224251.053 8  83396654.394 7  20037409.719    20037408.027    20037411.340
     -2429.153       -1889.348          49.300          47.900
 18  1 21 21 34  0.0000000  0 12R16R18G25G29G31R09G26R15G21G02R19R17
 103467137.283 7  80474446.663 7  19369262.859    19369262.086    19369264.648
      1227.153         954.470          43.600          43.500
 103473798.346 8  80479632.309 7  19384129.148    19384127.871    19384130.094
      1496.049        1163.597          48.900          47.800
 114877086.832 8  89514689.19046  21860391.164                    21860396.273
     -2469.473       -1924.157          51.300          40.400
 106891745.149 8  83292329.78147  20340827.492                    20340829.770
     -1242.562        -968.065          50.800          43.400
 109964492.282 8  85686619.10646  20925548.984                    20925551.461
      -587.008        -457.177          50.900          41.800
 122505203.017 7  95281823.224 6  22941287.820    22941285.766    22941286.699
      4050.354        3150.303          42.600          41.000
 116828017.301 7  91034844.99146  22231633.539                    22231637.254
      2649.973        2065.006          47.700          36.100
 111943760.695 7  87067581.352 6  20948799.141    20948798.516    20948802.910
     -3232.608       -2514.266          46.200          36.600
 119268213.115 6  92936158.91043  22695953.242                    22695955.324
      2745.977        2139.849          38.900          19.600
 130947650.217 6 102037156.84843  24918506.406                    24918507.152
     -2878.312       -2242.683          39.600          20.400
 123083789.027 6  95731840.733 6  23009216.930    23009216.379    23009219.633
      4126.585        3209.571          40.800          41.200
 107297386.927 8  83453537.833 7  20051076.688    20051075.230    20051078.906
     -2446.060       -1902.489          49.900          47.800
 18  1 21 21 34 30.0000000  0 12R16R18G25G29G31R09G26R15G21G02R19R17
 103430654.962 7  80446071.522 7  19362433.789    19362433.133    19362436.238
      1205.667         937.751          44.300          43.400
 103429260.925 8  80444992.106 7  19375785.594    19375784.668    19375787.234
      1473.796        1146.282          49.500          47.700
 114951312.252 8  89572527.17846  21874515.508                    21874520.777
     -2478.852       -1931.476          50.800          39.700
 106929223.785 8  83321533.91847  20347959.461                    20347962.164
     -1255.965        -978.533          51.400          43.000
 109982386.193 8  85700562.40546  20928954.555                    20928956.473
      -605.824        -471.907          52.300          41.700
 122383753.059 7  95187362.160 7  22918542.844    22918540.906    22918544.355
      4046.402        3147.188          42.000          42.300
 116748619.200 8  90972976.35746  22216524.664                    22216528.883
      2643.285        2059.718          48.400          36.000
 112040971.987 7  87143190.124 5  20966990.648    20966990.023    20966994.207
     -3247.611       -2525.939          45.600          35.800
 119185985.143 6  92872085.17843  22680304.266                    22680307.305
      2736.008        2132.017          38.200          19.300
 131034108.501 7 102104526.94643  24934960.367                    24934959.488
     -2885.680       -2248.479          42.100          21.500
 122960107.113 6  95635643.731 6  22986094.711    22986094.746    22986096.566
      4119.072        3203.736          40.600          39.800
 107371028.965 8  83510814.980 8  20064838.281    20064836.355    20064839.516
     -2462.853       -1915.546          49.600          48.000
 18  1 21 21 35  0.0000000  0 12R16R18G25G29G31R09G26R15G21G02R19R17
 103394818.977 7  80418199.080 7  19355725.117    19355723.641    19355726.383
      1184.173         921.019          43.900          43.800
 103385391.064 8  80410871.103 7  19367566.773    19367566.082    19367568.566
      1451.627        1129.045          49.300          47.600
 115025820.426 8  89630585.49246  21888693.563                    21888699.395
     -2488.469       -1938.786          51.100          40.200
 106967106.091 8  83351052.59847  20355168.219                    20355170.691
     -1269.582        -988.963          52.100          43.200
 110000848.560 8  85714948.65746  20932467.820                    20932469.508
      -625.016        -486.622          52.100          41.600
 122262425.219 7  95092996.044 6  22895822.758    22895821.879    22895825.145
      4042.310        3144.041          43.100          41.900
 116669426.588 8  90911267.82846  22201454.109                    22201458.676
      2636.227        2054.395          48.400          36.300
 112138633.044 7  87219148.682 5  20985266.727    20985266.570    20985270.164
     -3262.529       -2537.521          45.800          35.500
 119104060.216 6  92808247.60543  22664715.211                    22664717.438
      2725.488        2124.159          37.900          20.100
 131120789.526 6 102172070.63843  24951454.859                    24951454.137
     -2893.227       -2254.204          41.100          22.000
 122836652.822 6  95539623.726 6  22963017.156    22963016.371    22963020.563
      4111.511        3197.827          40.800          41.500
 107445173.757 8  83568483.142 8  20078693.055    20078692.301    20078695.980
     -2479.497       -1928.491          49.700          48.000
 18  1 21 21 35 30.0000000  0 12R16R18G25G29G31R09G26R15G21G02R19R17
 103359631.693 7  80390831.206 7  19349138.570    19349137.211    19349140.016
      1162.338         904.029          44.100          43.900
 103342188.979 8  80377269.504 7  19359473.938    19359473.480    19359475.707
      1429.206        1111.608          49.600          47.700
 115100610.400 8  89688863.38746  21902925.773                    21902931.617
     -2497.883       -1946.189          51.400          39.500
 107005390.619 8  83380884.69847  20362453.539                    20362455.969
     -1283.098        -999.490          51.900          43.100
 110019878.826 8  85729777.42646  20936089.000                    20936090.914
      -644.082        -501.476          51.400          41.500
 122141222.305 7  94998727.119 6  22873124.820    22873123.355    22873126.402
      4037.970        3140.646          43.300          41.600
 116590440.794 7  90849720.47046  22186423.805                    22186428.582
      2629.223        2048.907          47.600          37.000
 112236741.493 7  87295455.223 5  21003627.258    21003625.930    21003630.352
     -3277.538       -2549.198          45.100          35.500
 119022440.904 6  92744648.13043  22649182.281                    22649185.957
      2715.281        2116.042          36.700          21.100
 131207690.922 6 102239785.99843  24967990.602                    24967991.188
     -2900.652       -2260.000          38.700          20.400
 122713428.961 6  95443782.970 6  22939981.797    22939980.777    22939983.867
      4103.664        3191.728          41.700          40.500
 107519817.970 8  83626539.754 7  20092642.617    20092642.098    20092645.184
     -2496.252       -1941.533          49.800          47.600
 18  1 21 21 36  0.0000000  0 13R16G05R18G25G29G31R09G26R15G21G02R19
                                R17
 103325095.266 7  80363969.551 7  19342673.023    19342672.367    19342674.930
      1140.730         887.230          43.600          44.100
 129044756.796 6 100554403.48644  24556408.711                    24556411.773
      1577.418        1229.288          41.500          24.400
 103299655.486 8  80344187.902 8  19351506.078    19351505.387    19351507.945
      1407.068        1094.380          49.000          48.000
 115175681.498 8  89747360.33146  21917211.352                    21917216.797
     -2506.930       -1953.390          50.800          39.300
 107044075.389 8  83411028.67747  20369814.594                    20369817.438
     -1295.926       -1009.760          51.700          43.000
 110039476.662 8  85745048.45346  20939818.750                    20939820.035
      -662.547        -516.120          51.300          41.100
 122020147.503 7  94904557.808 6  22850451.000    22850449.535    22850454.090
      4033.790        3137.378          42.500          41.900
 116511663.410 7  90788335.50246  22171432.883                    22171437.277
      2622.668        2043.571          47.900          36.500
 112335294.866 7  87372107.821 5  21022069.219    21022068.828    21022072.676
     -3292.198       -2560.585          45.200          34.700
 118941129.048 6  92681288.25443  22633710.258                    22633712.645
      2705.445        2108.144          36.800          20.100
 131294810.668 6 102307671.48343  24984569.719                    24984569.105
     -2907.422       -2265.584          39.700          18.600
 122590437.546 7  95348123.014 6  22916989.875    22916989.793    22916991.926
      4095.996        3185.762          42.400          41.100
 107594958.232 8  83684982.169 8  20106684.406    20106684.004    20106686.664
     -2512.585       -1954.229          49.600          48.100
 18  1 21 21 36 30.0000000  0 13R16G05R18G25G29G31R09G26R15G21G02R19
                                R17
 103291212.583 7  80337616.348 7  19336329.914    19336329.141    19336331.867
      1118.934         870.280          43.900          43.600
 128997661.316 6 100517705.71343  24547446.000                    24547448.387
      1562.184        1217.648          40.800          22.300
 103257791.283 8  80311626.857 8  19343663.313    19343662.035    19343664.758
      1384.733        1077.012          48.900          48.200
 115251033.124 8  89806075.87746  21931550.523                    21931555.535
     -2516.461       -1960.675          51.400          40.000
 107083159.313 8  83441483.67647  20377252.297                    20377254.672
     -1309.508       -1020.145          50.700          42.600
 110059641.810 8  85760761.54646  20943655.977                    20943657.535
      -681.730        -530.870          52.100          40.600
 121899204.120 7  94810490.779 6  22827802.875    22827801.410    22827804.211
      4029.348        3133.921          42.700          40.500
 116433096.206 8  90727114.31646  22156482.078                    22156486.516
      2615.250        2038.082          49.000          36.400
 112434291.145 7  87449104.917 5  21040594.898    21040594.977    21040598.418
     -3306.947       -2572.065          45.600          35.800
 118860127.213 6  92618169.94243  22618295.953                    22618298.281
      2694.777        2100.014          38.100          20.900
 131382146.679 6 102375725.49343  25001189.297                    25001188.582
     -2914.926       -2271.141          40.800          20.400
 122467681.433 6  95252646.083 6  22894042.469    22894040.391    22894044.090
      4088.082        3179.600          41.000          41.300
 107670591.571 8  83743808.100 7  20120818.828    20120817.723    20120820.090
     -2528.981       -1966.985          50.200          47.700
 18  1 21 21 37  0.0000000  0 13R16G05R18G25G29G31R09G26R15G21G02R19
                                R17
 103257985.250 7  80311772.855 7  19330109.383    19330108.727    19330111.523
      1097.020         853.251          45.000          44.400
 128951014.639 6 100481357.66243  24538569.938                    24538572.117
      1547.316        1205.980          41.200          22.000
 103216596.352 8  80279586.372 8  19335946.023    19335945.098    19335947.719
      1362.420        1059.654          48.900          48.300
 115326663.994 8  89865009.00746  21945942.641                    21945948.027
     -2525.797       -1967.913          50.800          40.100
 107122640.802 8  83472248.47747  20384765.391                    20384767.895
     -1322.699       -1030.446          51.100          42.400
 110080373.666 8  85776916.23746  20947601.109                    20947602.508
      -700.520        -545.575          51.600          40.600
 121778394.850 7  94716527.968 6  22805179.617    22805178.387    22805179.156
      4024.820        3130.413          42.700          40.000
 116354740.169 8  90666057.66146  22141571.320                    22141576.445
      2608.313        2032.586          48.100          36.300
 112533728.611 7  87526445.152 5  21059203.969    21059203.930    21059207.516
     -3321.635       -2583.515          45.100          35.300
 118779436.698 6  92555294.25743  22602941.656                    22602943.625
      2684.465        2091.969          37.000          20.900
 131469696.201 6 102443945.93643  25017850.305                    25017848.617
     -2921.937       -2276.661          41.200          19.300
 122345162.753 6  95157353.744 6  22871138.727    22871136.766    22871140.035
      4080.123        3173.424          41.800          41.500
 107746714.154 8  83803014.546 7  20135043.891    20135043.137    20135045.250
     -2545.248       -1979.629          49.800          47.300
 18  1 21 21 37 30.0000000  0 13R16G05R18G25G29G31R09G26R15G21G02R19
                                R17
 103225415.729 7  80286440.997 7  19324013.242    19324011.297    19324014.180
      1075.049         836.146          44.200          44.500
 128904818.307 6 100445360.60543  24529779.758                    24529780.730
      1532.270        1194.223          41.600          22.300
 103176071.283 8  80248066.887 8  19328354.711    19328354.020    19328356.734
      1340.037        1042.245          49.000          48.600
 115402573.514 8  89924159.27646  21960387.641                    21960392.949
     -2535.000       -1975.158          51.000          39.700
 107162518.281 8  83503321.83847  20392353.672                    20392356.098
     -1335.906       -1040.738          51.100          42.300
 110101671.952 8  85793512.29346  20951653.648                    20951655.316
      -719.461        -560.309          51.400          40.500
 121657722.926 7  94622672.052 7  22782580.344    22782580.402    22782584.391
      4020.151        3126.765          43.400          42.100
 116276597.054 8  90605166.93446  22126701.516                    22126706.164
      2601.141        2027.010          48.800          36.900
 112633604.573 7  87604126.437 5  21077894.711    21077893.734    21077897.719
     -3336.231       -2594.838          45.300          35.300
 118699059.959 5  92492663.01643  22587645.031                    22587648.449
      2673.801        2083.754          35.400          21.300
 131557457.763 6 102512331.57843  25034549.641                    25034550.547
     -2929.031       -2282.172          38.100          18.600
 122222884.039 7  95062248.134 6  22848279.156    22848279.074    22848281.609
      4072.102        3167.158          42.000          41.600
 107823322.844 8  83862599.107 7  20149360.133    20149359.379    20149361.766
     -2561.410       -1992.216          50.200          47.300
 18  1 21 21 38  0.0000000  0 13R16G05R18G16G25G29G31R09G26R15G21R19
                                R17
 103193505.911 7  80261622.254 7  19318039.320    19318038.313    19318040.848
      1053.037         819.027          43.800          43.700
 128859074.936 6 100409716.40143  24521074.133                    24521076.719
      1517.172        1182.421          40.000          22.600
 103136216.286 8  80217068.567 8  19320888.648    19320887.371    19320890.043
      1317.708        1024.895          49.400          48.200
 128258152.918 6  99941438.10943  24406717.406                    24406719.867
      3347.445        2608.418          39.700          22.000
 115478760.539 8  89983525.77446  21974885.523                    21974890.980
     -2544.113       -1982.340          51.600          40.000
 107202789.682 8  83534702.15047  20400017.297                    20400019.793
     -1348.934       -1050.921          51.300          42.000
 110123535.691 8  85810548.95746  20955814.430                    20955816.105
      -738.172        -574.962          52.100          40.800
 121537191.053 7  94528925.109 6  22760009.609    22760009.316    22760012.250
      4015.461        3123.132          43.200          40.400
 116198668.052 8  90544443.05546  22111872.617                    22111877.238
      2594.102        2021.443          48.900          37.600
 112733916.989 7  87682147.180 5  21096665.602    21096665.563    21096669.301
     -3350.743       -2606.109          44.700          35.200
 118618998.813 6  92430277.75343  22572410.352                    22572413.344
      2663.477        2075.510          37.400          21.100
 122100847.566 7  94967330.871 6  22825466.664    22825465.410    22825468.141
      4063.958        3160.879          42.100          41.900
 107900414.212 8  83922559.043 7  20163766.781    20163765.910    20163768.012
     -2577.427       -2004.664          50.300          46.800
 18  1 21 21 38 30.0000000  0 13R16G05R18G16G25G29G31R09G26R15G21R19
                                R17
 103162258.407 7  80237318.636 7  19312189.211    19312188.320    19312191.207
      1030.877         801.778          44.100          44.300
 128813787.141 7 100374427.22643  24512456.625                    24512459.059
      1501.895        1170.562          42.800          23.600
 103097031.945 8  80186591.878 8  19313547.633    19313546.941    19313549.723
      1295.328        1007.466          49.200          48.500
 128157754.882 6  99863205.93943  24387611.031                    24387615.629
      3345.641        2607.064          37.500          21.700
 115555224.529 8  90043108.08446  21989435.922                    21989441.707
     -2553.488       -1989.560          51.800          40.300
 107243454.129 8  83566388.74247  20407755.664                    20407757.605
     -1362.125       -1061.154          51.200          42.300
 110145964.719 8  85828026.11546  20960082.586                    20960084.262
      -757.164        -589.673          51.500          40.900
 121416802.728 7  94435289.678 6  22737463.680    22737463.855    22737463.559
      4010.560        3119.354          43.000          38.500
 116120954.944 8  90483887.39246  22097084.602                    22097088.844
      2586.695        2015.787          48.800          37.500
 112834663.799 7  87760505.799 5  21115519.859    21115518.648    21115522.730
     -3365.198       -2617.360          45.400          34.800
 118539255.435 6  92368140.05043  22557235.789                    22557238.406
      2652.977        2067.230          36.200          21.700
 121979056.078 7  94872604.158 7  22802698.891    22802696.930    22802700.777
      4055.721        3154.445          42.000          42.600
 107977985.012 8  83982891.892 7  20178262.430    20178262.613    20178264.535
     -2593.416       -2017.100          49.900          47.000
 18  1 21 21 39  0.0000000  0 13R16G05R18G16G25G29G31R09G26R15G21R19
                                R17
 103131675.430 7  80213531.874 7  19306464.586    19306464.047    19306466.617
      1008.764         784.594          44.100          44.200
 128768956.870 7 100339494.57244  24503926.195                    24503927.043
      1486.922        1158.678          43.200          24.900
 103058518.748 8  80156637.179 8  19306332.234    19306332.246    19306334.801
      1273.003         990.110          48.900          48.200
 128057407.176 6  99785012.94543  24368517.258                    24368519.559
      3344.254        2605.806          39.900          22.000
 115631964.573 8  90102905.51646  22004039.352                    22004044.813
     -2562.445       -1996.675          52.100          40.700
 107284509.727 8  83598380.11347  20415568.023                    20415570.559
     -1374.848       -1071.245          51.900          42.500
 110168958.474 8  85845943.30446  20964458.000                    20964459.875
      -775.660        -604.286          51.300          40.300
 121296560.988 7  94341768.356 6  22714947.273    22714946.395    22714948.305
      4005.726        3115.550          43.900          40.500
 116043459.165 8  90423501.07946  22082337.258                    22082342.020
      2579.773        2010.181          49.100          37.400
 112935842.412 7  87839200.266 5  21134453.406    21134452.898    21134456.465
     -3379.546       -2628.532          45.700          35.400
 118459831.633 6  92306251.39143  22542123.469                    22542125.223
      2642.273        2058.941          37.200          21.800
 121857511.904 7  94778069.842 7  22779977.789    22779976.652    22779980.270
      4047.513        3148.060          42.100          42.600
 108056031.884 8  84043595.021 7  20192847.398    20192846.645    20192848.852
     -2609.150       -2029.344          49.800          47.700
 18  1 21 21 39 30.0000000  0 13R16G05R18G16G25G29G31R09G26R15G21R19
                                R17
 103101758.923 7  80190263.462 7  19300864.469    19300863.461    19300865.961
       986.440         767.246          43.900          43.700
 128724586.317 7 100304920.12244  24495482.148                    24495484.938
      1471.309        1146.685          44.300          26.600
 103020676.376 8  80127204.230 8  19299243.758    19299243.418    19299245.848
      1250.597         972.696          48.800          48.300
 127957111.027 6  99706860.11743  24349430.633                    24349433.277
      3342.270        2604.410          38.900          22.200
 115708979.615 8  90162917.22146  22018695.039                    22018700.383
     -2571.793       -2003.842          51.700          41.300
 107325954.734 8  83630674.91847  20423454.570                    20423457.355
     -1388.051       -1081.387          51.900          42.000
 110192516.342 8  85864300.08346  20968941.461                    20968943.629
      -794.711        -618.995          51.700          40.800
 121176468.722 7  94248363.305 6  22692458.016    22692456.902    22692458.848
      4000.609        3111.594          43.200          40.400
 115966182.052 7  90363285.15746  22067631.563                    22067636.652
      2572.211        2004.432          47.800          37.700
 113037450.856 7  87918229.040 5  21153468.406    21153467.547    21153471.539
     -3393.859       -2639.677          45.800          35.400
 118380729.706 6  92244613.55043  22527069.484                    22527072.785
      2631.215        2050.486          37.300          21.500
 121736217.108 7  94683729.468 6  22757302.969    22757301.480    22757303.887
      4039.118        3141.529          42.300          41.900
 108134551.275 8  84104665.672 7  20207521.305    20207520.316    20207522.645
     -2624.908       -2041.594          49.800          47.400
 18  1 21 21 40  0.0000000  0 13R16G05R18G16G25G29G31R09G26R15G21R19
                                R17
 103072511.082 7  80167515.134 7  19295388.813    19295387.805    19295390.313
       964.115         749.875          43.900          44.500
 128680677.524 7 100270705.51944  24487126.977                    24487128.242
      1455.926        1134.625          43.200          26.800
 102983505.678 8  80098293.688 8  19292281.016    19292279.738    19292282.406
      1228.137         955.225          48.800          48.500
 127856867.605 6  99628748.39443  24330354.539                    24330357.883
      3340.637        2603.059          38.000          21.700
 115786268.930 8  90223142.64546  22033403.063                    22033407.941
     -2580.879       -2010.985          52.300          41.400
 107367788.124 8  83663272.36647  20431415.680                    20431418.090
     -1400.910       -1091.461          52.500          42.000
 110216637.832 8  85883096.04146  20973531.422                    20973533.625
      -813.473        -633.628          52.600          41.100
 121056529.104 7  94155076.933 6  22669997.344    22669995.527    22669995.789
      3995.472        3107.590          42.900          39.600
 115889125.197 8  90303240.85346  22052968.211                    22052973.230
      2564.906        1998.679          48.600          37.000
 113139487.491 7  87997590.862 6  21172563.945    21172563.320    21172566.707
     -3408.107       -2650.750          46.700          36.000
 118301951.342 6  92183227.83143  22512078.539                    22512081.422
      2620.594        2042.091          38.000          22.200
 121615174.353 6  94589585.095 7  22734674.195    22734673.996    22734677.766
      4030.659        3134.948          41.400          42.700
 108213540.225 8  84166101.528 7  20222281.672    20222280.332    20222283.172
     -2640.549       -2053.761          49.700          47.200
 18  1 21 21 40 30.0000000  0 13R16G05R18G16G25G29G31R09G26R15G21R19
                                R17
 103043933.985 7  80145288.502 7  19290039.273    19290037.680    19290040.574
       941.755         732.479          43.500          44.400
 128637233.118 7 100236852.75044  24478858.727                    24478862.367
      1440.563        1122.593          42.500          26.000
 102947006.547 8  80069905.488 8  19285442.766    19285441.840    19285444.637
      1205.841         937.876          48.000          48.500
 127756677.559 6  99550678.24543  24311288.781                    24311291.082
      3338.984        2601.638          37.900          20.400
 115863831.635 8  90283581.09746  22048162.422                    22048167.773
     -2589.789       -2018.012          52.500          41.700
 107410008.075 8  83696171.02647  20439449.766                    20439452.238
     -1413.562       -1101.442          52.500          42.900
 110241322.231 8  85902330.62246  20978228.633                    20978230.629
      -831.973        -648.193          52.600          41.400
 120936745.481 7  94061911.856 7  22647564.516    22647564.340    22647566.488
      3990.243        3103.538          43.500          42.100
 115812290.157 8  90243369.40246  22038346.813                    22038352.355
      2557.672        1992.943          48.000          36.300
 113241949.255 7  88077283.338 6  21191738.711    21191737.852    21191741.992
     -3422.182       -2661.690          46.900          36.200
 118223498.772 6  92122095.97043  22497149.508                    22497152.621
      2609.863        2033.666          38.100          22.300
 121494385.936 6  94495638.585 7  22712094.992    22712093.383    22712097.293
      4022.148        3128.330          41.700          42.300
 108292995.076 8  84227899.758 8  20237130.539    20237129.082    20237132.016
     -2655.959       -2065.744          49.700          48.000
 18  1 21 21 41  0.0000000  0 13R16G05R18G16G25G29G31R09G26R15G21R19
                                R17
 103016030.027 7  80123585.420 7  19284814.938    19284814.281    19284817.414
       919.317         715.007          43.200          44.400
 128594255.060 7 100203363.38344  24470681.391                    24470682.945
      1424.723        1110.481          44.800          25.300
 102911179.519 8  80042040.035 8  19278730.828    19278730.137    19278733.113
      1183.468         920.470          48.300          48.500
 127656542.510 6  99472650.96543  24292234.742                    24292236.523
      3336.934        2600.236          37.500          20.100
 115941667.111 8  90344232.10547  22062974.094                    22062979.750
     -2599.109       -2025.084          52.300          42.400
 107452613.271 8  83729369.87347  20447557.398                    20447559.648
     -1426.660       -1111.414          53.200          42.600
 110266569.447 8  85922003.78246  20983032.898                    20983034.969
      -850.984        -662.792          52.500          41.000
 120817120.997 7  93968870.646 6  22625164.078    22625163.082    22625165.254
      3984.930        3099.404          43.800          41.500
 115735678.638 7  90183672.11346  22023767.734                    22023773.730
      2549.938        1987.128          47.600          36.900
 113344833.844 7  88157304.675 6  21210991.969    21210991.227    21210995.055
     -3436.250       -2672.658          47.200          37.500
 118145374.172 6  92061219.68643  22482283.625                    22482286.223
      2598.621        2025.111          39.200          23.000
 121373854.858 7  94401892.228 6  22689563.391    22689561.664    22689563.152
      4013.596        3121.682          42.300          41.600
 108372912.908 8  84290058.069 8  20252064.586    20252063.480    20252066.590
     -2671.291       -2077.658          50.000          48.200
 18  1 21 21 41 30.0000000  0 13R16G05R18G16G25G29G31R09G26R15G21R19
                                R17
 102988800.828 7  80102407.164 7  19279718.281    19279717.508    19279719.574
       896.747         697.472          43.200          43.700
 128551745.208 7 100170238.85044  24462590.820                    24462595.332
      1409.254        1098.253          42.600          26.100
 102876024.351 8  80014697.148 8  19272145.305    19272144.613    19272147.387
      1161.005         902.991          48.300          48.100
 127556463.363 6  99394667.15143  24273188.359                    24273191.879
      3335.156        2598.777          36.600          19.900
 116019773.911 8  90405094.52647  22077837.406                    22077843.105
     -2607.969       -2032.140          52.500          42.000
 107495601.411 8  83762867.12947  20455737.445                    20455740.145
     -1439.273       -1121.373          52.700          42.500
 110292377.949 8  85942114.29146  20987944.055                    20987946.383
      -869.602        -677.399          51.500          41.000
 120697658.500 7  93875955.352 6  22602791.711    22602790.715    22602792.734
      3979.452        3095.128          43.200          41.900
 115659291.561 7  90124149.71646  22009231.219                    22009237.582
      2542.543        1981.258          47.500          36.600
 113448139.902 7  88237653.813 6  21230323.742    21230323.234    21230327.574
     -3450.257       -2683.532          47.000          38.800
 118067578.797 6  92000599.93143  22467478.992                    22467482.074
      2587.734        2016.537          37.900          22.900
 121253582.551 6  94308347.077 7  22667079.281    22667077.320    22667081.809
      4004.877        3114.893          41.100          43.400
 108453289.657 8  84352573.329 7  20267085.297    20267083.723    20267086.977
     -2686.573       -2089.558          50.000          47.700
 18  1 21 21 42  0.0000000  0 13R16G05R18G16G25G29G31R09G26R15G21R19
                                R17
 102962248.806 7  80081755.577 7  19274747.469    19274746.344    19274749.313
       874.174         679.910          43.700          44.000
 128509706.496 7 100137481.42443  24454591.164                    24454593.637
      1393.473        1085.996          43.300          23.200
 102841541.553 8  79987877.189 8  19265685.719    19265684.441    19265687.578
      1138.611         885.592          48.200          48.200
 127456441.478 5  99316728.08843  24254154.695                    24254158.871
      3333.238        2597.242          34.400          19.000
 116098151.710 8  90466168.12146  22092752.172                    22092757.805
     -2617.012       -2039.172          52.400          41.700
 107538971.809 8  83796662.24347  20463990.664                    20463992.832
     -1451.914       -1131.291          52.900          43.100
 110318747.792 8  85962662.20846  20992961.992                    20992964.160
      -888.254        -691.952          52.500          40.600
 120578361.621 7  93783168.927 6  22580451.148    22580450.738    22580452.945
      3973.863        3090.791          43.600          41.600
 115583131.009 7  90064803.84246  21994739.023                    21994744.535
      2534.980        1975.353          46.400          37.200
 113551864.033 7  88318328.118 6  21249733.992    21249733.602    21249737.902
     -3464.187       -2694.380          46.600          37.400
 117990115.274 6  91940238.77543  22452738.289                    22452741.289
      2576.449        2007.879          37.800          23.800
 121133571.944 7  94215005.536 7  22644645.539    22644643.930    22644648.242
      3996.098        3108.075          42.500          43.300
 108534122.518 8  84415443.334 8  20282190.617    20282189.746    20282192.512
     -2701.708       -2101.339          50.200          48.100
 18  1 21 21 42 30.0000000  0 13R16G05R18G16G25G29G31R09G26R15G21R19
                                R17
 102936375.841 7  80061632.178 7  19269903.867    19269902.391    19269905.184
       851.508         662.277          43.600          44.400
 128468139.811 7 100105091.86044  24446682.859                    24446684.336
      1377.797        1073.714          43.700          24.500
 102807731.357 8  79961580.379 8  19259351.328    19259350.520    19259353.551
      1116.220         868.174          48.000          48.000
 127356478.080 6  99238834.54943  24235132.203                    24235136.309
      3331.309        2595.714          36.600          20.600
 116176799.593 8  90527452.16346  22107718.094                    22107723.676
     -2625.785       -2046.146          52.400          41.300
 107582722.335 8  83830753.55647  20472316.109                    20472318.691
     -1464.414       -1141.100          52.900          42.700
 110345678.106 8  85983646.86446  20998086.602                    20998088.688
      -906.812        -706.492          52.000          40.600
 120459233.401 7  93690513.619 6  22558142.969    22558142.090    22558143.027
      3968.242        3086.388          43.100          41.400
 115507198.514 8  90005635.65446  21980289.000                    21980295.363
      2527.504        1969.444          48.200          37.600
 113656004.524 7  88399326.259 6  21269223.359    21269222.266    21269227.059
     -3477.996       -2705.117          46.600          38.000
 117912985.225 6  91880137.47844  22438061.555                    22438063.715
      2565.547        1999.211          40.000          25.600
 121013825.796 7  94121869.712 6  22622259.680    22622258.660    22622259.688
      3987.301        3101.235          42.100          40.500
 108615408.114 8  84478665.459 7  20297380.742    20297379.637    20297383.070
     -2716.738       -2113.020          49.900          47.900
 18  1 21 21 43  0.0000000  0 13R16G05R18G16G25G29G31R09G26R15G21R19
                                R17
 102911183.846 7  80042038.394 7  19265188.258    19265186.898    19265189.727
       828.723         644.553          44.500          43.800
 128427048.556 7 100073072.67543  24438861.891                    24438863.246
      1361.434        1061.313          43.400          22.300
 102774593.486 8  79935806.498 8  19253144.336    19253142.707    19253145.734
      1093.747         850.702          48.200          48.800
 127256574.083 6  99160987.27643  24216121.430                    24216125.449
      3328.844        2594.128          37.100          20.900
 116255716.426 8  90588945.77746  22122735.945                    22122741.012
     -2635.254       -2053.160          51.500          40.400
 107626851.850 8  83865140.19347  20480713.938                    20480715.992
     -1477.461       -1150.971          52.700          43.100
 110373168.017 8  86005067.56446  21003317.672                    21003320.145
      -925.867        -721.057          52.000          39.700
 120340276.908 7  93597991.889 7  22535865.828    22535865.066    22535867.074
      3962.389        3081.854          43.400          42.100
 115431495.291 7  89946646.13246  21965883.789                    21965889.332
      2519.336        1963.414          47.200          36.900
 113760559.132 7  88480646.476 6  21288789.125    21288788.031    21288792.918
     -3491.781       -2715.849          46.400          38.300
 117836191.023 6  91820297.84444  22423447.844                    22423450.355
      2553.996        1990.456          39.200          24.500
 120894345.777 6  94028940.744 7  22599922.828    22599921.926    22599924.758
      3978.344        3094.259          41.400          42.000
 108697142.791 8  84542236.871 7  20312654.344    20312653.238    20312656.680
     -2731.731       -2124.672          49.900          47.900
 18  1 21 21 43 30.0000000  0 13R16G05R18G16G25G29G31R09G26R15G21R19
                                R17
 102886675.225 7  80022976.118 7  19260599.867    19260598.625    19260601.246
       805.941         626.845          44.100          43.500
 128386434.572 7 100041425.46643  24431134.383                    24431135.418
      1345.676        1048.889          44.900          22.300
 102742128.410 8  79910555.890 8  19247062.359    19247061.316    19247064.328
      1071.333         833.259          48.000          48.100
 127156730.756 6  99083187.24943  24197121.391                    24197127.016
      3327.016        2592.608          37.600          18.600
 116334901.631 8  90650648.52046  22137804.055                    22137809.633
     -2644.043       -2060.116          51.400          39.600
 107671358.760 8  83899820.90247  20489183.133                    20489185.543
     -1489.902       -1160.735          52.400          43.000
 110401217.433 8  86026924.23946  21008655.094                    21008657.617
      -944.352        -735.552          52.100          40.900
 120221495.606 7  93505606.445 6  22513622.820    22513621.590    22513622.977
      3956.522        3077.286          43.700          41.700
 115356023.218 7  89887836.72446  21951521.953                    21951526.887
      2511.770        1957.408          47.000          37.500
 113865524.939 7  88562286.509 6  21308431.273    21308431.000    21308435.621
     -3505.463       -2726.464          45.600          36.900
 117759734.394 6  91760721.28244  22408899.023                    22408901.016
      2542.844        1981.675          40.200          26.800
 120775134.477 7  93936220.906 7  22577637.953    22577637.285    22577641.566
      3969.362        3087.276          43.000          43.500
 108779323.518 8  84606155.216 7  20328011.328    20328010.691    20328013.793
     -2746.486       -2136.163          50.500          47.400
 18  1 21 21 44  0.0000000  0 13R16G05R18G16G25G29G31R09G26R15G21R19
                                R17
 102862851.579 7  80004446.603 7  19256140.211    19256139.203    19256141.609
       783.115         609.110          43.900          43.900
 128346299.630 7 100010151.49543  24423495.977                    24423497.797
      1329.855        1036.475          43.000          22.200
 102710336.031 8  79885828.492 7  19241105.781    19241105.441    19241108.152
      1049.000         815.883          48.200          47.800
 127056948.956 6  99005435.28243  24178134.281                    24178138.793
      3325.250        2591.069          36.900          20.400
 116414354.171 8  90712559.57946  22152923.313                    22152928.621
     -2652.781       -2067.006          50.700          40.000
 107716241.272 8  83934794.28347  20497724.086                    20497726.082
     -1502.164       -1170.424          51.700          42.200
 110429825.292 8  86049216.07046  21014099.164                    21014101.355
      -962.785        -750.000          52.000          40.600
 120102892.540 7  93413359.632 6  22491412.531    22491411.418    22491412.195
      3950.603        3072.684          43.800          40.900
 115280783.659 8  89829208.50846  21937204.586                    21937209.707
      2504.168        1951.392          48.500          37.700
 113970900.298 7  88644245.122 6  21328151.477    21328150.969    21328155.195
     -3518.990       -2737.005          45.700          36.900
 117683617.088 6  91701409.10844  22394413.695                    22394415.840
      2531.613        1972.852          40.000          26.200
 120656194.172 7  93843711.840 6  22555403.742    22555402.957    22555405.578
      3960.365        3080.286          42.300          41.100
 108861946.923 8  84670417.856 7  20343452.539    20343451.316    20343454.332
     -2761.168       -2147.562          49.400          47.300
 18  1 21 21 44 30.0000000  0 13R16G05R18G16G25G29G31R09G26R15G21R19
                                R17
 102839714.753 7  79986451.291 7  19251808.492    19251807.953    19251810.320
       760.188         591.259          44.700          43.200
 128306645.468 7  99979252.10543  24415951.383                    24415951.516
      1314.000        1023.968          45.200          23.200
 102679215.957 8  79861624.001 8  19235276.242    19235275.785    19235278.680
      1026.532         798.421          48.500          48.000
 126957230.141 6  98927732.28043  24159158.984                    24159162.844
      3323.219        2589.334          40.900          21.800
 116494072.955 8  90774678.09246  22168093.219                    22168098.734
     -2661.445       -2073.915          50.800          39.200
 107761497.549 8  83970058.92047  20506335.711                    20506338.406
     -1514.457       -1180.141          51.600          42.200
 110458990.411 8  86071942.13546  21019649.328                    21019651.156
      -981.156        -764.488          52.500          40.600
 119984470.852 7  93321253.888 6  22469235.313    22469233.496    22469235.465
      3944.493        3067.933          43.700          41.400
 115205777.932 7  89770762.50346  21922932.047                    21922936.590
      2496.660        1945.282          47.500          38.000
 114076682.855 7  88726520.404 5  21347946.836    21347946.094    21347950.816
     -3532.554       -2747.549          46.400          35.900
 117607841.296 6  91642363.04444  22379994.398                    22379996.238
      2520.449        1963.938          40.300          25.400
 120537527.120 7  93751415.234 6  22533220.117    22533219.449    22533220.918
      3951.171        3073.146          42.100          40.900
 108945009.236 8  84735021.872 7  20358974.375    20358973.504    20358976.555
     -2775.766       -2158.915          50.000          47.200
 18  1 21 21 45  0.0000000  0 13R16G05R18G16G25G29G31R09G26R15G21R19
                                R17
 102817266.618 7  79968991.642 7  19247606.875    19247605.164    19247607.570
       737.136         573.324          43.600          42.900
 128267474.570 7  99948729.37043  24408497.188                    24408498.734
      1297.430        1011.329          43.400          22.500
 102648768.491 8  79837942.646 8  19229572.203    19229571.746    19229574.504
      1004.066         780.942          48.300          48.100
 126857575.266 6  98850079.14343  24140194.922                    24140199.676
      3320.699        2587.632          39.200          21.500
 116574057.156 8  90837003.42846  22183313.445                    22183318.359
     -2670.676       -2080.847          50.500          38.900
 107807125.874 8  84005613.45847  20515018.563                    20515020.922
     -1527.277       -1189.811          51.000          42.000
 110488712.054 8  86095101.84646  21025305.336                    21025307.223
     -1000.160        -778.985          53.200          40.800
 119866233.863 7  93229291.775 6  22447092.789    22447092.262    22447092.461
      3938.197        3063.034          43.900          40.200
 115131007.710 8  89712499.98846  21908703.281                    21908707.945
      2488.203        1939.095          48.400          37.900
 114182869.641 7  88809110.133 5  21367818.531    21367818.023    21367822.016
     -3546.041       -2758.043          45.800          35.400
 117532408.353 6  91583584.15544  22365640.125                    22365641.605
      2508.441        1954.961          41.100          25.900
 120419135.800 7  93659333.142 6  22511087.555    22511086.535    22511089.867
      3941.906        3065.938          42.300          41.300
 109028507.189 8  84799964.726 7  20374578.070    20374576.613    20374579.215
     -2790.283       -2170.209          50.000          47.500
 18  1 21 21 45 30.0000000  0 13R16G05R18G16G25G29G31R09G26R15G21R19
                                R17
 102795509.027 7  79952069.071 7  19243533.578    19243533.277    19243535.746
       714.077         555.379          43.600          43.800
 128228788.833 7  99918584.59444  24401134.953                    24401136.324
      1281.230         998.709          44.200          24.300
 102618993.517 8  79814784.345 7  19223994.867    19223993.707    19223996.813
       981.637         763.481          48.300          47.700
 126757985.259 6  98772476.59043  24121243.805                    24121248.477
      3318.297        2585.900          39.500          21.100
 116654305.998 8  90899534.98346  22198584.477                    22198589.766
     -2679.551       -2087.733          49.000          38.700
 107853125.140 8  84041457.04447  20523771.852                    20523774.438
     -1539.703       -1199.462          50.400          42.000
 110518989.674 8  86118694.80246  21031066.828                    21031068.746
     -1018.758        -793.441          52.500          40.300
 119748184.932 7  93137475.930 6  22424986.672    22424985.676    22424986.086
      3931.859        3058.111          43.100          40.700
 115056474.589 7  89654422.23446  21894520.008                    21894524.992
      2480.305        1932.906          47.600          38.100
 114289458.619 7  88892012.646 5  21387764.805    21387765.117    21387769.289
     -3559.470       -2768.464          45.500          34.600
 117457320.424 6  91525074.09644  22351351.875                    22351352.980
      2497.020        1945.975          41.400          26.400
 120301022.333 6  93567467.139 6  22489007.914    22489007.129    22489008.789
      3932.599        3058.660          41.900          41.400
 109112437.659 8  84865244.003 7  20390263.289    20390261.949    20390264.047
     -2804.657       -2181.418          50.200          46.200
 18  1 21 21 46  0.0000000  0 13R16G05R18G16G25G29G31R09G26R15G21R19
                                R17
 102774444.083 7  79935685.207 7  19239588.859    19239589.145    19239591.969
       691.038         537.488          43.600          44.100
 128190589.747 7  99888819.11644  24393865.234                    24393869.113
      1265.121         986.100          43.500          25.000
 102589891.114 8  79792149.149 8  19218542.922    19218541.996    19218545.082
       959.304         746.135          48.100          48.300
 126658462.027 6  98694926.05143  24102306.523                    24102309.871
      3316.277        2584.248          41.800          21.700
 116734818.570 8  90962272.03746  22213905.336                    22213910.844
     -2688.199       -2094.489          48.700          36.700
 107899493.776 8  84077588.45047  20532595.492                    20532597.813
     -1551.820       -1208.959          50.200          42.000
 110549822.444 8  86142720.32246  21036933.805                    21036936.129
     -1037.066        -807.760          52.000          41.100
 119630327.225 7  93045808.843 6  22402915.594    22402915.066    22402914.977
      3925.564        3053.208          42.900          40.400
 114982180.154 8  89596530.47746  21880381.789                    21880386.664
      2472.426        1926.757          48.000          38.000
 114396447.569 7  88975226.278 5  21407787.109    21407785.547    21407789.934
     -3572.616       -2778.704          45.700          35.300
 117382579.446 6  91466834.38044  22337128.672                    22337130.375
      2485.582        1937.000          41.600          25.500
 120183189.426 7  93475819.349 6  22466980.703    22466978.742    22466981.559
      3923.307        3051.462          42.500          41.100
 109196797.254 8  84930857.013 7  20406027.242    20406026.254    20406028.691
     -2818.786       -2192.388          50.600          46.900
 18  1 21 21 46 30.0000000  0 13R16G05R18G16G25G29G31R09G26R15G21R19
                                R17
 102754073.382 7  79919841.337 7  19235776.773    19235775.883    19235778.348
       667.847         519.426          43.600          43.600
 128152880.459 7  99859435.23943  24386689.281                    24386691.914
      1248.629         973.313          42.300          23.000
 102561461.258 8  79770037.057 8  19213217.500    19213215.871    19213219.133
       936.862         728.670          48.000          48.000
 126559005.820 6  98617427.67243  24083379.891                    24083383.406
      3313.914        2582.433          41.100          21.800
 116815593.989 8  91025213.89946  22229276.500                    22229281.738
     -2697.090       -2101.340          48.600          37.400
 107946229.788 8  84114006.12546  20541489.008                    20541491.551
     -1564.172       -1218.524          51.100          41.600
 110581209.570 8  86167177.81346  21042906.891                    21042909.195
     -1055.668        -822.189          53.500          40.900
 119512664.237 7  92954293.187 6  22380879.766    22380879.707    22380880.363
      3918.955        3048.076          42.700          41.100
 114908125.993 7  89538825.93546  21866290.031                    21866294.930
      2464.305        1920.474          47.800          38.300
 114503833.887 7  89058748.953 5  21427883.375    21427881.930    21427886.422
     -3585.892       -2789.024          45.600          35.700
 117308187.387 6  91408866.55044  22322972.336                    22322973.688
      2473.602        1927.868          41.800          25.300
 120065639.235 7  93384391.454 6  22445005.828    22445003.750    22445006.578
      3913.796        3044.053          42.200          40.700
 109281582.630 8  84996801.206 7  20421871.453    20421869.996    20421872.391
     -2832.980       -2203.430          50.700          46.800
 18  1 21 21 47  0.0000000  0 13R16G05R18G16G25G29G31R09G26R15G21R19
                                R17
 102734399.113 7  79904539.119 7  19232093.406    19232092.750    19232094.934
       644.602         501.365          43.700          43.700
 128115662.140 7  99830434.00544  24379607.422                    24379611.215
      1232.430         960.542          43.200          25.600
 102533703.720 7  79748447.868 7  19208016.789    19208016.449    19208019.441
       914.451         711.236          47.800          47.700
 126459618.468 6  98539983.00043  24064467.320                    24064469.094
      3311.730        2580.648          40.200          22.300
 116896631.383 8  91088359.89546  22244697.195                    22244702.566
     -2705.555       -2108.125          48.800          36.800
 107993332.284 8  84150709.37647  20550452.469                    20550454.973
     -1576.082       -1227.997          51.300          42.300
 110613150.152 8  86192066.57846  21048985.289                    21048987.164
     -1073.918        -836.550          52.800          41.100
 119395199.228 7  92862931.531 7  22358883.047    22358882.402    22358883.609
      3912.325        3042.909          42.900          42.100
 114834313.685 7  89481309.85646  21852244.352                    21852248.609
      2456.375        1914.193          47.800          38.600
 114611615.212 7  89142578.855 5  21448052.797    21448051.820    21448056.168
     -3599.032       -2799.234          45.700          35.800
 117234146.154 7  91351172.09044  22308882.969                    22308884.145
      2462.121        1918.716          42.100          24.400
 119948374.101 7  93293185.247 6  22423084.078    22423083.293    22423084.766
      3904.247        3036.617          42.000          40.800
 109366790.419 8  85063073.940 7  20437794.156    20437793.520    20437795.715
     -2846.976       -2214.325          50.100          46.800
 18  1 21 21 47 30.0000000  0 13R16G05R18G16G25G29G31R09G26R15G21R19
                                R17
 102715422.627 7  79889779.617 7  19228540.758    19228540.219    19228542.711
       621.309         483.253          43.500          43.600
 128078936.781 6  99801816.84543  24372617.852                    24372621.660
      1215.945         947.720          40.800          21.300
 102506618.061 8  79727381.255 7  19202942.586    19202941.777    19202944.805
       892.065         693.840          48.000          47.800
 126360301.042 7  98462592.83843  24045569.055                    24045569.668
      3309.422        2578.815          42.200          21.700
 116977929.650 7  91151709.18646  22260167.773                    22260172.488
     -2714.227       -2114.885          47.700          36.500
 108040799.333 8  84187696.69647  20559484.883                    20559487.516
     -1588.180       -1237.442          50.300          42.000
 110645643.334 8  86217385.92746  21055168.188                    21055170.301
     -1092.246        -850.882          53.400          40.700
 119277935.226 7  92771726.184 6  22336922.883    22336922.004    22336923.258
      3905.565        3037.648          42.600          41.500
 114760744.591 8  89423983.29546  21838244.195                    21838249.176
      2448.359        1907.847          48.800          38.100
 114719789.254 7  89226714.203 5  21468295.914    21468294.820    21468300.023
     -3612.086       -2809.394          45.600          35.900
 117160457.454 6  91293752.33144  22294860.344                    22294861.832
      2450.512        1909.585          41.000          25.700
 119831396.238 7  93202202.507 6  22401215.648    22401215.215    22401217.754
      3894.648        3029.153          42.400          41.400
 109452417.205 8  85129672.552 7  20453795.867    20453795.348    20453797.617
     -2860.908       -2225.154          50.600          46.500
 18  1 21 21 48  0.0000000  0 13R16G05R18G16G25G29G31R09G26R15G21R19
                                R17
 102697145.901 7  79875564.394 7  19225119.734    19225118.375    19225120.949
       597.938         465.068          43.700          43.900
 128042706.681 7  99773585.65144  24365725.898                    24365726.949
      1199.418         934.824          43.500          26.200
 102480204.536 8  79706837.413 7  19197994.469    19197993.777    19197996.824
       869.645         676.382          48.200          47.800
 126261054.790 6  98385258.07243  24026682.063                    24026683.832
      3307.004        2576.941          41.300          22.600
 117059488.102 8  91215261.20545  22275687.836                    22275692.906
     -2722.984       -2121.667          48.100          35.700
 108088629.268 8  84224966.77446  20568586.539                    20568589.293
     -1600.371       -1246.860          51.100          41.900
 110678688.406 8  86243135.33246  21061456.523                    21061458.512
     -1110.785        -865.240          53.500          40.800
 119160875.873 7  92680679.999 6  22315001.742    22315000.629    22315001.852
      3898.641        3032.269          43.200          40.900
 114687420.516 7  89366847.64646  21824290.789                    21824296.438
      2439.980        1901.432          47.900          38.600
 114828353.428 7  89311152.987 6  21488612.563    21488611.352    21488616.055
     -3625.064       -2819.495          46.700          36.400
 117087123.146 6  91236608.73244  22280904.859                    22280906.406
      2438.512        1900.327          41.400          24.500
 119714708.142 7  93111445.109 6  22379402.852    22379401.598    22379403.680
      3884.956        3021.620          43.700          41.100
 109538459.699 8  85196594.509 7  20469874.805    20469873.816    20469876.363
     -2874.737       -2235.907          49.900          46.500
 18  1 21 21 48 30.0000000  0 13R16G05R18G16G25G29G31R09G26R15G21R19
                                R17
 102679570.506 7  79861894.638 7  19221829.344    19221828.805    19221831.273
       574.522         446.843          43.400          43.300
 128006973.290 6  99745741.49543  24358923.500                    24358927.641
      1182.953         921.861          40.800          22.500
 102454462.710 8  79686816.000 7  19193171.906    19193171.566    19193174.355
       847.219         658.948          48.100          47.900
 126161880.937 6  98307979.73943  24007808.914                    24007809.879
      3304.699        2575.000          40.400          22.200
 117141305.749 8  91279015.20646  22291257.531                    22291262.441
     -2731.445       -2128.385          48.700          36.400
 108136820.410 8  84262518.32747  20577757.219                    20577759.609
     -1612.246       -1256.264          50.200          42.200
 110712284.244 8  86269313.89046  21067849.813                    21067851.578
     -1128.883        -879.532          53.600          41.700
 119044024.428 7  92589795.568 6  22293119.461    22293117.523    22293119.023
      3891.678        3026.841          42.600          41.300
 114614342.965 7  89309904.10546  21810384.469                    21810389.766
      2431.887        1895.004          47.100          38.300
 114937305.246 7  89395893.269 6  21509000.898    21509000.625    21509004.492
     -3637.979       -2829.530          47.000          37.100
 117014145.078 6  91179742.71644  22267017.125                    22267019.461
      2426.887        1891.048          40.000          24.600
 119598311.887 7  93020914.716 6  22357644.234    22357643.098    22357643.887
      3875.107        3013.958          43.400          40.600
 109624914.504 8  85263837.140 7  20486031.492    20486030.270    20486032.590
     -2888.455       -2246.558          50.300          46.700
 18  1 21 21 49  0.0000000  0 13R16G05R18G16G25G29G31R09G26R15G21R19
                                R17
 102662698.539 7  79848771.990 7  19218671.305    19218669.945    19218672.383
       551.024         428.582          43.900          43.400
 127971738.754 7  99718286.01744  24352221.813                    24352221.145
      1166.027         908.894          45.300          25.100
 102429392.471 7  79667316.927 7  19188475.773    19188474.730    19188477.523
       824.830         641.541          47.600          47.600
 126062780.487 6  98230758.62743  23988952.242                    23988951.801
      3301.945        2573.083          40.700          21.700
 117223381.682 8  91342970.46846  22306876.398                    22306881.113
     -2740.289       -2135.087          49.900          36.200
 108185371.258 8  84300350.16147  20586996.305                    20586998.609
     -1624.437       -1265.588          50.700          42.100
 110746429.846 8  86295920.84646  21074347.516                    21074349.348
     -1147.453        -893.802          53.200          41.100
 118927384.297 7  92499075.455 6  22271275.422    22271274.895    22271276.301
      3884.548        3021.313          42.900          41.500
 114541513.517 7  89253153.90246  21796526.172                    21796530.973
      2423.402        1888.539          47.900          38.700
 115046642.424 7  89480933.280 6  21529462.602    21529461.273    21529465.688
     -3650.756       -2839.464          46.900          36.800
 116941524.901 6  91123155.59144  22253197.031                    22253200.301
      2414.680        1881.737          41.400          25.900
 119482209.927 7  92930613.162 6  22335940.188    22335938.109    22335940.309
      3865.270        3006.334          42.500          41.600
 109711778.259 8  85331397.840 7  20502263.391    20502262.520    20502264.832
     -2902.053       -2257.133          49.700          46.500
 18  1 21 21 49 30.0000000  0 13R16G05R18G16G25G29G31R09G26R15G21R19
                                R17
 102646531.028 7  79836197.262 7  19215644.914    19215643.438    19215645.934
       527.513         410.282          43.600          43.100
 127937004.800 7  99691220.61744  24345610.461                    24345613.672
      1149.375         895.859          43.000          25.500
 102404993.450 8  79648339.933 7  19183905.461    19183904.184    19183907.016
       802.496         624.159          48.600          47.700
 125963754.951 6  98153595.85943  23970107.563                    23970106.918
      3299.520        2571.121          40.900          22.200
 117305714.906 8  91407126.22346  22322543.273                    22322548.395
     -2748.793       -2141.757          48.800          37.400
 108234279.977 8  84338460.85446  20596303.320                    20596305.824
     -1636.266       -1274.851          49.900          41.600
 110781124.059 9  86322955.28646  21080949.688                    21080951.203
     -1165.680        -908.044          54.100          41.200
 118810958.593 7  92408522.101 6  22249472.820    22249472.059    22249473.637
      3877.326        3015.729          42.400          41.500
 114468933.685 7  89196598.17746  21782714.695                    21782719.672
      2415.082        1882.020          47.800          39.000
 115156362.134 7  89566270.815 6  21549994.141    21549994.570    21549998.980
     -3663.510       -2849.390          47.400          36.200
 116869264.796 6  91066849.05644  22239446.930                    22239449.559
      2402.652        1872.345          41.400          26.200
 119366404.299 7  92840542.141 6  22314292.047    22314290.793    22314292.395
      3855.363        2998.614          43.300          41.900
 109799047.652 8  85399274.052 7  20518571.242    20518570.371    20518573.609
     -2915.489       -2267.602          49.000          46.300
 18  1 21 21 50  0.0000000  0 13R16G05R18G16G25G29G31R09G26R15G21R19
                                R17
 102631069.599 7  79824171.719 7  19212750.000    19212749.344    19212751.484
       503.966         391.938          43.900          43.500
 127902773.768 7  99664547.08144  24339097.266                    24339096.977
      1132.348         882.756          46.000          26.800
 102381265.192 8  79629884.633 7  19179460.086    19179458.809    19179461.367
       780.110         606.751          48.600          47.500
 125864804.968 6  98076491.99843  23951276.922                    23951277.609
      3296.855        2569.145          39.200          22.300
 117388304.356 8  91471481.63546  22338259.703                    22338265.047
     -2757.418       -2148.422          49.200          37.300
 108283545.116 8  84376849.27846  20605677.555                    20605680.297
     -1648.320       -1284.105          50.000          41.400
 110816365.958 8  86350416.50746  21087656.023                    21087657.957
     -1184.094        -922.281          52.900          41.000
 118694750.699 7  92318138.189 6  22227711.352    22227709.887    22227711.305
      3869.986        3010.019          43.200          41.400
 114396604.866 8  89140238.05346  21768950.461                    21768956.078
      2406.551        1875.481          48.100          38.900
 115266462.145 7  89651904.161 6  21570598.805    21570597.828    21570601.988
     -3676.112       -2859.197          46.900          36.400
 116797366.123 6  91010824.13844  22225765.086                    22225767.449
      2390.375        1862.899          41.100          28.500
 119250897.125 7  92750703.273 6  22292699.031    22292697.777    22292699.535
      3845.332        2990.819          42.500          41.600
 109886718.997 8  85467462.875 7  20534954.922    20534953.465    20534956.887
     -2928.858       -2278.020          49.100          46.700
 18  1 21 21 50 30.0000000  0 13R16G05R18G16G25G29G31R09G26R15G21R19
                                R17
 102616316.590 7  79812697.124 7  19209988.156    19209987.383    19209990.016
       480.341         373.616          43.700          43.300
 127869046.827 7  99638266.37544  24332678.266                    24332680.738
      1115.871         869.671          42.300          25.800
 102358207.743 8  79611951.075 7  19175140.445    19175139.871    19175142.172
       757.810         589.405          48.400          47.500
 125765932.557 6  97999448.59543  23932463.063                    23932463.895
      3294.492        2567.130          40.500          21.800
 117471149.518 8  91536036.29546  22354024.844                    22354030.051
     -2765.625       -2154.991          49.600          38.300
 108333165.449 8  84415514.47346  20615120.055                    20615122.867
     -1659.840       -1293.266          51.200          41.400
 110852155.126 8  86378304.15946  21094466.461                    21094468.008
     -1201.996        -936.412          53.200          41.700
 118578764.464 7  92227926.681 7  22205990.430    22205989.551    22205990.906
      3862.634        3004.301          43.600          42.100
 114324529.140 8  89084075.15246  21755234.703                    21755240.496
      2398.391        1868.926          48.000          39.900
 115376939.947 7  89737831.325 6  21591272.688    21591271.711    21591276.281
     -3688.638       -2868.944          46.500          37.100
 116725830.947 6  90955082.46444  22212153.063                    22212155.285
      2378.543        1853.505          41.400          28.100
 119135691.263 6  92661098.709 6  22271162.055    22271160.328    22271162.797
      3835.333        2983.046          41.900          41.700
 109974789.609 8  85535962.239 7  20551413.297    20551412.309    20551415.492
     -2942.055       -2288.266          48.900          46.500
 18  1 21 21 51  0.0000000  0 13R16G05R18G16G25G29G31R09G26R15G21R19
                                R17
 102602273.017 7  79801774.349 7  19207359.133    19207358.477    19207361.250
       456.622         355.141          43.700          43.400
 127835826.193 7  99612380.16744  24326357.969                    24326359.781
      1098.656         856.455          47.200          28.300
 102335820.411 8  79594538.713 7  19170947.016    19170945.504    19170948.203
       735.426         571.977          48.600          47.400
 125667138.517 6  97922466.19143  23913662.492                    23913664.160
      3291.758        2565.032          40.800          22.600
 117554249.012 7  91600789.14346  22369838.453                    22369843.781
     -2774.324       -2161.649          47.800          38.400
 108383138.794 8  84454454.73746  20624629.813                    20624632.332
     -1671.762       -1302.477          50.500          41.900
 110888489.822 8  86406616.90146  21101380.789                    21101382.641
     -1220.371        -950.651          53.500          41.000
 118463002.702 7  92137889.770 7  22184312.000    22184311.355    22184312.926
      3855.012        2998.340          43.200          42.300
 114252707.558 8  89028110.29146  21741567.961                    21741573.195
      2389.711        1862.244          48.800          39.600
 115487793.664 7  89824050.867 6  21612017.484    21612016.742    21612021.805
     -3701.200       -2878.716          45.400          37.000
 116654660.836 7  90899625.25744  22198610.281                    22198612.113
      2366.070        1843.922          42.300          29.800
 119020788.287 6  92571729.766 7  22249682.453    22249680.258    22249682.090
      3825.139        2975.094          41.800          42.300
 110063255.520 8  85604769.049 7  20567945.742    20567943.582    20567947.398
     -2955.270       -2298.525          48.500          47.400
 18  1 21 21 51 30.0000000  0 13R16G05R18G16G25G29G31R09G26R15G21R19
                                R17
 102588940.634 7  79791404.698 7  19204863.055    19204862.871    19204865.504
       432.983         336.759          43.600          43.400
 127803113.784 7  99586890.00644  24320131.383                    24320132.340
      1081.961         843.288          42.700          27.200
 102314103.232 8  79577647.566 7  19166879.203    19166877.691    19166880.102
       713.128         554.661          48.400          47.200
 125568424.234 6  97845546.01643  23894877.617                    23894879.449
      3289.285        2562.977          38.200          21.700
 117637602.264 8  91665739.70846  22385700.086                    22385705.520
     -2782.477       -2168.157          49.200          39.000
 108433464.142 8  84493669.29946  20634206.117                    20634208.730
     -1683.242       -1311.523          51.200          41.100
 110925369.365 8  86435354.19346  21108398.586                    21108400.438
     -1238.320        -964.720          53.000          41.600
 118347469.291 7  92048030.442 7  22162676.797    22162676.387    22162677.441
      3847.414        2992.452          43.700          42.100
 114181142.153 8  88972345.04346  21727949.625                    21727955.047
      2381.359        1855.639          49.900          39.600
 115599019.862 7  89910560.101 6  21632832.367    21632831.391    21632836.266
     -3713.464       -2888.253          45.100          36.900
 116583858.055 7  90844454.27344  22185137.242                    22185138.859
      2354.055        1834.421          42.700          29.300
 118906190.905 6  92482598.483 7  22228258.586    22228256.977    22228260.273
      3814.994        2967.241          40.900          42.300
 110152113.769 8  85673881.026 7  20584550.305    20584549.316    20584552.484
     -2968.193       -2308.604          48.200          47.200
 18  1 21 21 52  0.0000000  0 13R16G05R18G16G25G29G31R09G26R15G21R19
                                R17
 102576320.935 7  79781589.356 7  19202500.570    19202500.031    19202502.723
       409.225         318.306          43.700          43.400
 127770910.674 7  99561796.67044  24314004.375                    24314008.031
      1064.988         830.061          45.500          29.300
 102293055.478 8  79561277.106 7  19162935.891    19162934.965    19162937.551
       690.888         537.348          49.100          47.300
 125469791.085 7  97768689.03243  23876110.234                    23876110.738
      3286.645        2560.940          42.100          22.200
 117721208.295 8  91730887.25646  22401609.398                    22401615.477
     -2790.965       -2174.707          48.000          39.200
 108484139.468 8  84533156.56246  20643849.422                    20643852.563
     -1694.875       -1320.588          51.000          41.800
 110962792.728 8  86464515.24746  21115520.094                    21115521.984
     -1256.316        -978.806          53.600          41.400
 118232167.529 7  91958351.307 6  22141084.727    22141083.613    22141083.984
      3839.667        2986.411          44.100          41.500
 114109834.444 8  88916780.60546  21714380.641                    21714385.383
      2372.738        1848.935          48.900          39.800
 115710616.167 7  89997357.192 6  21653715.898    21653715.039    21653719.570
     -3725.760       -2897.811          44.500          36.600
 116513424.046 7  90789570.64545  22171733.234                    22171735.426
      2341.723        1824.853          43.800          31.200
 118791901.687 6  92393706.917 7  22206892.656    22206891.168    22206894.402
      3804.724        2959.236          40.900          42.600
 110241361.115 8  85743295.626 7  20601228.242    20601227.137    20601230.672
     -2981.091       -2318.623          48.300          47.300
 18  1 21 21 52 30.0000000  0 13R16G05R18G16G25G29G31R09G26R15G21R19
                                R17
 102564415.446 7  79772329.541 7  19200272.750    19200270.922    19200273.465
       385.399         299.764          43.300          43.500
 127739219.157 7  99537102.01344  24307972.328                    24307975.090
      1048.043         816.772          43.200          27.100
 102272676.936 8  79545427.122 7  19159118.148    19159116.988    19159119.246
       668.595         520.018          48.400          47.000
 125371239.865 6  97691895.84343  23857354.914                    23857357.082
      3283.961        2558.838          40.600          22.500
 117805066.068 8  91796230.95246  22417567.102                    22417572.711
     -2799.293       -2181.220          48.100          39.600
 108535163.248 8  84572915.33746  20653559.219                    20653561.848
     -1706.469       -1329.599          50.800          41.800
 111000758.795 8  86494099.17746  21122744.617                    21122746.578
     -1274.437        -992.885          52.800          41.100
 118117100.773 7  91868854.946 7  22119536.016    22119535.254    22119536.281
      3831.788        2980.282          44.300          42.800
 114038785.924 8  88861418.11846  21700860.469                    21700865.520
      2364.094        1842.202          48.600          39.900
 115822580.671 7  90084440.674 6  21674668.047    21674667.773    21674672.410
     -3737.990       -2907.327          44.700          37.200
 116443360.408 7  90734975.62445  22158400.203                    22158402.891
      2329.379        1815.218          43.600          30.600
 118677922.221 6  92305056.276 7  22185585.664    22185584.293    22185587.059
      3794.357        2951.150          41.100          42.400
 110330993.937 8  85813010.047 7  20617978.172    20617977.066    20617980.777
     -2993.880       -2328.572          48.700          47.300
 18  1 21 21 53  0.0000000  0 13R16G05R18G16G25G29G31R09G26R15G21R19
                                R17
 102553225.598 7  79763626.315 7  19198177.617    19198175.672    19198178.703
       361.410         281.096          43.400          42.700
 127708040.926 7  99512807.31044  24302040.961                    24302041.949
      1030.820         803.359          45.700          28.500
 102252966.939 8  79530097.137 7  19155425.820    19155424.543    19155427.039
       646.230         502.622          48.800          46.400
 125272772.259 6  97615167.90043  23838616.742                    23838619.227
      3280.516        2556.502          37.500          22.600
 117889174.686 7  91861770.11546  22433572.445                    22433578.461
     -2807.785       -2187.806          47.900          39.800
 108586534.060 8  84612944.54647  20663334.859                    20663337.336
     -1718.137       -1338.673          51.600          42.200
 111039266.519 8  86524105.19846  21130072.648                    21130074.645
     -1292.617       -1007.017          52.700          40.600
 118002272.540 7  91779544.089 6  22098032.250    22098031.020    22098032.352
      3823.686        2973.990          44.000          41.900
 113967998.297 8  88806258.92946  21687389.078                    21687394.504
      2355.238        1835.336          49.200          39.900
 115934910.805 7  90171808.519 6  21695688.969    21695688.461    21695693.789
     -3750.243       -2916.847          44.900          37.200
 116373668.962 7  90680670.60445  22145139.055                    22145140.762
      2316.766        1805.444          43.200          30.500
 118564254.836 6  92216648.349 7  22164336.086    22164335.770    22164338.746
      3783.852        2942.974          41.100          42.500
 110421009.249 8  85883021.940 7  20634800.117    20634799.129    20634802.484
     -3006.663       -2338.509          49.200          47.500
 18  1 21 21 53 30.0000000  0 14R16G05R18G16G25G29G31R09G26G20R15G21
                                R19R17
 102542752.517 7  79755480.574 7  19196216.906    19196216.605    19196218.805
       337.459         262.467          43.400          43.000
 127677377.825 7  99488913.97644  24296203.688                    24296209.074
      1013.500         789.902          43.300          28.300
 102233924.877 8  79515286.649 7  19151858.875    19151857.246    19151859.945
       623.909         485.266          48.400          47.300
 125174389.039 7  97538505.65344  23819897.203                    23819898.453
      3278.152        2554.276          42.300          25.400
 117973532.821 7  91927503.71246  22449625.219                    22449631.426
     -2815.941       -2194.285          47.300          39.800
 108638249.849 8  84653242.55647  20673176.156                    20673178.770
     -1729.508       -1347.646          51.700          42.000
 111078314.188 8  86554531.93246  21137503.070                    21137504.613
     -1310.527       -1021.056          52.800          40.200
 117887685.873 7  91690421.145 7  22076573.695    22076573.285    22076574.188
      3815.577        2967.658          44.600          42.900
 113897472.763 8  88751303.98446  21673969.313                    21673974.352
      2346.551        1828.479          49.100          38.900
 128915683.997 7 100453816.89943  24531845.273                    24531847.383
      2890.125        2251.933          43.400          23.200
 116047603.634 7  90259458.476 6  21716778.633    21716778.125    21716782.512
     -3762.308       -2926.233          45.400          36.800
 116304351.110 7  90626656.69144  22131948.133                    22131950.090
      2304.410        1795.696          42.900          29.700
 118450901.540 7  92128484.688 7  22143146.633    22143145.965    22143148.621
      3773.290        2934.792          42.000          42.400
 110511403.130 8  85953328.301 7  20651692.359    20651691.371    20651694.543
     -3019.280       -2348.319          49.500          47.100
 18  1 21 21 54  0.0000000  0 14R16G05R18G16G25G29G31R09G26G20R15G21
                                R19R17
 102532997.805 7  79747893.588 7  19194390.773    19194389.531    19194391.938
       313.580         243.904          43.300          43.800
 127647231.584 7  99465423.50244  24290469.953                    24290471.086
       996.426         776.498          45.800          28.700
 102215550.615 8  79500995.567 7  19148416.078    19148415.504    19148418.102
       601.727         468.023          48.400          47.700
 125076092.633 6  97461911.03743  23801189.234                    23801192.406
      3275.297        2552.062          40.100          23.600
 118058140.007 7  91993431.36346  22465725.578                    22465731.535
     -2824.223       -2200.698          47.600          39.200
 108690309.464 8  84693808.49046  20683082.609                    20683085.289
     -1740.863       -1356.508          51.500          41.600
 111117901.573 8  86585379.24346  21145036.195                    21145037.863
     -1328.391       -1035.006          51.500          40.600
 117773344.652 7  91601489.063 7  22055162.828    22055160.891    22055161.512
      3807.381        2961.313          45.300          43.000
 113827211.365 8  88696554.84846  21660598.773                    21660604.145
      2337.789        1821.658          48.300          39.400
 128829057.325 7 100386315.60144  24515359.945                    24515362.656
      2885.352        2248.202          43.300          24.700
 116160656.257 7  90347388.273 6  21737934.555    21737934.164    21737938.953
     -3774.192       -2935.489          46.000          36.800
 116235409.075 7  90572935.64544  22118829.063                    22118830.801
      2291.996        1786.015          42.600          28.500
 118337864.904 7  92040567.343 7  22122017.555    22122015.008    22122016.953
      3762.764        2926.588          42.200          42.600
 110602172.847 8  86023926.964 7  20668655.070    20668654.199    20668657.012
     -3031.654       -2357.954          48.900          47.300
 18  1 21 21 54 30.0000000  0 14R16G05R18G16G25G29G31R09G26G20R15G21
                                R19R17
 102523963.050 7  79740866.540 7  19192699.508    19192698.500    19192701.145
       289.518         225.183          42.700          44.000
 127617603.600 7  99442336.67144  24284829.836                    24284831.590
       978.891         763.050          44.000          26.400
 102197843.305 8  79487223.220 7  19145099.016    19145098.676    19145100.953
       579.504         450.718          48.300          47.700
 124977883.005 6  97385384.16244  23782502.961                    23782504.164
      3272.145        2549.809          40.500          25.700
 118142994.950 7  92059552.08146  22481872.711                    22481878.770
     -2832.645       -2207.110          47.000          38.600
 108742711.002 8  84734640.85547  20693054.617                    20693056.715
     -1752.445       -1365.359          52.300          42.000
 111158026.787 8  86616645.63246  21152672.070                    21152673.332
     -1346.527       -1048.953          52.200          40.300
 117659252.094 7  91512750.406 7  22033796.484    22033794.785    22033796.293
      3799.056        2954.821          44.800          43.500
 113757215.453 8  88642012.57346  21647279.063                    21647284.266
      2328.727        1814.743          48.800          39.600
 128742578.750 7 100318929.70644  24498903.609                    24498906.645
      2880.023        2244.313          42.600          26.100
 116274066.276 7  90435596.066 5  21759157.453    21759157.297    21759161.602
     -3786.077       -2944.715          45.600          35.600
 116166844.134 6  90519508.41544  22105781.297                    22105783.336
      2279.148        1776.170          41.800          28.300
 118225147.073 7  91952897.936 7  22100945.516    22100944.145    22100945.066
      3752.103        2918.309          42.200          42.100
 110693314.684 8  86094815.066 7  20685687.820    20685686.246    20685689.117
     -3043.988       -2367.562          49.700          47.400
 18  1 21 21 55  0.0000000  0 14R16G05R18G16G25G29G31R09G26G20R15G21
                                R19R17
 102515649.662 7  79734400.555 7  19191143.898    19191141.484    19191144.559
       265.494         206.519          43.000          44.000
 127588494.891 7  99419654.69044  24279292.273                    24279296.117
       961.590         749.547          43.900          28.700
 102180802.778 8  79473969.485 7  19141906.938    19141906.363    19141908.742
       557.284         433.435          48.200          47.500
 124879762.370 7  97308926.49244  23763830.984                    23763832.656
      3269.254        2547.472          42.000          24.600
 118228097.116 7  92125865.43146  22498067.070                    22498073.277
     -2840.863       -2213.523          46.700          37.900
 108795453.055 8  84775738.55847  20703091.156                    20703093.773
     -1763.793       -1374.166          51.200          42.000
 111198689.083 8  86648330.51446  21160409.711                    21160410.969
     -1364.367       -1062.886          52.100          40.600
 117545412.031 7  91424208.135 7  22012477.781    22012476.902    22012477.762
      3790.582        2948.236          45.800          43.000
 113687487.019 8  88587678.73146  21634009.992                    21634015.609
      2319.898        1807.785          48.500          40.200
 128656251.930 7 100251662.07744  24482475.867                    24482478.625
      2875.066        2240.342          43.900          24.700
 116387832.037 7  90524080.551 5  21780447.945    21780447.320    21780451.289
     -3797.880       -2953.906          46.300          35.600
 116098658.595 6  90466376.84144  22092804.914                    22092807.473
      2266.395        1766.306          41.100          27.300
 118112750.148 7  91865478.133 7  22079934.328    22079932.367    22079934.277
      3741.389        2909.967          42.200          42.200
 110784825.703 8  86165990.293 7  20702788.039    20702787.051    20702789.652
     -3056.263       -2377.074          49.500          47.600
 18  1 21 21 55 30.0000000  0 14R16G05R18G16G25G29G31R09G26G20R15G21
                                R19R17
 102508058.554 7  79728496.364 7  19189721.859    19189721.086    19189724.098
       241.317         187.701          43.000          43.500
 127559908.204 7  99397379.30844  24273853.977                    24273853.418
       944.023         735.908          47.300          27.400
 102164428.089 8  79461233.610 8  19138839.820    19138838.777    19138841.332
       535.063         416.179          48.600          48.000
 124781731.298 6  97232538.63243  23745173.875                    23745178.148
      3265.977        2545.107          38.800          23.300
 118313445.182 7  92192370.38746  22514308.211                    22514314.438
     -2849.137       -2219.950          46.400          37.000
 108848533.904 8  84817100.25746  20713192.016                    20713194.457
     -1775.133       -1382.994          51.200          41.900
 111239887.043 8  86680432.81646  21168248.922                    21168251.027
     -1382.367       -1076.835          51.900          40.400
 117431827.665 7  91335864.740 7  21991206.578    21991205.934    21991206.645
      3781.960        2941.531          45.900          43.700
 113618027.374 8  88533554.33846  21620792.656                    21620797.645
      2310.684        1800.723          48.300          39.900
 128570079.423 7 100184514.67644  24466077.781                    24466081.145
      2869.715        2236.260          43.000          25.300
 116501949.978 7  90612838.952 6  21801804.195    21801803.219    21801807.391
     -3809.605       -2963.019          46.100          36.700
 116030853.489 6  90413541.70144  22079903.086                    22079904.469
      2253.797        1756.334          40.900          26.200
 118000676.251 7  91778309.572 7  22058982.000    22058980.746    22058982.719
      3730.506        2901.508          42.000          42.000
 110876702.330 8  86237449.891 7  20719957.891    20719957.020    20719959.762
     -3068.454       -2386.565          50.000          47.100
 18  1 21 21 56  0.0000000  0 14R16G05R18G16G25G29G31R09G26G20R15G21
                                R19R17
 102501191.343 7  79723155.193 7  19188437.367    19188435.422    19188438.031
       217.229         168.966          43.200          44.100
 127531845.074 6  99375511.97044  24268511.523                    24268511.020
       926.527         722.350          39.400          24.300
 102148718.865 8  79449015.356 7  19135896.930    19135895.535    19135897.848
       512.954         398.952          48.000          47.600
 124683791.353 6  97156221.86743  23726538.422                    23726541.121
      3263.070        2542.728          38.700          22.800
 118399038.345 7  92259066.32446  22530595.930                    22530602.043
     -2857.332       -2226.259          46.700          36.400
 108901952.130 8  84858724.85246  20723357.461                    20723359.395
     -1786.355       -1391.698          51.200          41.800
 111281619.551 8  86712951.63646  21176190.766                    21176192.246
     -1400.137       -1090.657          51.500          40.100
 117318502.645 7  91247723.081 7  21969985.227    21969983.996    21969984.344
      3773.292        2934.783          46.000          43.400
 113548838.269 8  88479640.74946  21607625.859                    21607631.504
      2301.629        1793.716          48.200          40.400
 128484064.398 7 100117490.02144  24449709.602                    24449712.820
      2864.438        2232.181          43.000          24.700
 116616417.980 7  90701869.602 6  21823224.172    21823224.602    21823228.461
     -3821.207       -2972.041          45.500          36.300
 115963430.774 6  90361004.53744  22067072.813                    22067074.598
      2240.867        1746.435          41.300          26.800
 117888927.734 7  91691394.094 7  22038093.758    22038091.328    22038093.461
      3719.692        2893.083          42.100          42.000
 110968941.353 8  86309191.368 7  20737194.141    20737193.738    20737196.598
     -3080.429       -2395.891          49.900          47.000
 18  1 21 21 56 30.0000000  0 14R16G05R18G16G25G29G31R09G26G20R15G21
                                R19R17
 102495049.446 7  79718378.170 7  19187287.477    19187286.586    19187288.762
       193.056         150.133          43.300          43.600
 127504306.940 7  99354053.67944  24263273.422                    24263274.598
       909.184         708.672          47.200          28.200
 102133674.522 8  79437314.195 7  19133078.156    19133077.465    19133079.906
       490.750         381.702          48.200          47.800
 124585944.240 6  97079977.33043  23707918.813                    23707921.348
      3260.023        2540.338          40.800          22.800
 118484875.714 7  92325952.56546  22546930.078                    22546935.801
     -2865.223       -2232.583          47.000          36.400
 108955706.095 8  84900611.06146  20733586.047                    20733588.695
     -1797.223       -1400.402          50.500          41.900
 111323885.478 8  86745886.11046  21184233.602                    21184235.398
     -1417.699       -1104.494          51.400          39.900
 117205440.679 7  91159785.984 7  21948812.266    21948811.270    21948812.066
      3764.468        2927.920          46.100          43.500
 113479921.385 8  88425939.28446  21594511.570                    21594517.012
      2292.746        1786.632          48.500          39.900
 128398209.411 7 100050590.04044  24433372.320                    24433374.930
      2859.102        2227.955          43.500          24.200
 116731233.340 7  90791170.447 6  21844711.164    21844710.188    21844714.855
     -3832.765       -2981.045          44.800          36.500
 115896392.177 6  90308766.67544  22054315.898                    22054317.473
      2228.301        1736.424          40.800          27.200
 117777506.607 6  91604733.244 7  22017263.680    22017262.191    22017264.563
      3708.761        2884.586          41.800          42.500
 111061539.547 8  86381212.165 7  20754499.133    20754497.910    20754500.824
     -3092.336       -2405.151          50.300          46.900
 18  1 21 21 57  0.0000000  0 14R16G05R18G16G25G29G31R09G26G20R15G21
                                R19R17
 102489633.456 7  79714165.709 7  19186273.039    19186272.617    19186275.051
       168.817         131.315          43.600          43.900
 127477294.673 7  99333005.13043  24258129.117                    24258133.535
       891.730         695.022          42.100          22.200
 102119293.918 8  79426129.274 7  19130384.711    19130383.199    19130385.660
       468.691         364.554          48.200          47.700
 124488190.753 6  97003805.76043  23689315.484                    23689319.156
      3257.063        2537.870          38.400          21.700
 118570956.068 7  92393028.14745  22563311.141                    22563316.316
     -2873.281       -2238.891          46.800          35.000
 109009794.037 8  84942757.51047  20743878.453                    20743881.035
     -1808.328       -1409.040          50.500          42.000
 111366683.412 8  86779235.13446  21192377.531                    21192379.770
     -1435.316       -1118.288          50.900          40.200
 117092644.783 7  91072055.856 7  21927689.281    21927687.699    21927688.637
      3755.547        2920.971          45.600          43.100
 113411278.081 8  88372450.99146  21581448.906                    21581454.734
      2283.656        1779.503          48.500          40.500
 128312518.207 7  99983817.67743  24417065.719                    24417068.152
      2853.691        2223.652          42.500          22.600
 116846393.464 7  90880739.422 6  21866261.641    21866260.313    21866264.867
     -3844.169       -2989.905          44.900          36.500
 115829739.023 6  90256829.17644  22041632.438                    22041634.371
      2215.520        1726.374          41.100          28.100
 117666414.990 6  91518328.684 7  21996495.656    21996493.930    21996496.484
      3697.699        2876.003          41.800          42.100
 111154493.445 8  86453509.654 7  20771869.383    20771868.277    20771870.988
     -3104.117       -2414.328          49.200          46.700
 18  1 21 21 57 30.0000000  0 14R16G05R18G16G25G29G31R09G26G20R15G21
                                R19R17
 102484945.147 7  79710519.255 7  19185395.375    19185394.250    19185396.898
       144.490         112.387          43.900          43.600
 127450810.660 7  99312368.32443  24253091.133                    24253089.453
       874.129         681.215          43.200          22.300
 102105576.964 8  79415460.558 7  19127814.383    19127812.871    19127815.746
       446.527         347.296          48.100          47.500
 124390532.665 6  96927708.60243  23670731.555                    23670735.480
      3253.820        2535.345          39.100          23.500
 118657278.747 7  92460292.55545  22579737.633                    22579742.922
     -2881.281       -2245.184          47.400          35.200
 109064214.630 8  84985163.17147  20754234.914                    20754237.605
     -1819.324       -1417.693          51.000          42.600
 111410012.166 8  86812997.78346  21200622.914                    21200625.309
     -1452.992       -1132.096          52.100          40.600
 116980118.892 7  90984535.708 7  21906616.156    21906614.691    21906616.234
      3746.475        2913.918          45.200          43.500
 113342910.371 8  88319177.45246  21568439.367                    21568444.992
      2274.488        1772.297          48.600          40.400
 128226993.914 7  99917175.41743  24400791.008                    24400792.883
      2848.082        2219.262          43.000          22.900
 116961895.801 7  90970574.545 6  21887875.031    21887875.461    21887880.297
     -3855.571       -2998.787          44.600          37.600
 115763473.135 6  90205193.42944  22029021.734                    22029023.746
      2202.598        1716.296          41.300          27.500
 117555655.316 6  91432182.283 7  21975790.188    21975788.934    21975791.582
      3686.590        2867.371          41.300          43.000
 111247800.160 8  86526081.529 7  20789306.172    20789304.363    20789307.277
     -3115.876       -2423.465          49.100          47.000
 18  1 21 21 58  0.0000000  0 14R16G05R18G16G25G29G31R09G26G20R15G21
                                R19R17
 102480984.988 7  79707439.118 7  19184653.094    19184653.145    19184655.605
       120.224          93.518          43.400          43.900
 127424856.075 7  99292143.88744  24248152.523                    24248154.762
       856.164         667.460          45.400          24.900
 102092522.258 8  79405306.905 7  19125368.656    19125367.613    19125370.113
       424.442         330.121          48.600          47.800
 124292970.616 6  96851686.20144  23652166.352                    23652170.004
      3250.336        2532.835          40.300          24.700
 118743842.212 7  92527744.59845  22596210.633                    22596215.352
     -2889.613       -2251.442          47.000          34.300
 109118965.560 8  85027826.23647  20764653.867                    20764656.133
     -1830.687       -1426.267          50.700          42.300
 111453870.016 8  86847172.71246  21208968.961                    21208970.758
     -1470.867       -1145.827          51.700          40.800
 116867866.038 7  90897227.935 7  21885595.125    21885594.129    21885594.969
      3737.288        2906.788          45.700          42.900
 113274819.270 8  88266119.45146  21555481.734                    21555487.277
      2264.980        1765.080          48.300          39.800
 128141638.716 7  99850664.88643  24384548.008                    24384550.715
      2842.184        2214.859          42.800          22.200
 117077737.968 7  91060673.990 6  21909554.000    21909553.375    21909558.605
     -3866.841       -3007.554          43.900          37.800
 115697595.720 6  90153860.39344  22016486.031                    22016487.824
      2189.301        1706.207          41.800          28.100
 117445229.261 7  91346295.408 7  21955147.117    21955145.746    21955148.695
      3675.445        2858.667          43.000          43.000
 111341455.666 8  86598924.697 7  20806808.258    20806807.270    20806809.855
     -3127.468       -2432.469          49.500          46.500
 18  1 21 21 58 30.0000000  0 14R16G05R18G16G25G29G31R09G26G20R15G21
                                R19R17
 102477754.869 7  79704926.808 7  19184049.453    19184048.094    19184050.723
        95.909          74.579          43.200          43.800
 127399432.743 6  99272333.61643  24243313.227                    24243317.531
       838.484         653.638          38.100          21.800
 102080129.731 8  79395668.278 7  19123047.328    19123046.520    19123048.746
       402.412         312.995          48.800          47.300
 124195506.640 6  96775740.24944  23633619.859                    23633623.625
      3246.883        2530.292          40.300          24.200
 118830646.053 7  92595383.94745  22612728.391                    22612733.148
     -2897.652       -2257.656          47.000          34.600
 109174045.907 8  85070745.99547  20775135.234                    20775137.699
     -1841.590       -1434.763          50.300          42.100
 111498256.334 8  86881759.44846  21217415.469                    21217417.258
     -1488.562       -1159.509          52.200          40.700
 116755890.348 7  90810135.750 7  21864624.609    21864623.848    21864625.004
      3728.058        2899.569          45.100          42.700
 113207006.986 8  88213278.71946  21542577.594                    21542582.945
      2255.496        1757.869          49.000          40.500
 128056456.401 7  99784289.11043  24368339.719                    24368341.418
      2836.305        2210.334          42.500          23.000
 117193916.778 7  91151035.246 6  21931294.977    21931295.289    21931300.090
     -3878.008       -3016.235          43.900          38.500
 115632108.652 7  90102831.52444  22004024.063                    22004025.996
      2176.227        1696.068          42.400          28.000
 117335139.125 7  91260669.758 7  21934566.211    21934565.660    21934568.375
      3664.268        2849.985          42.500          43.000
 111435457.401 8  86672037.164 7  20824374.172    20824372.832    20824375.734
     -3138.911       -2441.381          48.600          46.200
 18  1 21 21 59  0.0000000  0 14R16G05R18G16G25G29G31R09G26G20R15G21
                                R19R17
 102475255.662 7  79702982.981 7  19183581.227    19183580.453    19183583.207
        71.603          55.694          43.400          44.000
 127374541.808 7  99252938.05543  24238578.891                    24238576.348
       820.879         639.878          45.600          22.800
 102068398.187 8  79386543.757 7  19120849.570    19120849.113    19120851.434
       380.463         295.926          48.500          47.600
 124098141.833 6  96699871.58444  23615091.313                    23615095.590
      3243.902        2527.699          39.000          24.700
 118917689.021 7  92663209.63145  22629292.359                    22629297.336
     -2905.180       -2263.804          47.900          35.700
 109229453.686 8  85113920.89546  20785679.000                    20785681.391
     -1852.207       -1443.219          50.300          41.800
 111543169.289 8  86916756.55046  21225961.875                    21225963.863
     -1505.746       -1173.134          52.200          40.500
 116644195.075 7  90723261.625 7  21843707.789    21843707.379    21843708.004
      3718.686        2892.310          45.300          42.600
 113139474.968 8  88160656.37246  21529726.891                    21529732.039
      2246.559        1750.600          48.800          40.400
 127971449.841 7  99718050.28643  24352162.344                    24352164.973
      2830.781        2205.797          42.900          21.500
 117310429.716 7  91241656.360 6  21953099.055    21953098.430    21953103.305
     -3889.068       -3024.831          44.500          38.400
 115567013.824 7  90052108.29244  21991637.352                    21991639.145
      2163.375        1685.885          42.700          29.900
 117225386.919 7  91175306.950 7  21914050.344    21914049.207    21914051.926
      3653.001        2841.242          42.800          43.300
 111529801.750 8  86745416.075 7  20842004.047    20842003.762    20842006.801
     -3150.248       -2450.184          48.300          46.300
 18  1 21 21 59 30.0000000  0 14R16G05R18G16G25G29G31R09G26G20R15G21
                                R19R17
 102473488.206 7  79701608.289 7  19183250.180    19183249.641    19183252.211
        47.240          36.722          43.600          43.600
 127350184.597 7  99233958.32143  24233941.391                    24233944.109
       803.215         626.027          42.900          22.900
 102057326.974 8  79377932.829 7  19118775.570    19118774.762    19118776.867
       358.509         278.846          48.100          47.600
 124000877.474 6  96624081.18544  23596583.453                    23596586.273
      3240.629        2525.150          40.400          24.600
 119004970.224 8  92731220.94746  22645901.398                    22645906.352
     -2913.113       -2269.947          48.800          36.100
 109285187.538 8  85157349.87047  20796284.781                    20796287.523
     -1862.988       -1451.639          50.700          42.300
 111588607.636 8  86952163.04246  21234608.766                    21234610.668
     -1523.184       -1186.734          52.000          40.500
 116532783.893 7  90636608.490 6  21822844.211    21822843.801    21822844.414
      3709.202        2884.908          44.900          41.900
 113072224.882 8  88108253.70946  21516929.539                    21516935.379
      2237.133        1743.267          49.100          40.300
 127886621.501 7  99651950.36043  24336020.086                    24336022.324
      2824.777        2201.122          42.100          22.500
 117427274.317 7  91332535.482 6  21974965.227    21974965.305    21974969.770
     -3900.083       -3033.380          44.700          38.200
 115502312.594 7  90001691.76445  21979325.375                    21979326.961
      2150.246        1675.672          43.200          30.500
 117115975.064 7  91090208.899 7  21893596.891    21893595.637    21893598.383
      3641.657        2832.388          42.800          43.500
 111624485.485 8  86819058.985 7  20859698.234    20859697.363    20859700.047
     -3161.448       -2458.883          48.800          46.000
