     2.11           OBSERVATION DATA    M (MIXED)           RINEX VERSION / TYPE
teqc  2016Nov7      IGN-RGP             20180121 22:03:11UTCPGM / RUN BY / DATE
Linux 2.4.21-27.ELsmp|Opteron|gcc|Linux x86_64|=+           COMMENT
teqc  2016Nov7                          20180121 22:03:11UTCCOMMENT
teqc  2016Nov7      IGN-RGP             20180121 22:03:08UTCCOMMENT
teqc  2016Nov7      IGN-RGP             20180121 22:03:05UTCCOMMENT
BIT 2 OF LLI FLAGS DATA COLLECTED UNDER A/S CONDITION       COMMENT
MLVL                                                        MARKER NAME
10092M001                                                   MARKER NUMBER
Automatic           IGN                                     OBSERVER / AGENCY
1830331             LEICA GR25          4.11                REC # / TYPE / VERS
5411118464          TRM57971.00     NONE                    ANT # / TYPE
  4201577.2090   189859.8560  4779064.5670                  APPROX POSITION XYZ
        0.0750        0.0000        0.0000                  ANTENNA: DELTA H/E/N
     1     1                                                WAVELENGTH FACT L1/2
    22    L1    L2    C1    C2    P1    P2    D1    D2    S1# / TYPES OF OBSERV
          S2    L5    C5    D5    S5    L7    C7    D7    S7# / TYPES OF OBSERV
          L8    C8    D8    S8                              # / TYPES OF OBSERV
    30.0000                                                 INTERVAL
DefaultJobName                                              COMMENT
DefaultUserDiscription                                      COMMENT
Project creator:                                            COMMENT
 SNR is mapped to RINEX snr flag value [0-9]                COMMENT
  L1 & L2: min(max(int(snr_dBHz/6), 0), 9)                  COMMENT
    18                                                      LEAP SECONDS
Forced Modulo Decimation to 30 seconds                      COMMENT
  2018     1    21    21     0    0.0000000     GPS         TIME OF FIRST OBS
                                                            END OF HEADER
 18  1 21 21  0  0.0000000  0 24G02G05G12G14G21G23G25G26G29G31G32R07
                                R09R14R15R16R17R18R19R24E01E05E09E26
 125799383.237 7  98025460.57746  23938823.100
  23938814.200       -2206.849       -1719.621          44.500          38.950



 133520998.735 7 104042321.11845  25408200.340
  25408194.340        2416.269        1882.807          42.600          34.350



 124515782.096 7  97025275.63745  23694557.580
  23694549.220       -3160.137       -2462.446          46.350          35.350



 124306432.296 7  96862108.66645  23654727.920
  23654721.220       -2572.529       -2004.567          42.550          35.750



 125383092.155 7  97701082.80246  23859608.660
  23859601.680        3251.536        2533.668          42.850          36.900



 135790550.505 6 105810782.68245  25840082.440
  25840072.380        1986.345        1547.799          39.650          35.900



 110566789.261 8  86155944.87248  21040150.260
  21040145.800       -1769.686       -1378.976          50.850          48.000
  82566133.172 8  21040147.780       -1321.579          52.800


 122600591.309 7  95532927.54846  23330116.640
  23330112.560        3001.790        2339.056          43.950          40.000
  91552384.679 8  23330112.740        2241.564          49.600


 105373009.205 8  82108813.07948  20051810.640
  20051803.460        -233.312        -181.803          51.350          49.550



 110057121.225 8  85758765.25147  20943171.540
  20943163.180         698.949         544.636          50.800          47.000



 131598693.337 6 102544408.91945  25042397.760
  25042393.120       -3276.001       -2552.729          41.800          34.000
  98271734.067 7  25042394.580       -2446.225          46.600


 127365063.258 6  99061723.982 6  23792867.480
  23792865.040       -1657.685       -1289.310          41.050          41.100



 130908268.056 6 101817525.619 5  24514911.180
  24514908.020        4108.858        3195.776          38.500          32.650



 123350886.731 7  95939597.431 6  23140306.820
  23140306.500       -3920.579       -3049.340          43.150          40.300



 106490742.869 7  82826149.371 7  19928283.760
  19928284.480       -2067.117       -1607.759          46.800          42.100



 107330625.299 7  83479381.108 7  20092519.380
  20092519.160        2478.987        1928.102          43.900          43.900



 103671558.194 8  80633441.347 8  19373503.360
  19373501.360       -1077.048        -837.704          48.100          48.700



 107951364.600 8  83962187.482 7  20222926.460
  20222926.220        2905.464        2259.806          48.100          47.200



 131792127.408 5 102504990.711 5  24637149.220
  24637147.940        4441.658        3454.632          35.050          33.800



 120801532.178 6  93956742.818 5  22590490.300
  22590486.380       -4033.979       -3137.540          38.700          30.450



 123347748.926 8                  23472287.260
                      -704.852                          51.850
  92110352.317 8  23472286.000        -526.393          52.450    94513218.197 8
  23472282.920        -540.139          53.100    93311785.073 8  23472284.880
      -533.267          51.300
 148308923.941 7                  28222249.800
                      -476.366                          43.700
 110750168.757 7  28222250.080        -355.792          45.700   113639293.237 7
  28222246.860        -365.153          47.750   112194729.314 7  28222247.760
      -360.514          42.850
 139000649.241 7                  26450944.940
                     -2258.292                          44.100
 103799184.274 6  26450944.920       -1686.340          41.700   106506977.867 7
  26450941.480       -1730.144          43.950   105153077.891 6  26450943.440
     -1708.278          38.350
 114225943.001 8                  21736469.120
                       180.366                          51.800
  85298612.685 8  21736469.700         134.625          52.350    87523773.575 8
  21736466.340         138.131          53.100    86411194.948 8  21736468.080
       136.377          51.300
 18  1 21 21  0 30.0000000  0 24G02G05G12G14G21G23G25G26G29G31G32R07
                                R09R14R15R16R17R18R19R24E01E05E09E26
 125865767.462 7  98077188.56546  23951455.660
  23951446.540       -2218.756       -1728.898          44.350          38.050



 133448638.770 7 103985936.78145  25394430.620
  25394424.800        2408.240        1876.554          42.400          33.900



 124610644.969 7  97099194.73746  23712609.760
  23712600.980       -3163.877       -2465.361          46.400          37.250



 124383758.976 7  96922363.17945  23669442.800
  23669435.880       -2582.187       -2012.098          42.550          34.950



 125285626.450 7  97625135.51446  23841061.560
  23841054.600        3246.395        2529.657          42.950          37.300



 135731164.729 6 105764508.09945  25828781.580
  25828772.060        1972.804        1537.251          38.350          33.200



 110620050.893 8  86197447.44047  21050285.760
  21050281.100       -1780.670       -1387.535          50.650          47.850
  82605906.461 8  21050283.080       -1329.700          52.750


 122510599.410 7  95462804.00246  23312991.720
  23312987.700        2997.997        2336.102          44.500          38.650
  91485182.944 8  23312987.900        2238.783          49.550


 105380256.695 8  82114460.48648  20053189.820
  20053182.520        -249.518        -194.429          51.250          49.600



 110036425.311 8  85742638.57147  20939233.260
  20939224.860         680.996         530.646          50.650          46.900



 131696982.750 6 102620998.06645  25061101.520
  25061097.140       -3276.519       -2553.136          41.200          34.450
  98345132.007 7  25061098.460       -2446.762          46.600


 127415126.678 6  99100662.202 6  23802219.780
  23802217.140       -1679.413       -1306.210          41.650          40.850



 130784976.866 6 101721632.436 5  24491822.660
  24491819.360        4110.877        3197.348          39.350          33.900



 123468608.162 7  96031158.528 6  23162390.980
  23162390.620       -3927.272       -3054.546          43.800          39.750



 106553039.737 7  82874602.480 7  19939941.760
  19939942.540       -2085.627       -1622.154          46.650          42.350



 107256490.326 7  83421720.579 7  20078641.220
  20078640.940        2463.935        1916.394          44.000          43.950



 103704225.675 8  80658849.398 8  19379607.980
  19379606.020       -1100.319        -855.804          48.100          48.800



 107864488.802 8  83894617.439 7  20206651.720
  20206651.540        2886.550        2245.096          48.100          47.400



 131658904.350 5 102401372.773 4  24612244.200
  24612243.260        4439.988        3453.318          32.950          29.150



 120922668.680 6  94050960.099 5  22613143.300
  22613139.540       -4041.027       -3143.021          38.800          30.000



 123369049.910 8                  23476340.680
                      -714.886                          51.850
  92126258.887 8  23476339.480        -533.799          52.400    94529539.718 8
  23476336.380        -547.706          53.000    93327899.119 8  23476338.320
      -540.728          51.000
 148323424.011 7                  28225009.080
                      -489.878                          44.500
 110760996.723 7  28225009.360        -365.827          45.000   113650403.682 7
  28225006.360        -375.349          47.150   112205698.530 6  28225007.040
      -370.682          41.850
 139068491.697 7                  26463855.200
                     -2264.470                          43.900
 103849845.832 6  26463855.100       -1690.845          41.600   106558961.045 7
  26463851.620       -1734.973          44.250   105204400.252 6  26463853.520
     -1712.959          38.550
 114220740.621 8                  21735479.080
                       166.770                          51.750
  85294727.794 8  21735479.720         124.580          52.300    87519787.342 8
  21735476.380         127.772          53.050    86407259.386 8  21735478.100
       126.162          51.000
 18  1 21 21  1  0.0000000  0 24G02G05G12G14G21G23G25G26G29G31G32R07
                                R09R14R15R16R17R18R19R24E01E05E09E26
 125932530.683 7  98129211.85246  23964160.380
  23964151.260       -2232.429       -1739.554          44.700          37.250



 133376545.012 6 103929759.86845  25380711.640
  25380705.600        2397.903        1868.503          41.900          30.650



 124705633.666 7  97173211.87945  23730685.780
  23730676.820       -3168.977       -2469.333          46.550          35.600



 124461390.472 7  96982855.24545  23684215.660
  23684208.580       -2593.334       -2020.780          42.550          33.800



 125188322.258 7  97549314.09346  23822545.320
  23822538.360        3240.235        2524.860          43.300          36.350



 135672202.096 6 105718563.20045  25817561.120
  25817552.280        1957.464        1525.300          38.000          34.450



 110673655.126 8  86239216.96347  21060486.320
  21060481.580       -1793.110       -1397.229          50.600          47.950
  82645935.581 8  21060483.640       -1339.027          52.800


 122420737.973 7  95392782.11546  23295891.660
  23295887.680        2992.828        2332.075          44.850          40.600
  91418078.630 8  23295887.960        2234.761          49.800


 105388007.523 8  82120500.09648  20054664.720
  20054657.380        -267.330        -208.309          51.200          49.400



 110016286.265 8  85726945.80647  20935400.880
  20935392.500         661.352         515.340          50.650          47.000



 131795309.501 6 102697616.34846  25079812.400
  25079808.100       -3279.015       -2555.073          41.950          36.000
  98418557.822 7  25079809.400       -2448.335          46.750


 127465854.092 6  99140116.861 6  23811696.000
  23811693.440       -1702.553       -1324.207          41.350          41.050



 130661648.879 6 101625710.645 6  24468727.420
  24468723.880        4110.998        3197.443          39.250          36.700



 123586553.382 7  96122893.657 6  23184516.960
  23184516.300       -3935.808       -3061.184          43.050          38.800



 106615904.071 7  82923496.954 7  19951706.020
  19951706.840       -2105.520       -1637.626          46.650          42.450



 107182821.309 7  83364422.450 7  20064850.200
  20064850.000        2447.253        1903.420          43.850          44.150



 103737607.131 8  80684812.759 8  19385846.080
  19385844.060       -1125.261        -875.202          48.000          48.900



 107778197.688 8  83827502.145 7  20190486.600
  20190486.340        2865.917        2229.048          48.150          47.900



 131525750.978 5 102297809.050 5  24587352.860
  24587351.740        4436.688        3450.754          32.950          33.050



 121044027.485 6  94145350.298 4  22635837.920
  22635834.080       -4049.802       -3149.844          38.550          29.700



 123390665.991 8                  23480454.080
                      -726.448                          51.800
  92142400.762 8  23480452.920        -542.438          52.400    94546102.687 8
  23480449.800        -556.619          53.050    93344251.540 8  23480451.720
      -549.495          51.200
 148338345.991 7                  28227848.800
                      -505.050                          44.700
 110772139.758 7  28227848.840        -377.111          45.600   113661837.396 7
  28227845.820        -386.883          46.950   112216986.890 7  28227846.580
      -381.938          42.250
 139136533.817 7                  26476802.980
                     -2272.035                          44.050
 103900656.461 7  26476803.180       -1696.557          43.250   106611097.171 7
  26476799.260       -1740.745          44.050   105255873.637 6  26476801.420
     -1718.720          39.300
 114215962.806 8                  21734569.880
                       151.540                          51.750
  85291159.955 8  21734570.480         113.188          52.300    87516126.421 8
  21734567.280         116.139          53.100    86403645.006 8  21734568.900
       114.643          51.150
 18  1 21 21  1 30.0000000  0 24G02G05G12G14G21G23G25G26G29G31G32R07
                                R09R14R15R16R17R18R19R24E01E05E09E26
 125999635.253 7  98181501.13346  23976930.140
  23976920.680       -2242.703       -1747.561          44.650          38.000



 133304684.596 7 103873764.78445  25367037.000
  25367030.800        2391.241        1863.308          42.650          32.350



 124800711.946 7  97247298.81346  23748778.780
  23748769.560       -3170.924       -2470.852          46.600          36.950



 124539288.109 7  97043554.68346  23699039.300
  23699032.200       -2601.282       -2026.975          42.700          36.800



 125091146.347 7  97473592.63845  23804053.540
  23804046.380        3236.916        2522.273          44.050          35.600



 135613628.717 6 105672921.63045  25806414.740
  25806406.200        1945.733        1516.156          38.050          31.850



 110727565.616 8  86281225.13047  21070745.200
  21070740.400       -1802.237       -1404.342          50.800          47.750
  82686193.406 8  21070742.460       -1345.840          52.800


 122330972.400 7  95322834.91646  23278810.020
  23278805.820        2990.396        2330.179          44.950          39.800
  91351045.903 8  23278806.380        2233.068          49.850


 105396224.754 8  82126903.13748  20056228.340
  20056221.040        -281.876        -219.644          51.300          49.250



 109996669.486 8  85711660.00247  20931667.880
  20931659.580         645.080         502.659          50.750          46.800



 131893634.867 6 102774233.50045  25098522.940
  25098518.700       -3277.714       -2554.062          41.800          33.350
  98491982.618 7  25098520.120       -2447.590          46.850


 127517206.375 6  99180057.505 6  23821289.020
  23821286.660       -1722.268       -1339.543          40.750          41.300



 130538249.761 6 101529733.583 6  24445618.740
  24445615.260        4114.124        3199.874          38.700          38.000



 123704684.110 7  96214773.118 6  23206677.800
  23206677.280       -3940.949       -3065.183          42.400          39.300



 106679298.820 7  82972803.964 7  19963569.600
  19963570.300       -2122.071       -1650.501          46.650          42.250



 107109584.784 7  83307460.711 7  20051140.240
  20051140.060        2433.760        1892.924          43.650          44.300



 103771663.960 8  80711301.410 8  19392210.420
  19392208.400       -1146.647        -891.836          48.100          49.000



 107692457.214 8  83760815.139 8  20174424.580
  20174424.360        2848.553        2215.542          48.400          48.050



 131392633.455 5 102194273.225 6  24562467.980
  24562466.640        4436.650        3450.724          35.900          37.650



 121165568.732 6  94239882.373 5  22658566.560
  22658562.920       -4054.926       -3153.831          38.350          30.600



 123412561.753 8                  23484620.680
                      -734.678                          52.000
  92158751.491 8  23484619.600        -548.604          52.500    94562879.955 8
  23484616.400        -562.933          53.050    93360815.538 8  23484618.340
      -555.779          51.250
 148353653.502 7                  28230761.640
                      -516.783                          44.250
 110783570.698 7  28230761.980        -386.006          45.550   113673566.529 7
  28230758.340        -395.925          46.700   112228566.936 6  28230759.560
      -390.981          41.950
 139204737.832 7                  26489781.660
                     -2276.407                          43.800
 103951588.032 6  26489781.940       -1699.855          41.700   106663357.394 7
  26489778.380       -1744.160          44.950   105307469.527 6  26489780.460
     -1722.004          39.000
 114211573.464 8                  21733734.580
                       139.674                          51.850
  85287882.206 8  21733735.160         104.323          52.350    87512763.171 8
  21733732.120         107.028          53.100    86400324.507 8  21733733.620
       105.651          51.250
 18  1 21 21  2  0.0000000  0 24G02G05G12G14G21G23G25G26G29G31G32R07
                                R09R14R15R16R17R18R19R24E01E05E09E26
 126067110.321 7  98234079.10246  23989770.200
  23989760.820       -2255.129       -1757.246          44.600          36.400



 133233091.942 7 103817978.34145  25353413.520
  25353406.940        2382.097        1856.183          42.400          31.650



 124895909.714 7  97321478.88245  23766894.440
  23766885.160       -3175.181       -2474.169          46.650          35.800



 124617480.515 7  97104483.79745  23713919.020
  23713911.820       -2610.843       -2034.424          43.300          32.250



 124994132.221 7  97397997.21945  23785592.440
  23785585.260        3231.156        2517.785          44.100          35.150



 135555477.451 6 105627608.95545  25795349.180
  25795339.700        1931.515        1505.075          39.100          30.250



 110781813.063 8  86323495.85847  21081068.200
  21081063.420       -1813.578       -1413.179          50.850          47.550
  82726702.857 8  21081065.400       -1354.345          52.750


 122241335.095 7  95252987.66346  23261752.640
  23261748.560        2985.857        2326.642          44.950          40.300
  91284108.951 8  23261749.120        2229.761          49.750


 105404938.701 8  82133693.23248  20057886.480
  20057879.200        -298.556        -232.641          51.350          48.900



 109977607.404 8  85696806.43047  20928040.400
  20928032.160         626.354         488.068          50.700          46.550



 131991987.236 6 102850871.70945  25117238.540
  25117234.960       -3278.427       -2554.618          41.100          33.750
  98565427.576 7  25117235.860       -2448.349          46.400


 127569212.775 6  99220506.938 6  23831004.060
  23831002.040       -1744.270       -1356.655          39.950          41.000



 130414813.266 6 101433727.447 6  24422503.140
  24422499.800        4115.488        3200.937          39.100          37.700



 123823030.153 7  96306820.014 6  23228878.940
  23228878.700       -3948.250       -3070.862          43.300          39.700



 106743254.799 7  83022547.485 7  19975538.100
  19975538.840       -2141.031       -1665.248          46.750          42.350



 107036815.684 7  83250862.522 7  20037517.800
  20037517.580        2418.149        1880.782          43.800          44.100



 103806425.659 8  80738338.290 8  19398706.600
  19398704.460       -1170.228        -910.178          48.400          48.950



 107607301.627 8  83694583.036 8  20158472.160
  20158471.900        2828.872        2200.234          48.300          48.200



 131259586.238 6 102090792.073 5  24537596.160
  24537595.080        4433.985        3448.653          36.000          35.050



 121287320.663 6  94334578.315 4  22681334.740
  22681331.220       -4061.668       -3159.075          38.200          29.750



 123434768.769 8                  23488846.660
                      -745.216                          51.950
  92175334.644 8  23488845.520        -556.527          52.450    94579895.714 8
  23488842.260        -571.033          53.100    93377614.997 8  23488844.220
      -563.776          51.350
 148369377.265 7                  28233753.800
                      -530.833                          45.300
 110795312.472 7  28233754.020        -396.505          44.750   113685614.605 7
  28233750.220        -406.703          47.000   112240461.862 6  28233751.600
      -401.651          41.900
 139273133.088 7                  26502796.920
                     -2283.087                          44.650
 104002662.402 7  26502796.420       -1704.576          42.650   106715764.134 7
  26502793.360       -1749.182          44.250   105359210.077 6  26502795.400
     -1726.759          39.100
 114207603.552 8                  21732979.140
                       125.495                          51.850
  85284917.673 8  21732979.640          93.709          52.300    87509721.295 8
  21732976.680          96.179          53.150    86397321.299 8  21732978.180
        94.966          51.300
 18  1 21 21  2 30.0000000  0 24G02G05G12G14G21G23G25G26G29G31G32R07
                                R09R14R15R16R17R18R19R24E01E05E09E26
 126134944.660 7  98286937.02046  24002678.540
  24002669.080       -2266.957       -1766.459          44.600          37.250



 133161760.527 7 103762395.44745  25339839.600
  25339832.880        2372.965        1849.066          42.550          31.650



 124991217.817 7  97395744.90746  23785031.020
  23785021.740       -3178.773       -2476.968          46.500          36.350



 124695954.882 7  97165632.63445  23728852.300
  23728844.940       -2620.492       -2041.942          42.650          35.150



 124897272.820 7  97322522.35845  23767160.780
  23767153.560        3225.979        2513.749          43.700          35.650



 135497740.904 6 105582619.42045  25784362.680
  25784352.260        1917.270        1493.974          38.750          33.650



 110836387.447 8  86366021.34047  21091453.340
  21091448.640       -1824.730       -1421.868          50.600          47.300
  82767456.444 8  21091450.560       -1362.615          52.750


 122151817.699 7  95183233.84246  23244717.960
  23244714.060        2981.819        2323.496          44.200          40.950
  91217261.531 8  23244714.540        2226.658          49.700


 105414138.799 8  82140862.13848  20059637.080
  20059629.880        -314.874        -245.356          51.050          49.000



 109959091.428 8  85682378.38747  20924516.840
  20924508.740         607.973         473.744          50.500          46.650



 132090354.211 6 102927521.27845  25135956.640
  25135953.800       -3279.214       -2555.231          41.300          35.250
  98638883.409 7  25135954.420       -2448.688          46.300


 127621860.643 6  99261455.269 6  23840839.000
  23840836.980       -1765.782       -1373.387          40.500          41.500



 130291331.806 6 101337686.291 6  24399379.420
  24399375.840        4116.537        3201.751          40.550          36.950



 123941580.042 7  96399025.431 6  23251118.540
  23251118.040       -3955.121       -3076.207          42.350          39.800



 106807761.150 7  83072719.076 7  19987609.620
  19987610.420       -2159.571       -1679.667          46.500          42.100



 106964507.624 7  83194622.918 7  20023981.740
  20023981.240        2402.528        1868.633          44.150          43.900



 103841880.302 8  80765914.127 8  19405332.180
  19405330.060       -1193.476        -928.260          48.400          48.950



 107522723.173 8  83628799.817 8  20142627.760
  20142627.520        2809.563        2185.217          48.100          48.100



 131126602.333 6 101987360.195 6  24512736.080
  24512735.180        4431.613        3446.811          37.050          37.100



 121409270.257 6  94429427.993 5  22704139.860
  22704136.540       -4068.604       -3164.471          37.800          31.000



 123457277.885 8                  23493130.100
                      -755.441                          52.050
  92192143.394 8  23493128.880        -564.139          52.450    94597142.958 8
  23493125.620        -578.862          53.050    93394642.995 8  23493127.580
      -571.501          51.250
 148385507.215 7                  28236823.380
                      -544.553                          44.200
 110807357.538 7  28236823.040        -406.576          44.400   113697973.918 7
  28236819.280        -417.352          46.200   112252664.043 6  28236821.120
      -411.908          41.250
 139341708.177 7                  26515846.140
                     -2288.908                          43.950
 104053871.015 7  26515845.880       -1709.238          42.700   106768308.659 7
  26515842.940       -1753.949          45.100   105411086.658 6  26515845.140
     -1731.636          39.800
 114204043.274 8                  21732301.700
                       111.728                          51.850
  85282259.030 8  21732302.060          83.436          52.250    87506993.299 8
  21732299.220          85.597          53.100    86394627.983 8  21732300.680
        84.500          51.200
 18  1 21 21  3  0.0000000  0 24G02G05G12G14G21G23G25G26G29G31G32R07
                                R09R14R15R16R17R18R19R24E01E05E09E26
 126203138.214 7  98340074.85546  24015655.360
  24015645.580       -2279.008       -1775.852          44.250          37.600



 133090693.921 6 103707018.89745  25326316.200
  25326309.060        2364.505        1842.472          41.350          32.300



 125086637.101 7  97470097.58846  23803188.820
  23803179.540       -3182.450       -2479.831          46.100          37.800



 124774710.553 7  97227000.64646  23743839.080
  23743831.740       -2629.698       -2049.116          42.300          37.500



 124800572.766 7  97247171.69746  23748759.460
  23748752.200        3220.540        2509.513          43.500          36.850



 135440422.816 6 105537956.00844  25773455.680
  25773445.540        1903.794        1483.475          39.200          25.600



 110891290.239 8  86408802.72447  21101900.920
  21101896.080       -1835.525       -1430.279          50.550          47.400
  82808455.267 8  21101898.280       -1370.679          52.750


 122062423.474 7  95113575.99246  23227706.740
  23227703.060        2977.485        2320.119          44.650          39.450
  91150506.073 8  23227703.260        2223.740          49.550


 105423826.397 8  82148410.91748  20061480.460
  20061473.400        -331.051        -257.961          51.050          49.200



 109941124.355 8  85668378.06947  20921097.700
  20921089.800         589.736         459.535          50.250          46.700



 132188734.902 6 103004181.54845  25154678.020
  25154675.020       -3279.608       -2555.541          41.750          31.350
  98712349.509 7  25154675.760       -2448.995          46.350


 127675149.183 6  99302901.905 6  23850793.740
  23850791.940       -1786.824       -1389.751          41.150          41.000



 130167809.666 6 101241613.491 6  24376247.820
  24376244.200        4118.282        3203.108          39.950          37.100



 124060333.855 7  96491389.489 6  23273396.320
  23273395.920       -3961.920       -3081.494          42.650          39.000



 106872818.978 7  83123319.588 6  19999784.260
  19999785.160       -2177.704       -1693.771          46.350          41.850



 106892665.723 7  83138745.880 7  20010532.880
  20010532.200        2386.914        1856.488          44.250          44.000



 103878027.642 8  80794028.729 8  19412087.080
  19412085.060       -1216.378        -946.071          48.300          48.950



 107438726.296 8  83563468.928 8  20126892.260
  20126892.080        2790.125        2170.099          48.000          48.250



 130993685.404 6 101883980.355 6  24487888.580
  24487887.780        4429.553        3445.206          36.300          36.650



 121531416.087 6  94524430.297 5  22726981.740
  22726978.620       -4074.899       -3169.365          37.850          31.300



 123480091.476 8                  23497471.520
                      -765.495                          52.000
  92209179.506 8  23497470.220        -571.648          52.400    94614623.491 8
  23497466.860        -586.578          53.050    93411901.315 8  23497468.860
      -579.117          51.150
 148402044.801 7                  28239970.340
                      -557.875                          45.100
 110819707.073 7  28239969.800        -416.676          44.250   113710645.587 7
  28239965.800        -427.574          45.650   112265174.646 6  28239968.120
      -422.053          40.700
 139410463.293 7                  26528929.960
                     -2294.611                          44.500
 104105214.127 7  26528929.200       -1713.634          43.000   106820991.148 7
  26528926.700       -1758.307          44.900   105463099.453 6  26528928.840
     -1735.975          39.750
 114200894.378 8                  21731702.580
                        98.159                          51.800
  85279907.585 8  21731702.740          73.260          52.200    87504580.512 8
  21731700.020          75.194          53.050    86392245.865 8  21731701.460
        74.238          51.050
 18  1 21 21  3 30.0000000  0 24G02G05G12G14G21G23G25G26G29G31G32R07
                                R09R14R15R16R17R18R19R24E01E05E09E26
 126271686.326 7  98393488.99146  24028699.820
  24028689.780       -2290.850       -1785.076          44.950          36.500



 133019894.707 7 103651850.72345  25312843.620
  25312836.340        2355.565        1835.505          42.000          31.050



 125182164.276 7  97544534.31146  23821366.920
  23821357.840       -3185.928       -2482.543          46.050          37.050



 124853741.977 6  97288583.54445  23758878.200
  23758871.020       -2638.975       -2056.346          41.650          35.700



 124704031.713 7  97171944.91946  23730388.440
  23730380.900        3215.435        2505.534          43.650          37.050



 135383522.485 6 105493618.11444  25762628.320
  25762617.460        1889.531        1472.362          40.150          29.100



 110946518.129 8  86451837.43747  21112410.400
  21112405.500       -1846.300       -1438.676          50.500          47.550
  82849696.863 8  21112407.940       -1378.776          52.750


 121973150.816 7  95044012.89846  23210718.680
  23210715.140        2973.697        2317.169          44.750          40.200
  91083841.454 8  23210715.160        2220.601          49.450


 105433997.752 8  82156336.65648  20063416.060
  20063409.000        -347.098        -270.465          51.200          49.450



 109923704.850 8  85654804.41747  20917782.860
  20917775.000         571.592         445.396          50.400          47.150



 132287123.685 6 103080848.11645  25173401.200
  25173397.660       -3279.606       -2555.544          41.200          33.500
  98785821.655 7  25173398.480       -2449.224          45.800


 127729073.246 6  99344842.859 6  23860867.380
  23860865.500       -1807.815       -1406.077          41.500          41.050



 130044245.896 6 101145508.338 6  24353108.160
  24353104.900        4119.484        3204.044          38.500          38.250



 124179286.737 7  96583908.375 6  23295711.820
  23295711.240       -3968.268       -3086.430          43.350          39.000



 106938424.836 7  83174346.349 7  20012061.280
  20012062.420       -2195.868       -1707.898          45.900          42.100



 106821290.348 7  83083231.699 7  19997171.500
  19997170.520        2371.324        1844.364          44.500          44.500



 103914862.390 8  80822677.981 8  19418970.500
  19418968.560       -1239.271        -963.877          48.300          49.200



 107355310.410 7  83498589.938 8  20111265.580
  20111265.440        2770.933        2155.171          47.800          48.300



 130860835.970 6 101780653.057 6  24463053.980
  24463053.100        4427.068        3443.274          36.400          36.600



 121653751.679 6  94619580.206 5  22749859.080
  22749856.100       -4080.929       -3174.055          37.000          30.800



 123503207.074 8                  23501870.380
                      -775.484                          51.950
  92226441.145 8  23501869.020        -579.145          52.400    94632335.441 8
  23501865.680        -594.289          53.050    93429388.112 8  23501867.640
      -586.701          51.200
 148418986.736 7                  28243194.580
                      -571.658                          45.300
 110832358.512 7  28243193.380        -426.710          44.200   113723627.081 7
  28243189.640        -437.990          45.850   112277991.125 6  28243192.040
      -432.508          40.950
 139479393.593 7                  26542046.940
                     -2300.332                          44.650
 104156687.996 7  26542046.800       -1717.966          42.850   106873807.819 7
  26542043.900       -1762.807          45.000   105515244.724 6  26542045.840
     -1740.310          39.650
 114198153.753 8                  21731181.100
                        84.610                          51.800
  85277861.027 8  21731181.160          63.099          52.150    87502480.559 8
  21731178.420          64.771          53.050    86390172.611 8  21731179.940
        63.913          51.050
 18  1 21 21  4  0.0000000  0 24G02G05G12G14G21G23G25G26G29G31G32R07
                                R09R14R15R16R17R18R19R24E01E05E09E26
 126340588.205 7  98447178.76446  24041811.420
  24041801.440       -2302.854       -1794.432          44.350          36.250



 132949365.948 7 103596893.28245  25299422.540
  25299415.060        2346.165        1828.182          42.050          34.000



 125277799.571 7  97619055.30646  23839565.580
  23839556.480       -3189.768       -2485.533          45.750          37.050



 124933047.147 6  97350379.76846  23773969.460
  23773962.280       -2648.113       -2063.462          41.700          36.550



 124607653.685 7  97096845.17945  23712048.300
  23712040.720        3209.756        2501.110          43.850          35.700



 135327043.006 6 105449608.07744  25751881.180
  25751870.220        1875.300        1461.266          40.850          26.150



 111002071.713 8  86495125.93247  21122981.860
  21122977.100       -1857.447       -1447.361          50.650          47.100
  82891181.662 8  21122979.560       -1386.978          52.700


 121884002.134 7  94974546.39946  23193754.300
  23193750.660        2969.322        2313.760          44.900          40.550
  91017269.380 8  23193750.560        2217.467          49.600


 105444653.101 8  82164639.52848  20065443.940
  20065436.720        -363.354        -283.133          51.300          49.200



 109906834.683 8  85641658.83047  20914572.580
  20914564.780         553.014         430.921          50.550          47.050



 132385518.867 6 103157519.69145  25192125.280
  25192121.620       -3280.180       -2555.984          41.050          32.900
  98859298.560 7  25192122.240       -2449.310          46.350


 127783630.688 6  99387276.448 6  23871059.260
  23871057.600       -1829.352       -1422.827          41.300          41.750



 129920643.882 6 101049373.465 6  24329961.160
  24329958.380        4120.541        3204.866          39.950          38.700



 124298437.858 7  96676581.469 6  23318064.500
  23318063.560       -3975.247       -3091.858          43.250          39.350



 107004578.649 7  83225799.312 7  20024441.020
  20024442.200       -2214.446       -1722.347          46.350          42.250



 106750385.573 7  83028083.547 7  19983897.820
  19983897.020        2355.469        1832.032          44.500          44.500



 103952383.533 8  80851861.095 8  19425982.220
  19425980.320       -1262.312        -981.798          48.400          49.150



 107272479.031 7  83434165.559 8  20095748.400
  20095748.180        2751.119        2139.762          47.600          48.200



 130728057.171 6 101677380.623 6  24438232.360
  24438231.840        4424.559        3441.322          38.200          37.200



 121776274.894 6  94714876.033 5  22772771.160
  22772768.580       -4087.633       -3179.270          37.850          31.200



 123526626.182 8                  23506326.920
                      -785.862                          52.000
  92243929.434 8  23506325.480        -586.827          52.350    94650279.942 8
  23506322.300        -602.135          53.100    93447104.503 8  23506324.160
      -594.479          51.350
 148436333.495 7                  28246495.660
                      -584.977                          45.100
 110845312.253 7  28246493.820        -436.771          44.000   113736918.758 7
  28246490.700        -448.327          46.600   112291113.826 6  28246493.200
      -442.571          41.500
 139548498.321 7                  26555197.140
                     -2306.494                          42.950
 104208292.178 6  26555196.980       -1722.542          41.650   106926758.191 7
  26555194.180       -1767.208          44.050   105567522.000 6  26555196.040
     -1744.810          38.750
 114195822.241 8                  21730737.420
                        70.753                          51.800
  85276119.964 8  21730737.420          52.839          52.150    87500694.080 8
  21730734.680          54.237          53.100    86388408.837 8  21730736.260
        53.539          51.200
 18  1 21 21  4 30.0000000  0 24G02G05G12G14G21G23G25G26G29G31G32R07
                                R09R14R15R16R17R18R19R24E01E05E09E26
 126409842.423 7  98501143.09046  24054990.040
  24054980.220       -2314.423       -1803.445          44.050          37.900



 132879110.814 6 103542149.06345  25286053.280
  25286045.320        2337.070        1821.094          41.600          30.200



 125373541.782 7  97693659.59546  23857784.500
  23857775.580       -3193.090       -2488.122          45.750          37.350



 125012623.692 6  97412387.43445  23789112.320
  23789105.300       -2657.215       -2070.556          41.800          34.650



 124511441.427 7  97021874.60046  23693739.820
  23693732.040        3204.242        2496.813          44.250          37.050



 135270986.473 6 105405927.70344  25741214.080
  25741202.920        1861.317        1450.379          40.500          29.800



 111057950.922 8  86538668.16347  21133615.340
  21133610.640       -1868.034       -1455.611          50.650          47.350
  82932909.638 8  21133613.060       -1394.911          52.750


 121794979.098 7  94905177.80646  23176813.880
  23176810.040        2965.234        2310.573          44.800          39.100
  90950791.149 8  23176809.900        2214.372          49.800


 105455791.937 8  82173319.14248  20067563.680
  20067556.440        -379.366        -295.610          51.250          49.250



 109890515.383 8  85628942.47947  20911467.200
  20911459.360         534.724         416.667          50.600          47.200



 132483918.066 6 103234194.39146  25210850.000
  25210846.160       -3279.960       -2555.810          41.200          36.150
  98932778.454 7  25210846.900       -2449.258          46.100


 127838819.225 6  99430200.848 6  23881369.180
  23881367.140       -1850.083       -1438.953          41.850          41.150



 129797006.530 6 100953211.033 6  24306807.680
  24306805.480        4121.612        3205.696          39.350          39.050



 124417785.794 7  96769407.628 6  23340454.160
  23340453.040       -3981.613       -3096.812          43.450          39.750



 107071280.863 7  83277678.787 7  20036923.400
  20036924.660       -2232.576       -1736.449          46.250          42.050



 106679955.058 7  82973304.249 7  19970712.940
  19970712.380        2339.687        1819.756          43.600          44.700



 103990589.034 8  80881576.489 8  19433121.820
  19433119.940       -1284.974        -999.424          48.400          49.150



 107190234.820 7  83370197.861 7  20080341.120
  20080341.040        2731.615        2124.590          47.650          47.950



 130595352.492 6 101574165.875 6  24413424.760
  24413424.180        4422.351        3439.607          36.500          37.600



 121898983.115 6  94810315.757 5  22795717.960
  22795715.680       -4093.496       -3183.831          37.000          31.100



 123550349.619 8                  23510841.260
                      -795.840                          51.950
  92261644.976 8  23510839.920        -594.288          52.450    94668457.630 8
  23510836.740        -609.779          53.150    93465051.124 8  23510838.580
      -602.034          51.400
 148454085.055 7                  28249873.800
                      -598.441                          45.650
 110858568.282 7  28249871.480        -446.900          44.500   113750520.582 7
  28249868.860        -458.578          46.800   112304542.746 6  28249871.200
      -452.701          41.800
 139617776.284 7                  26568380.360
                     -2312.212                          44.950
 104260025.704 7  26568380.380       -1726.647          42.400   106979841.296 7
  26568377.580       -1771.579          44.950   105619930.325 6  26568379.280
     -1749.164          39.650
 114193900.004 8                  21730371.620
                        57.329                          51.800
  85274684.536 8  21730371.580          42.778          52.250    87499221.207 8
  21730368.820          43.901          53.100    86386954.689 8  21730370.480
        43.333          51.250
 18  1 21 21  5  0.0000000  0 24G02G05G12G14G21G23G25G26G29G31G32R07
                                R09R14R15R16R17R18R19R24E01E05E09E26
 126479445.822 7  98555379.50946  24068235.280
  24068225.260       -2325.907       -1812.396          45.250          38.200



 132809131.577 6 103487619.81245  25272736.480
  25272728.360        2328.181        1814.172          41.850          30.600



 125469390.655 7  97768346.99446  23876023.880
  23876014.960       -3196.657       -2490.903          45.850          37.000



 125092467.500 6  97474603.35445  23804306.100
  23804299.000       -2665.879       -2077.310          41.800          34.500



 124415396.407 7  96947034.33846  23675463.120
  23675455.080        3198.817        2492.586          43.650          36.350



 135215353.648 6 105362577.48345  25730627.060
  25730616.220        1847.425        1439.559          40.550          31.000



 111114154.010 8  86582462.76847  21144310.380
  21144305.820       -1878.812       -1464.011          50.550          47.150
  82974879.470 8  21144308.100       -1402.979          52.750


 121706081.713 7  94835907.13446  23159897.200
  23159893.360        2961.199        2307.429          44.650          38.800
  90884406.759 8  23159893.360        2211.297          49.850


 105467412.008 8  82182373.74548  20069774.860
  20069767.620        -395.255        -307.991          51.200          49.050



 109874746.806 8  85616655.27547  20908466.660
  20908458.740         516.535         402.494          50.750          46.900



 132582317.202 6 103310869.04345  25229575.080
  25229571.020       -3279.797       -2555.686          41.500          33.000
  99006258.325 7  25229571.800       -2449.190          46.350


 127894635.013 7  99473613.141 6  23891796.320
  23891794.180       -1870.873       -1455.123          42.150          40.900



 129673334.434 6 100857021.648 6  24283647.540
  24283645.820        4122.993        3206.771          38.850          37.700



 124537327.370 7  96862384.381 6  23362879.940
  23362879.300       -3987.807       -3101.629          42.600          39.500



 107138528.212 7  83329982.274 6  20049507.820
  20049509.080       -2250.521       -1750.406          46.600          41.750



 106610001.018 7  82918895.554 7  19957617.380
  19957617.080        2323.874        1807.458          44.100          44.500



 104029475.288 8  80911821.355 8  19440388.580
  19440386.660       -1307.467       -1016.919          48.600          48.950



 107108578.476 8  83306687.389 7  20065044.140
  20065043.880        2712.060        2109.380          48.050          47.700



 130462723.058 6 101471009.629 6  24388631.260
  24388630.180        4419.780        3437.603          37.350          36.550



 122021871.256 6  94905895.405 5  22818698.100
  22818696.400       -4098.995       -3188.108          37.200          30.400



 123574376.495 8                  23515413.320
                      -805.837                          51.950
  92279587.118 8  23515412.140        -601.813          52.550    94686867.832 8
  23515408.960        -617.505          53.150    93483227.293 8  23515410.760
      -609.653          51.400
 148472239.581 7                  28253328.540
                      -611.854                          45.550
 110872125.206 7  28253326.100        -456.758          44.650   113764431.175 7
  28253323.740        -468.803          47.150   112318276.511 7  28253325.860
      -462.845          42.000
 139687224.218 7                  26581596.060
                     -2317.730                          44.000
 104311886.176 7  26581596.040       -1730.851          42.300   107033054.660 7
  26581593.040       -1775.795          43.500   105672467.244 6  26581594.700
     -1753.558          38.550
 114192385.477 8                  21730083.300
                        43.807                          51.750
  85273553.561 8  21730083.400          32.693          52.350    87498060.725 8
  21730080.520          33.566          53.100    86385808.961 8  21730082.280
        33.117          51.250
 18  1 21 21  5 30.0000000  0 24G02G05G12G14G21G23G25G26G29G31G32R07
                                R09R14R15R16R17R18R19R24E01E05E09E26
 126549397.665 7  98609887.43646  24081546.800
  24081536.760       -2337.515       -1821.438          44.600          37.600



 132739432.108 6 103433308.54945  25259473.000
  25259465.060        2318.510        1806.635          41.650          31.800



 125565346.349 7  97843117.64645  23894283.580
  23894274.680       -3200.354       -2493.782          45.900          35.300



 125172576.987 6  97537026.29845  23819550.400
  23819543.580       -2674.877       -2084.321          41.100          34.750



 124319521.556 7  96872326.66446  23657218.700
  23657210.600        3192.883        2487.961          43.850          36.850



 135160147.638 6 105319559.70045  25720121.360
  25720110.500        1832.825        1428.164          41.400          31.500



 111170681.644 8  86626510.26547  21155067.200
  21155062.600       -1889.697       -1472.490          50.650          47.100
  83017091.658 8  21155064.980       -1411.120          52.750


 121617312.421 7  94766736.26846  23143004.780
  23143001.100        2956.718        2303.938          44.650          40.050
  90818118.007 8  23143001.040        2207.981          49.950


 105479513.214 8  82191803.26348  20072077.660
  20072070.340        -411.472        -320.627          51.150          49.050



 109859531.177 8  85604798.93547  20905571.300
  20905563.300         497.803         387.898          50.700          47.250



 132680714.725 6 103387542.39245  25248299.540
  25248295.420       -3279.940       -2555.797          41.600          33.350
  99079736.953 7  25248296.260       -2449.235          46.350


 127951076.320 6  99517511.932 6  23902340.240
  23902337.500       -1891.941       -1471.510          41.650          40.500



 129549631.190 6 100760807.976 6  24260481.740
  24260480.020        4123.604        3207.246          39.050          38.700



 124657061.790 7  96955511.138 6  23385341.940
  23385341.300       -3994.535       -3106.861          42.950          39.700



 107206321.398 7  83382710.291 7  20062194.420
  20062195.600       -2268.949       -1764.738          46.200          42.250



 106540527.627 7  82864860.694 7  19944611.880
  19944611.580        2307.653        1794.843          44.300          44.650



 104069041.166 8  80942594.817 8  19447782.340
  19447780.500       -1330.263       -1034.648          48.200          49.050



 107027513.669 7  83243636.994 7  20049857.960
  20049857.680        2692.158        2093.902          47.850          47.850



 130330172.937 6 101367915.095 6  24363852.880
  24363851.380        4416.904        3435.370          37.750          37.300



 122144937.264 6  95001613.416 5  22841711.840
  22841710.320       -4105.263       -3192.979          36.900          30.900



 123598708.318 8                  23520043.460
                      -816.285                          51.850
  92297756.972 8  23520042.300        -609.540          52.600    94705511.678 8
  23520039.240        -625.418          53.100    93501634.146 8  23520040.980
      -617.483          51.350
 148490797.587 7                  28256859.580
                      -625.400                          44.700
 110885983.466 7  28256857.780        -467.046          44.250   113778650.940 7
  28256855.620        -479.259          46.950   112332315.518 6  28256857.280
      -473.048          41.700
 139756841.451 7                  26594843.960
                     -2323.413                          44.400
 104363873.018 7  26594844.200       -1734.923          44.100   107086397.713 7
  26594840.900       -1780.160          45.350   105725132.195 6  26594842.720
     -1757.590          40.400
 114191279.515 8                  21729872.700
                        30.035                          51.700
  85272727.681 8  21729872.980          22.429          52.350    87497213.304 8
  21729870.000          22.975          53.050    86384972.310 8  21729871.820
        22.705          51.150
 18  1 21 21  6  0.0000000  0 24G02G05G12G14G21G23G25G26G29G31G32R07
                                R09R14R15R16R17R18R19R24E01E05E09E26
 126619695.267 7  98664664.79946  24094924.060
  24094913.920       -2348.902       -1830.312          44.250          37.750



 132670014.390 6 103379216.88244  25246262.780
  25246255.280        2309.492        1799.604          40.600          28.950



 125661407.005 7  97917970.07546  23912563.000
  23912554.220       -3203.690       -2496.384          45.350          37.100



 125252948.385 6  97599653.35145  23834844.600
  23834837.860       -2683.395       -2090.959          41.100          35.550



 124223819.050 7  96797753.30946  23639007.120
  23638998.960        3187.171        2483.512          43.600          37.300



 135105369.369 6 105276875.38944  25709697.280
  25709687.180        1818.569        1417.065          41.200          25.550



 111227532.365 8  86670809.52647  21165885.640
  21165880.860       -1900.410       -1480.839          50.600          47.500
  83059545.111 8  21165883.320       -1419.126          52.650


 121528671.526 7  94697665.44946  23126136.880
  23126133.380        2952.490        2300.644          44.400          39.550
  90751925.140 8  23126133.160        2204.843          49.750


 105492094.197 8  82201606.63448  20074471.720
  20074464.440        -427.403        -333.041          50.900          49.200



 109844868.324 8  85593373.32947  20902781.080
  20902773.060         479.463         373.607          50.550          47.300



 132779106.848 6 103464211.55045  25267022.820
  25267018.820       -3279.556       -2555.502          41.500          33.600
  99153211.573 7  25267019.600       -2449.096          45.800


 128008139.153 6  99561894.139 6  23912999.840
  23912996.840       -1912.517       -1487.512          41.000          40.000



 129425898.048 6 100664571.092 6  24237310.480
  24237308.680        4125.187        3208.479          38.750          40.300



 124776986.138 7  97048785.602 6  23407839.440
  23407838.500       -4000.700       -3111.656          43.400          39.850



 107274658.153 7  83435861.091 7  20074982.620
  20074983.980       -2286.849       -1778.660          46.450          42.050



 106471536.992 7  82811201.315 7  19931696.800
  19931696.240        2291.583        1782.343          44.450          44.800



 104109283.350 8  80973894.296 8  19455302.600
  19455300.600       -1352.692       -1052.093          48.250          49.150



 106947041.585 8  83181047.612 8  20034782.860
  20034782.560        2672.462        2078.582          48.100          48.100



 130197703.479 6 101264883.272 6  24339089.040
  24339087.460        4414.042        3433.142          37.950          37.000



 122268177.110 6  95097466.625 5  22864758.340
  22864756.900       -4110.604       -3197.136          36.600          31.550



 123623344.518 8                  23524731.540
                      -826.312                          51.800
  92316154.129 8  23524730.400        -617.066          52.550    94724388.763 8
  23524727.380        -633.126          53.050    93520271.261 8  23524729.120
      -625.068          51.150
 148509757.626 7                  28260467.120
                      -638.768                          44.650
 110900141.931 7  28260466.040        -476.869          44.050   113793178.770 7
  28260463.820        -489.383          46.600   112346658.664 6  28260465.240
      -483.094          41.150
 139826625.101 6                  26608123.580
                     -2329.092                          41.200
 104415984.185 7  26608124.000       -1739.094          42.450   107139868.297 7
  26608120.160       -1784.480          44.150   105777923.061 6  26608122.140
     -1761.795          39.000
 114190580.885 8                  21729739.640
                        16.474                          51.600
  85272205.984 8  21729740.020          12.312          52.300    87496677.996 8
  21729737.000          12.634          53.000    86384443.809 8  21729738.880
        12.472          50.950
 18  1 21 21  6 30.0000000  0 24G02G05G12G14G21G23G25G26G29G31G32R07
                                R09R14R15R16R17R18R19R24E01E05E09E26
 126690339.174 7  98719711.99546  24108367.220
  24108357.060       -2360.256       -1839.160          44.500          37.500



 132600884.877 6 103325349.76245  25233107.460
  25233100.460        2300.289        1792.436          40.950          30.250



 125757574.858 7  97992906.03546  23930862.760
  23930854.340       -3207.084       -2499.027          45.000          36.800



 125333581.337 6  97662484.21245  23850188.600
  23850181.720       -2691.606       -2097.354          40.750          35.600



 124128294.681 7  96723318.74246  23620829.420
  23620821.360        3181.440        2479.043          44.200          36.550



 135051023.166 6 105234527.63644  25699355.240
  25699345.940        1804.846        1406.370          41.650          29.500



 111284708.415 8  86715362.27647  21176766.020
  21176761.080       -1910.843       -1488.969          50.550          47.200
  83102241.500 8  21176763.520       -1426.938          52.650


 121440163.102 7  94628697.84846  23109294.220
  23109290.680        2948.559        2297.577          44.750          39.850
  90685831.207 8  23109290.560        2201.739          49.900


 105505156.568 8  82211785.09548  20076957.200
  20076950.140        -443.025        -345.215          50.750          48.900



 109830762.101 8  85582381.45747  20900096.800
  20900088.680         461.348         359.491          50.600          47.100



 132877493.616 6 103540876.56545  25285745.140
  25285740.880       -3278.927       -2555.007          41.800          34.450
  99226682.178 7  25285741.940       -2448.681          45.750


 128065823.491 6  99606759.746 6  23923775.800
  23923772.580       -1932.677       -1503.192          40.000          39.850



 129302140.027 6 100568314.868 6  24214134.580
  24214132.860        4125.972        3209.090          38.600          39.300



 124897101.614 7  97142208.716 6  23430372.740
  23430372.060       -4006.544       -3116.201          42.300          40.200



 107343540.658 7  83489436.347 6  20087873.040
  20087874.440       -2304.776       -1792.604          45.900          41.950



 106403035.070 7  82757922.036 7  19918873.180
  19918872.520        2275.577        1769.894          43.800          44.700



 104150201.963 7  81005719.882 8  19462949.120
  19462947.220       -1374.733       -1069.237          47.900          49.000



 106867167.021 8  83118922.949 8  20019819.780
  20019819.480        2652.962        2063.415          48.100          48.200



 130065320.616 6 101161918.868 5  24314341.380
  24314339.380        4411.729        3431.346          38.050          35.600



 122391590.100 6  95193454.481 5  22887837.160
  22887835.840       -4115.967       -3201.308          36.050          31.600



 123648288.214 8                  23529478.140
                      -836.131                          51.800
  92334780.899 8  23529477.080        -624.441          52.550    94743501.453 8
  23529474.020        -640.702          53.100    93539140.997 8  23529475.760
      -632.573          51.300
 148529121.838 7                  28264151.840
                      -651.802                          44.600
 110914602.225 7  28264151.360        -486.821          44.700   113808016.289 7
  28264148.900        -499.468          47.200   112361307.581 6  28264150.200
      -493.157          41.950
 139896576.142 7                  26621434.860
                     -2334.116                          43.200
 104468220.293 7  26621435.500       -1742.940          42.350   107193467.056 7
  26621431.600       -1788.341          44.250   105830840.492 6  26621433.140
     -1765.671          39.050
 114190292.007 8                  21729684.560
                         3.164                          51.600
  85271990.262 8  21729685.100           2.364          52.350    87496456.648 8
  21729681.960           2.449          53.000    86384225.273 8  21729683.900
         2.410          51.000
 18  1 21 21  7  0.0000000  0 25G02G05G12G14G21G23G25G26G29G31G32R07
                                R08R09R14R15R16R17R18R19R24E01E05E09
                                E26
 126761319.976 7  98775021.70946  24121874.420
  24121864.360       -2372.257       -1848.513          44.300          36.300



 132532039.114 6 103271703.73845  25220006.360
  25219999.740        2289.295        1783.867          41.050          31.850



 125853841.640 7  98067919.08446  23949181.320
  23949173.480       -3211.260       -2502.283          44.700          36.300



 125414465.752 6  97725510.98645  23865580.300
  23865573.560       -2701.335       -2104.937          40.500          33.350



 124032942.630 7  96649018.47346  23602684.400
  23602676.540        3174.879        2473.932          44.100          36.300



 134997103.315 6 105192512.17945  25689094.520
  25689085.600        1789.577        1394.479          41.100          30.900



 111342201.750 8  86760162.27147  21187706.720
  21187701.680       -1922.351       -1497.937          50.650          47.100
  83145174.823 8  21187704.080       -1435.543          52.650


 121351780.879 7  94559828.58746  23092475.480
  23092472.040        2943.299        2293.479          44.850          39.400
  90619831.495 8  23092472.060        2197.917          50.000


 105518691.845 8  82222332.06848  20079532.760
  20079525.800        -459.701        -358.209          50.850          48.900



 109817205.975 8  85571818.23647  20897517.140
  20897509.040         442.064         344.465          50.600          47.050



 132975864.604 6 103617529.26645  25304464.520
  25304460.140       -3279.523       -2555.471          41.050          31.950
  99300141.033 7  25304461.380       -2448.980          45.700


 128124118.696 6  99652100.458 6  23934665.420
  23934662.640       -1954.100       -1519.854          39.600          40.250



 127873269.578 5  99456974.224 6  23879429.900
  23879428.080         921.285         716.555          33.850          41.350



 129178351.870 6 100472035.174 6  24190953.140
  24190951.380        4125.768        3208.932          38.900          39.500



 125017398.184 7  97235772.690 6  23452940.040
  23452939.800       -4013.638       -3121.720          42.700          39.600



 107412959.891 7  83543429.069 6  20100863.980
  20100865.340       -2323.630       -1807.269          46.150          41.750



 106335017.565 7  82705019.547 7  19906140.020
  19906139.560        2258.427        1756.555          43.950          44.700



 104191787.024 7  81038063.822 8  19470720.180
  19470718.280       -1397.884       -1087.243          47.900          48.950



 106787884.525 8  83057258.792 8  20004967.600
  20004967.220        2632.192        2047.261          48.000          48.300



 129933019.141 6 101059017.704 5  24289608.620
  24289606.280        4407.771        3428.268          37.750          35.250



 122515165.113 6  95289568.397 5  22910946.380
  22910944.880       -4122.753       -3206.584          36.000          30.400



 123673532.201 8                  23534281.840
                      -847.125                          51.800
  92353631.920 8  23534280.840        -632.644          52.550    94762844.244 8
  23534277.780        -649.137          53.050    93558237.899 8  23534279.560
      -640.865          51.250
 148548882.035 7                  28267912.100
                      -665.895                          44.850
 110929358.227 7  28267912.040        -497.276          44.250   113823157.241 7
  28267909.300        -510.313          47.300   112376256.053 6  28267910.440
      -503.790          41.800
 139966685.157 7                  26634776.060
                     -2340.549                          42.250
 104520574.375 7  26634776.800       -1747.695          42.100   107247186.913 7
  26634772.540       -1793.261          43.850   105883877.453 6  26634774.440
     -1770.319          38.500
 114190405.006 8                  21729706.080
                       -11.220                          51.650
  85272074.648 8  21729706.680          -8.335          52.350    87496543.234 8
  21729703.440          -8.562          53.000    86384310.760 8  21729705.400
        -8.452          51.000
 18  1 21 21  7 30.0000000  0 25G02G05G12G14G21G23G25G26G29G31G32R07
                                R08R09R14R15R16R17R18R19R24E01E05E09
                                E26
 126832642.035 7  98830597.34146  24135446.620
  24135436.600       -2383.369       -1857.171          44.300          38.250



 132463485.802 6 103218285.60745  25206960.980
  25206954.540        2279.919        1776.561          41.350          34.050



 125950212.524 7  98143013.25246  23967519.780
  23967512.220       -3214.463       -2504.779          44.150          38.400



 125495604.693 6  97788736.13145  23881020.440
  23881013.900       -2709.155       -2111.028          40.650          33.150



 123937772.124 7  96574859.65845  23584573.940
  23584566.200        3169.090        2469.420          44.050          35.950



 134943618.339 6 105150835.52645  25678916.560
  25678907.800        1775.196        1383.267          40.500          32.250



 111400018.063 8  86805213.92947  21198708.840
  21198703.860       -1932.852       -1506.118          50.550          47.300
  83188349.328 8  21198706.100       -1443.319          52.650


 121263532.327 7  94491063.50046  23075682.360
  23075678.740        2939.089        2290.200          45.250          39.950
  90553931.618 8  23075679.000        2194.781          50.250


 105532705.167 8  82233251.54148  20082199.400
  20082192.360        -475.316        -370.376          50.850          48.950



 109804207.067 8  85561689.21447  20895043.560
  20895035.460         423.757         330.200          50.600          46.950



 133074223.358 6 103694172.42045  25323181.320
  25323177.620       -3278.430       -2554.619          41.050          34.900
  99373590.724 7  25323178.420       -2448.272          45.450


 128183028.466 6  99697919.162 6  23945670.000
  23945667.840       -1974.114       -1535.422          40.150          40.900



 127845993.295 5  99435759.347 6  23874336.600
  23874334.080         896.903         697.592          33.900          41.350



 129054542.012 6 100375738.636 6  24167767.600
  24167765.540        4126.895        3209.811          38.200          39.950



 125137880.448 7  97329481.097 6  23475542.340
  23475541.940       -4019.494       -3126.273          43.400          38.550



 107482921.322 7  83597843.499 6  20113956.380
  20113957.640       -2341.292       -1821.005          46.650          41.650



 106267493.818 7  82652501.077 7  19893499.240
  19893499.100        2242.282        1743.998          44.200          44.850



 104234042.416 8  81070929.125 8  19478616.620
  19478614.820       -1419.937       -1104.396          48.100          49.100



 106709202.525 8  82996061.696 8  19990227.780
  19990227.620        2612.366        2031.841          48.100          48.350



 129800808.229 6 100956187.030 5  24264892.960
  24264890.420        4405.225        3426.286          38.200          35.650



 122638905.240 6  95385810.705 5  22934086.180
  22934085.160       -4127.565       -3210.328          36.600          31.100



 123699083.014 8                  23539143.980
                      -857.101                          51.750
  92372712.063 8  23539143.000        -639.963          52.600    94782422.129 8
  23539139.960        -656.652          53.100    93577566.913 8  23539141.720
      -648.317          51.300
 148569043.869 7                  28271748.840
                      -678.898                          44.650
 110944414.142 7  28271748.720        -507.088          44.350   113838605.883 7
  28271745.920        -520.152          46.850   112391508.326 6  28271747.000
      -513.544          41.350
 140036956.551 7                  26648148.700
                     -2345.244                          43.900
 104573049.727 7  26648149.100       -1751.358          42.750   107301031.209 7
  26648144.900       -1796.917          45.500   105937037.284 6  26648146.900
     -1774.140          39.900
 114190925.712 8                  21729805.180
                       -24.426                          51.650
  85272463.495 8  21729805.760         -18.210          52.400    87496942.226 8
  21729802.500         -18.656          53.000    86384704.676 8  21729804.500
       -18.411          51.050
 18  1 21 21  8  0.0000000  0 25G02G05G12G14G21G23G25G26G29G31G32R07
                                R08R09R14R15R16R17R18R19R24E01E05E09
                                E26
 126904303.111 7  98886437.13346  24149083.360
  24149073.320       -2394.323       -1865.707          44.600          38.600



 132395227.918 6 103165097.68245  25193971.820
  25193965.680        2270.366        1769.120          41.150          30.350



 126046687.164 7  98218188.27646  23985877.980
  23985870.960       -3217.527       -2507.165          43.800          36.950



 125576994.971 6  97852157.05546  23896508.320
  23896502.220       -2717.117       -2117.237          40.150          37.500



 123842785.072 7  96500843.77346  23566498.340
  23566490.580        3163.027        2464.695          44.300          36.000



 134890569.266 6 105109498.59045  25668821.600
  25668812.960        1760.850        1372.089          40.850          33.700



 111458156.494 8  86850516.58847  21209772.320
  21209767.300       -1943.294       -1514.256          50.650          46.850
  83231764.382 8  21209769.360       -1451.157          52.650


 121175418.478 7  94422403.34546  23058914.960
  23058911.080        2934.890        2286.927          45.750          40.300
  90488132.323 8  23058911.520        2191.674          50.350


 105547195.141 8  82244542.42748  20084956.760
  20084949.660        -490.925        -382.539          50.800          48.900



 109791765.694 8  85551994.62247  20892676.000
  20892667.920         405.366         315.869          50.600          47.050



 133172566.767 6 103770803.61145  25341895.300
  25341892.040       -3277.734       -2554.083          41.350          33.800
  99447028.954 7  25341892.720       -2447.595          45.850


 128242548.915 6  99744212.841 6  23956788.720
  23956786.820       -1994.223       -1551.063          39.800          40.900



 127819440.051 5  99415106.824 6  23869376.880
  23869375.200         873.234         679.182          33.850          40.950



 128930712.668 6 100279426.878 6  24144578.620
  24144576.100        4128.104        3210.743          41.500          39.350



 125258546.131 7  97423332.173 6  23498179.140
  23498178.240       -4025.188       -3130.702          42.800          38.700



 107553423.362 7  83652678.394 6  20127150.000
  20127151.060       -2358.929       -1834.724          46.700          41.500



 106200466.444 7  82600368.667 7  19880951.580
  19880951.400        2226.048        1731.370          44.250          44.800



 104276965.306 8  81104313.597 8  19486637.780
  19486636.000       -1441.855       -1121.443          48.050          49.000



 106631122.654 8  82935332.913 8  19975600.660
  19975600.600        2592.660        2016.514          48.100          48.350



 129668690.126 6 100853428.559 6  24240194.660
  24240192.220        4402.461        3424.138          38.300          36.650



 122762807.054 6  95482178.764 5  22957256.280
  22957255.560       -4133.266       -3214.763          36.950          31.000



 123724940.729 8                  23544064.540
                      -867.041                          51.850
  92392021.383 8  23544063.560        -647.424          52.650    94802235.173 8
  23544060.500        -664.318          53.100    93597128.095 8  23544062.300
      -655.854          51.350
 148589606.342 7                  28275661.880
                      -692.293                          45.300
 110959769.208 7  28275661.500        -516.757          44.050   113854361.522 7
  28275658.660        -530.196          46.900   112407063.676 6  28275659.880
      -523.436          41.400
 140107388.059 7                  26661550.940
                     -2350.462                          43.650
 104625644.675 6  26661551.280       -1755.118          41.350   107354998.197 7
  26661547.480       -1800.896          44.000   105990318.257 6  26661549.560
     -1778.084          38.350
 114191853.510 8                  21729981.820
                       -37.771                          51.750
  85273156.335 8  21729982.260         -28.129          52.450    87497653.140 8
  21729979.040         -28.870          53.050    86385406.553 8  21729981.040
       -28.515          51.100
 18  1 21 21  8 30.0000000  0 25G02G05G12G14G21G23G25G26G29G31G32R07
                                R08R09R14R15R16R17R18R19R24E01E05E09
                                E26
 126976297.471 7  98942536.63346  24162783.460
  24162773.480       -2405.405       -1874.342          44.250          38.100



 132327264.500 7 103112139.20545  25181038.920
  25181032.940        2260.339        1761.304          42.350          34.050



 126143260.835 7  98293440.44645  24004255.040
  24004248.480       -3220.776       -2509.698          43.600          34.550



 125658630.074 6  97915768.78946  23912042.900
  23912036.960       -2725.401       -2123.692          39.800          38.600



 123747980.115 7  96426969.80546  23548457.400
  23548449.720        3157.020        2460.018          43.950          36.800



 134837954.148 6 105068499.79445  25658809.300
  25658800.320        1746.490        1360.899          41.300          31.350



 111516612.738 8  86896066.89847  21220896.200
  21220891.140       -1953.926       -1522.539          50.750          47.200
  83275416.759 8  21220893.100       -1459.156          52.500


 121087436.798 7  94353846.18846  23042172.800
  23042168.680        2930.394        2283.424          46.050          40.100
  90422431.708 8  23042169.220        2188.261          50.200


 105562157.123 8  82256201.11248  20087803.900
  20087796.900        -506.697        -394.829          50.900          48.750



 109779879.198 8  85542732.41547  20890414.040
  20890405.980         386.802         301.404          50.600          46.950



 133270888.257 6 103847417.74345  25360605.140
  25360602.060       -3277.019       -2553.522          41.750          33.900
  99520450.821 7  25360602.820       -2447.190          45.300


 128302673.668 6  99790976.531 6  23968020.320
  23968018.680       -2014.426       -1566.774          40.050          40.100



 127793607.378 5  99395014.745 6  23864552.500
  23864551.000         848.779         660.162          33.950          40.900



 128806862.234 6 100183098.790 6  24121385.920
  24121383.140        4128.722        3211.229          40.750          40.700



 125379389.345 7  97517321.311 6  23520849.220
  23520848.480       -4031.029       -3135.246          43.050          39.900



 107624461.791 7  83707930.497 6  20140444.020
  20140445.020       -2377.064       -1848.828          46.700          41.150



 106133935.173 7  82548622.124 7  19868496.800
  19868496.500        2209.256        1718.310          44.450          44.650



 104320549.225 7  81138212.197 8  19494782.560
  19494780.660       -1463.869       -1138.565          47.900          49.100



 106553643.246 8  82875071.170 8  19961085.940
  19961086.080        2572.484        2000.822          48.050          48.350



 129536663.477 6 100750741.235 6  24215514.120
  24215511.300        4399.390        3421.751          38.100          37.450



 122886863.524 5  95578667.145 5  22980455.480
  22980454.680       -4137.990       -3218.436          35.500          30.700



 123751101.814 8                  23549042.860
                      -877.187                          51.900
  92411557.251 8  23549041.820        -655.112          52.500    94822280.670 8
  23549038.720        -672.157          53.100    93616918.776 8  23549040.600
      -663.616          51.400
 148610565.011 7                  28279650.420
                      -705.383                          45.900
 110975420.160 7  28279649.600        -526.644          44.400   113870420.772 7
  28279646.800        -540.392          46.850   112422918.778 6  28279648.240
      -533.573          41.700
 140177973.882 7                  26674983.340
                     -2355.665                          44.200
 104678354.862 6  26674983.280       -1758.956          41.300   107409083.440 7
  26674979.500       -1804.956          44.250   106043715.958 6  26674981.540
     -1781.840          38.650
 114193184.184 8                  21730235.060
                       -51.195                          51.800
  85274150.028 8  21730235.500         -38.253          52.300    87498672.752 8
  21730232.240         -39.244          53.050    86386413.206 8  21730234.260
       -38.741          51.200
 18  1 21 21  9  0.0000000  0 25G02G05G12G14G21G23G25G26G29G31G32R07
                                R08R09R14R15R16R17R18R19R24E01E05E09
                                E26
 127048624.373 7  98998895.24946  24176546.660
  24176536.880       -2416.163       -1882.726          43.500          38.350



 132259600.143 7 103059413.78645  25168163.120
  25168156.980        2250.937        1753.981          42.650          32.650



 126239934.393 7  98368770.45445  24022650.960
  24022644.660       -3223.948       -2512.171          43.500          35.750



 125740508.392 6  97979570.03546  23927623.740
  23927618.200       -2732.587       -2129.289          39.400          37.800



 123653361.265 7  96353240.84746  23530451.820
  23530444.240        3151.220        2455.495          44.050          36.250



 134785776.123 6 105027841.59345  25648880.240
  25648871.220        1732.249        1349.811          40.650          32.750



 111575387.596 8  86941865.48047  21232080.720
  21232075.600       -1964.072       -1530.446          50.650          47.100
  83319307.071 8  21232077.560       -1466.722          52.550


 120999589.941 7  94285394.09846  23025456.260
  23025451.940        2926.330        2280.258          45.850          41.500
  90356831.794 8  23025452.620        2185.203          50.500


 105577591.470 8  82268227.87548  20090740.960
  20090734.040        -521.976        -406.734          50.950          49.100



 109768549.683 8  85533904.21147  20888257.960
  20888250.040         368.710         287.307          50.400          47.250



 133369186.431 6 103924013.70845  25379310.600
  25379307.740       -3275.771       -2552.549          41.650          34.350
  99593855.299 7  25379308.340       -2446.216          45.300


 128363400.886 6  99838208.827 6  23979364.940
  23979363.140       -2034.060       -1582.046          40.800          40.950



 127768497.867 5  99375485.134 6  23859863.460
  23859861.880         825.313         641.911          34.850          40.150



 128682994.487 6 100086757.184 6  24098189.880
  24098186.860        4129.664        3211.960          40.800          40.050



 125500409.582 7  97611448.145 6  23543552.520
  23543552.000       -4036.513       -3139.511          44.600          40.250



 107696036.677 7  83763599.836 6  20153838.340
  20153839.080       -2394.404       -1862.315          46.800          41.050



 106067904.216 7  82497264.714 7  19856135.700
  19856135.220        2192.898        1705.588          44.750          44.600



 104364793.065 8  81172624.076 8  19503050.600
  19503048.700       -1485.484       -1155.377          48.100          49.050



 106476767.656 8  82815279.053 8  19946684.500
  19946684.580        2552.763        1985.482          48.000          48.050



 129404732.546 6 100648128.357 6  24190851.460
  24190848.480        4396.391        3419.416          39.700          38.200



 123011072.405 6  95675274.025 5  23003683.040
  23003682.380       -4142.425       -3221.887          36.100          30.750



 123777567.957 8                  23554079.200
                      -886.995                          51.800
  92431320.917 8  23554078.200        -662.353          52.600    94842559.916 8
  23554075.020        -679.633          53.150    93636940.235 8  23554076.940
      -671.001          51.400
 148631920.513 7                  28283714.320
                      -718.323                          44.800
 110991367.462 7  28283713.540        -536.308          44.400   113886784.093 7
  28283710.640        -550.184          46.450   112439074.105 6  28283712.060
      -543.372          41.350
 140248713.830 7                  26688444.340
                     -2360.356                          43.400
 104731180.094 6  26688444.380       -1762.371          39.950   107463286.710 7
  26688441.140       -1808.480          43.300   106097230.223 6  26688442.900
     -1785.419          37.550
 114194918.693 8                  21730565.200
                       -64.176                          51.750
  85275445.296 8  21730565.540         -47.987          52.350    87500001.807 8
  21730562.300         -49.228          53.050    86387725.368 8  21730564.300
       -48.589          51.150
 18  1 21 21  9 30.0000000  0 25G02G05G12G14G21G23G25G26G29G31G32R07
                                R08R09R14R15R16R17R18R19R24E01E05E09
                                E26
 127121282.672 7  99055512.10346  24190372.740
  24190363.220       -2427.198       -1891.323          43.150          37.650



 132192238.111 7 103006923.89545  25155344.860
  25155338.700        2240.420        1745.783          43.800          32.500



 126336707.214 7  98444177.83346  24041065.840
  24041060.060       -3227.269       -2514.752          43.050          36.950



 125822627.699 6  98043559.07345  23943250.400
  23943245.100       -2741.378       -2136.139          39.200          34.300



 123558931.447 7  96279659.17746  23512482.340
  23512474.880        3144.578        2450.319          43.950          37.800



 134734037.422 6 104987525.71645  25639034.760
  25639025.660        1717.204        1338.085          40.850          33.050



 111634481.000 8  86987912.28347  21243325.800
  21243320.780       -1975.039       -1538.992          50.700          47.050
  83363435.241 8  21243322.660       -1474.824          52.450


 120911879.684 7  94217048.45146  23008765.740
  23008761.340        2921.426        2276.437          46.050          41.500
  90291333.884 8  23008762.000        2181.607          50.300


 105593497.587 8  82280622.25948  20093767.920
  20093760.860        -537.934        -419.168          51.050          48.800



 109757778.508 8  85525511.08847  20886208.220
  20886200.300         349.856         272.615          50.650          46.800



 133467459.086 6 104000589.78045  25398011.180
  25398008.380       -3275.113       -2552.035          41.200          31.500
  99667240.681 7  25398009.140       -2445.686          45.600


 128424727.879 6  99885907.595 6  23990821.780
  23990819.640       -2054.013       -1597.566          40.850          41.950



 127744113.664 5  99356519.634 6  23855309.960
  23855308.560         800.665         622.740          34.950          40.500



 128559112.270 6  99990404.336 6  24074990.820
  24074987.720        4129.538        3211.860          40.800          39.750



 125621605.203 7  97705711.385 6  23566288.800
  23566288.380       -4042.639       -3144.275          44.550          40.400



 107768147.153 7  83819685.758 6  20167332.820
  20167333.440       -2412.481       -1876.374          46.600          41.100



 106002377.226 7  82446299.275 7  19843869.000
  19843868.200        2175.836        1692.317          44.750          44.650



 104409694.746 8  81207547.606 8  19511441.520
  19511439.660       -1507.449       -1172.460          48.100          49.000



 106400498.372 8  82755958.499 7  19932396.820
  19932396.620        2532.288        1969.558          48.200          47.850



 129272900.297 6 100545592.234 6  24166206.920
  24166203.860        4392.695        3416.544          38.850          38.500



 123135431.151 6  95771997.498 5  23026939.260
  23026938.360       -4147.723       -3226.006          37.500          31.450



 123804339.921 8                  23559173.740
                      -897.455                          51.850
  92451312.957 8  23559172.800        -670.198          52.450    94863073.486 8
  23559169.560        -687.646          53.150    93657193.039 8  23559171.480
      -678.935          51.450
 148653672.710 7                  28287853.580
                      -731.589                          44.300
 111007610.984 7  28287853.080        -546.403          44.550   113903451.367 7
  28287850.060        -560.620          46.350   112455529.491 6  28287851.460
      -553.457          41.550
 140319606.363 7                  26701934.940
                     -2365.571                          42.100
 104784119.343 6  26701934.360       -1766.529          39.300   107517606.981 7
  26701931.340       -1812.735          42.900   106150859.970 6  26701933.160
     -1789.582          37.050
 114197057.161 8                  21730972.200
                       -77.881                          51.750
  85277042.206 8  21730972.480         -58.215          52.300    87501640.372 8
  21730969.240         -59.708          53.100    86389343.106 8  21730971.240
       -58.955          51.250
 18  1 21 21 10  0.0000000  0 25G02G05G12G14G21G23G25G26G29G31G32R07
                                R08R09R14R15R16R17R18R19R24E01E05E09
                                E26
 127194271.733 7  99112386.69846  24204261.820
  24204252.440       -2438.967       -1900.492          43.600          37.750



 132125182.726 7 102954672.95145  25142584.840
  25142578.140        2229.681        1737.417          43.900          31.850



 126433580.353 7  98519663.36846  24059499.820
  24059494.560       -3231.092       -2517.732          42.950          36.000



 125904986.152 6  98107734.43746  23958922.620
  23958917.280       -2749.624       -2142.565          39.400          37.300



 123464694.401 7  96206227.73746  23494549.640
  23494542.300        3137.852        2445.080          43.950          36.700



 134682740.977 6 104947554.47846  25629273.180
  25629263.960        1702.155        1326.356          41.750          36.800



 111693893.782 8  87034207.94747  21254631.620
  21254626.700       -1986.025       -1547.553          50.750          46.800
  83407801.925 8  21254628.560       -1483.116          52.350


 120824308.706 7  94148811.34246  22992101.720
  22992097.300        2916.482        2272.584          46.150          41.350
  90225939.988 8  22992097.880        2177.766          50.200


 105609875.478 8  82293384.25248  20096884.580
  20096877.400        -554.103        -431.769          51.000          48.800



 109747567.748 8  85517554.64547  20884265.120
  20884257.300         330.689         257.680          50.600          46.850



 133565704.743 6 104077144.81545  25416706.640
  25416703.860       -3274.625       -2551.659          41.100          32.150
  99740605.929 7  25416704.860       -2445.453          44.650


 128486652.866 6  99934071.489 6  24002389.940
  24002388.000       -2074.332       -1613.367          40.550          40.500



 127720457.298 5  99338120.240 6  23850892.660
  23850891.020         776.065         603.608          34.600          40.400



 128435219.146 6  99894043.015 6  24051789.660
  24051786.580        4129.660        3211.958          40.750          40.750



 125742975.799 7  97800110.723 6  23589057.700
  23589057.220       -4048.959       -3149.190          43.400          39.850



 107840793.025 7  83876188.097 6  20180927.480
  20180928.160       -2430.796       -1890.618          46.400          41.000



 105937358.627 7  82395729.252 7  19831697.340
  19831696.480        2158.521        1678.849          44.250          44.350



 104455253.162 8  81242981.943 8  19519955.140
  19519953.320       -1529.834       -1189.870          48.100          48.850



 106324838.658 8  82697112.069 7  19918223.340
  19918222.840        2511.392        1953.305          48.300          47.550



 129141171.226 6 100443136.353 6  24141581.520
  24141578.640        4389.339        3413.933          38.100          38.450



 123259937.856 6  95868836.054 5  23050222.740
  23050222.060       -4152.814       -3229.967          36.700          31.250



 123831419.390 8                  23564326.700
                      -908.122                          51.900
  92471534.632 8  23564325.920        -678.124          52.450    94883822.687 8
  23564322.580        -695.812          53.150    93677678.479 8  23564324.560
      -686.979          51.450
 148675822.293 7                  28292068.480
                      -745.166                          44.250
 111024151.239 7  28292068.320        -556.373          44.700   113920423.128 7
  28292064.880        -571.049          46.200   112472285.511 6  28292066.500
      -563.853          41.550
 140390651.169 7                  26715453.880
                     -2370.852                          42.700
 104837172.214 6  26715453.720       -1770.522          40.050   107572043.850 7
  26715450.840       -1816.598          43.400   106204604.851 6  26715452.620
     -1793.507          37.750
 114199600.488 8                  21731456.180
                       -91.799                          51.850
  85278941.455 8  21731456.500         -68.595          52.250    87503589.167 8
  21731453.240         -70.352          53.100    86391267.130 8  21731455.200
       -69.482          51.300
 18  1 21 21 10 30.0000000  0 26G02G05G12G14G21G23G25G26G29G31G32R07
                                R08R09R14R15R16R17R18R19R24E01E05E09
                                E24E26
 127267584.570 7  99169513.58246  24218212.520
  24218203.420       -2449.426       -1908.644          43.600          36.800



 132058432.427 7 102902659.74244  25129882.820
  25129875.880        2219.629        1729.581          43.650          29.900



 126530548.672 7  98595223.04145  24077952.240
  24077947.100       -3234.258       -2520.204          43.600          35.500



 125987575.950 6  98172090.09945  23974639.180
  23974633.480       -2757.275       -2148.523          40.500          34.300



 123370648.124 7  96132944.93645  23476653.220
  23476645.820        3131.176        2439.876          44.800          35.200



 134631883.994 6 104907925.63645  25619595.280
  25619586.160        1687.496        1314.931          41.800          30.250



 111753620.703 8  87080748.38847  21265997.260
  21265992.420       -1996.441       -1555.669          50.700          46.550
  83452403.175 8  21265994.200       -1490.828          52.350


 120736873.613 7  94080680.10746  22975463.440
  22975459.100        2911.775        2268.917          46.550          40.800
  90160647.545 8  22975459.640        2174.510          50.250


 105626719.722 8  82306509.63848  20100089.860
  20100082.800        -569.540        -443.797          51.050          48.700



 109737913.455 8  85510031.81547  20882427.980
  20882420.140         312.159         243.241          50.700          46.500



 133663916.059 7 104153673.09745  25435395.880
  25435393.040       -3273.483       -2550.767          42.800          31.300
  99813945.520 7  25435393.800       -2444.374          44.750


 128549168.312 6  99982694.617 6  24014068.440
  24014066.020       -2093.960       -1628.635          39.300          40.100



 127697525.398 5  99320284.333 6  23846610.440
  23846608.560         752.312         585.131          34.550          40.350



 128311312.989 6  99797671.533 6  24028585.800
  24028583.040        4130.077        3212.279          41.000          39.350



 125864514.484 7  97894640.775 6  23611857.980
  23611857.260       -4054.498       -3153.500          43.550          38.850



 107913968.664 7  83933102.461 6  20194621.260
  20194622.000       -2448.414       -1904.322          46.300          41.100



 105872846.906 7  82345553.462 7  19819620.760
  19819619.780        2141.579        1665.672          44.150          44.500



 104501460.701 8  81278921.133 8  19528590.120
  19528588.340       -1551.370       -1206.621          48.250          48.850



 106249785.946 8  82638737.733 7  19904163.540
  19904162.900        2491.238        1937.630          48.300          47.650



 129009543.092 6 100340758.977 6  24116974.620
  24116972.080        4385.639        3411.054          36.900          38.100



 123384584.653 6  95965783.546 4  23073532.280
  23073531.640       -4157.708       -3233.773          36.900          29.850



 123858801.976 8                  23569537.420
                      -918.133                          51.900
  92491982.652 8  23569536.760        -685.605          52.450    94904804.135 8
  23569533.360        -703.477          53.150    93698393.210 8  23569535.300
      -694.530          51.500
 148698363.794 7                  28296357.920
                      -758.435                          45.100
 111040984.173 7  28296358.120        -566.249          44.900   113937695.187 7
  28296354.180        -580.992          46.200   112489338.010 6  28296356.100
      -573.772          41.650
 140461841.536 7                  26729000.960
                     -2375.697                          42.500
 104890333.821 6  26729000.640       -1774.187          40.050   107626592.281 7
  26728998.040       -1820.392          43.600   106258459.874 6  26728999.800
     -1797.279          37.750
 140056071.295 7                  26651784.040
                      2845.433                          42.750
 104587359.759 6  26651794.300        2124.949          41.850   107315713.390 7
  26651790.020        2180.358          43.700   105951537.892 6  26651791.920
      2152.756          38.600
 114202543.584 8                  21732016.220
                      -105.050                          51.850
  85281139.220 8  21732016.620         -78.438          52.250    87505844.262 8
  21732013.340         -80.471          53.100    86393493.559 8  21732015.220
       -79.461          51.300
 18  1 21 21 11  0.0000000  0 26G02G05G12G14G21G23G25G26G29G31G32R07
                                R08R09R14R15R16R17R18R19R24E01E05E09
                                E24E26
 127341225.361 7  99226896.02046  24232225.800
  24232216.760       -2459.624       -1916.591          43.100          39.650



 131991996.492 7 102850891.48345  25117240.640
  25117233.580        2209.440        1721.644          44.250          31.000



 126627617.115 7  98670860.76445  24096424.080
  24096418.960       -3236.923       -2522.278          43.950          34.800



 126070400.790 6  98236628.89145  23990400.400
  23990394.540       -2764.672       -2154.288          40.100          34.750



 123276801.286 7  96059817.53646  23458794.820
  23458787.460        3125.005        2435.069          44.900          36.750



 134581474.701 7 104868645.65745  25610002.500
  25609992.880        1672.985        1303.621          42.800          31.700



 111813667.321 8  87127537.95047  21277423.740
  21277418.880       -2006.666       -1563.637          50.600          46.950
  83497243.172 8  21277420.700       -1498.508          52.400


 120649581.835 7  94012660.54646  22958852.300
  22958848.120        2907.656        2265.706          46.150          41.750
  90095462.142 8  22958848.640        2171.206          50.550


 105644035.453 8  82320002.41348  20103384.860
  20103377.920        -584.810        -455.696          51.000          48.800



 109728822.732 8  85502948.12547  20880698.120
  20880690.240         293.887         229.001          50.500          47.050



 133762096.368 7 104230177.23845  25454079.280
  25454076.400       -3272.051       -2549.650          42.050          33.250
  99887261.970 7  25454076.900       -2443.236          44.250


 128612277.061 6 100031779.202 6  24025857.660
  24025855.080       -2113.393       -1643.750          40.200          39.750



 127675325.368 5  99303017.639 6  23842464.960
  23842462.640         728.138         566.328          34.500          40.700



 128187402.355 6  99701296.575 6  24005380.920
  24005378.440        4130.634        3212.714          40.600          39.600



 125986225.538 7  97989304.915 6  23634690.360
  23634690.260       -4059.573       -3157.445          43.450          38.400



 107987679.454 7  83990433.068 6  20208415.200
  20208415.900       -2465.733       -1917.794          46.450          41.500



 105808851.330 7  82295779.125 7  19807640.600
  19807639.800        2124.774        1652.603          44.400          44.600



 104548321.021 8  81315368.051 8  19537347.240
  19537345.280       -1572.648       -1223.171          48.100          48.800



 106175348.097 8  82580841.641 7  19890218.800
  19890218.080        2471.193        1922.038          48.400          47.600



 128878024.880 6 100238467.085 6  24092388.360
  24092386.020        4382.401        3408.536          36.600          38.300



 123509374.638 6  96062842.439 5  23096869.020
  23096867.760       -4161.825       -3236.976          37.650          30.900



 123886494.064 8                  23574807.080
                      -927.955                          51.900
  92512661.796 8  23574806.440        -693.004          52.550    94926022.735 8
  23574803.140        -711.046          53.150    93719342.084 8  23574804.940
      -702.005          51.450
 148721302.602 7                  28300723.020
                      -771.137                          45.000
 111058113.800 7  28300723.200        -575.703          44.650   113955271.684 7
  28300719.200        -590.824          46.200   112506691.059 6  28300721.320
      -583.267          41.200
 140533181.546 7                  26742576.660
                     -2380.088                          43.600
 104943607.128 6  26742576.000       -1777.410          40.200   107681255.335 7
  26742573.380       -1823.718          43.700   106312428.056 6  26742575.360
     -1800.513          37.700
 139970686.509 6                  26635535.680
                      2847.077                          40.200
 104523598.412 6  26635545.880        2125.682          41.750   107250288.700 7
  26635542.720        2181.303          44.000   105886944.870 6  26635543.760
      2153.455          38.600
 114205892.127 8                  21732653.400
                      -118.144                          51.850
  85283639.757 8  21732653.920         -88.196          52.350    87508410.035 8
  21732650.600         -90.515          53.100    86396026.714 8  21732652.420
       -89.372          51.250
 18  1 21 21 11 30.0000000  0 26G02G05G12G14G21G23G25G26G29G31G32R07
                                R08R09R14R15R16R17R18R19R24E01E05E09
                                E24E26
 127415189.094 7  99284530.09646  24246300.620
  24246291.600       -2470.721       -1925.238          42.950          38.700



 131925874.084 7 102799367.53245  25104658.080
  25104650.900        2198.700        1713.271          44.000          30.700



 126724781.851 7  98746573.50946  24114914.080
  24114909.120       -3240.556       -2525.110          43.550          36.850



 126153454.179 6  98301345.77646  24006205.220
  24006199.100       -2772.378       -2160.294          40.750          36.550



 123183152.744 7  95986844.65446  23440974.140
  23440967.080        3117.955        2429.576          44.650          37.500



 134531510.927 7 104829712.87345  25600494.240
  25600485.140        1657.775        1291.776          42.300          32.050



 111874029.795 8  87174573.63947  21288910.320
  21288905.540       -2017.601       -1572.157          50.600          47.000
  83542319.042 8  21288907.300       -1506.608          52.350


 120562431.418 7  93944751.14446  22942268.000
  22942264.020        2902.353        2261.572          46.000          41.500
  90030382.294 8  22942264.480        2167.430          50.400


 105661818.169 8  82333859.08648  20106768.800
  20106761.900        -600.707        -468.083          50.900          48.850



 109720292.732 8  85496301.37447  20879074.940
  20879067.100         274.758         214.097          50.550          47.050



 133860239.736 7 104306652.57345  25472755.500
  25472752.500       -3271.012       -2548.837          42.850          31.650
  99960550.855 7  25472752.940       -2442.526          45.050


 128675972.518 6 100081320.131 6  24037756.340
  24037753.840       -2133.003       -1659.002          39.550          39.800



 127653854.986 5  99286318.444 6  23838455.700
  23838452.820         703.416         547.101          34.950          41.250



 128063486.296 6  99604917.422 6  23982175.120
  23982172.840        4130.355        3212.501          40.700          40.350



 126108103.679 7  98084099.027 6  23657554.120
  23657554.460       -4065.561       -3162.103          43.350          38.750



 108061920.631 7  84048176.191 6  20222308.440
  20222309.240       -2483.727       -1931.788          46.550          41.500



 105745371.534 7  82246405.957 7  19795757.020
  19795756.320        2107.218        1638.947          43.950          44.650



 104595828.262 8  81352318.129 8  19546225.040
  19546223.040       -1594.539       -1240.197          48.100          48.800



 106101524.038 8  82523422.941 7  19876389.080
  19876388.400        2450.311        1905.797          48.250          47.850



 128746615.768 6 100136260.054 6  24067822.260
  24067820.240        4378.181        3405.252          36.900          38.150



 123634300.789 6  96160007.210 5  23120230.740
  23120229.380       -4167.276       -3241.215          37.300          31.650



 123914492.669 8                  23580135.080
                      -938.617                          51.900
  92533569.840 8  23580134.420        -700.918          52.550    94947476.206 8
  23580131.160        -719.158          53.150    93740522.844 8  23580132.900
      -710.016          51.450
 148744634.778 7                  28305162.960
                      -784.636                          44.600
 111075537.180 7  28305162.920        -585.757          44.800   113973149.595 7
  28305158.960        -601.131          46.050   112524341.701 6  28305161.280
      -593.392          41.400
 140604666.049 6                  26756179.580
                     -2385.536                          41.700
 104996988.359 6  26756179.280       -1781.163          38.750   107736029.124 7
  26756176.940       -1827.698          42.300   106366505.564 6  26756178.340
     -1804.472          36.400
 139885273.717 6                  26619281.400
                      2847.449                          39.950
 104459816.162 6  26619292.480        2126.314          41.300   107184842.579 7
  26619288.540        2181.557          43.200   105822330.697 6  26619290.360
      2153.814          38.050
 114209642.385 8                  21733367.020
                      -131.843                          51.700
  85286440.290 8  21733367.600         -98.441          52.300    87511283.622 8
  21733364.280        -101.009          53.100    86398863.774 8  21733366.060
       -99.738          51.250
 18  1 21 21 12  0.0000000  0 27G02G05G12G14G16G21G23G25G26G29G31G32
                                R07R08R09R14R15R16R17R18R19R24E01E05
                                E09E24E26
 127489472.578 7  99342413.32646  24260436.320
  24260427.220       -2482.181       -1934.168          43.400          39.050



 131860067.140 7 102748089.37645  25092135.460
  25092128.040        2187.444        1704.498          44.050          33.550



 126822041.619 7  98822360.30046  24133422.240
  24133417.280       -3244.303       -2528.030          43.850          37.050



 126236732.229 6  98366237.71445  24022052.760
  24022046.700       -2780.486       -2166.616          41.100          34.950



 133482000.363 6 104011971.38944  25400780.840
  25400776.140        3381.899        2635.238          37.450          29.500



 123089704.455 7  95914027.81546  23423191.600
  23423184.560        3111.056        2424.198          44.750          37.350



 134481993.569 7 104791127.88245  25591071.180
  25591062.800        1642.475        1279.847          42.900          31.350



 111934706.513 8  87221854.18447  21300456.700
  21300451.920       -2028.554       -1580.693          50.550          46.950
  83587629.561 8  21300453.760       -1514.761          52.400


 120475422.621 7  93876952.09846  22925710.680
  22925706.840        2897.086        2257.469          45.850          41.950
  89965408.209 8  22925707.080        2163.438          50.400


 105680065.510 8  82348077.79148  20110241.120
  20110234.220        -616.660        -480.515          51.000          48.850



 109712323.261 8  85490091.39247  20877558.440
  20877550.560         255.638         199.197          50.450          47.050



 133958342.349 7 104383096.13545  25491423.780
  25491420.400       -3269.956       -2548.020          42.700          31.100
 100033809.276 7  25491421.500       -2441.858          45.200


 128740250.449 6 100131314.098 6  24049763.620
  24049761.700       -2153.019       -1674.571          39.350          40.500



 127633114.500 5  99270186.959 6  23834582.560
  23834579.640         678.166         527.463          35.300          41.500



 127939566.234 6  99508535.100 6  23958968.840
  23958966.320        4129.862        3212.113          40.600          39.850



 126230145.758 7  98179020.638 6  23680448.640
  23680448.740       -4071.351       -3166.607          42.600          38.550



 108136690.118 7  84106330.226 6  20236300.600
  20236301.280       -2501.810       -1945.854          46.450          41.300



 105682409.670 7  82197435.612 7  19783970.300
  19783969.700        2089.486        1625.156          43.800          44.500



 104643978.573 8  81389768.381 8  19555223.000
  19555221.060       -1616.345       -1257.157          48.300          48.800



 106028314.393 8  82466482.112 7  19862674.400
  19862673.860        2429.301        1889.455          48.450          47.900



 128615317.417 6 100034139.143 6  24043277.420
  24043275.380        4374.061        3402.049          37.350          38.050



 123759359.288 6  96257274.919 5  23143617.400
  23143615.760       -4171.275       -3244.325          37.800          30.450



 123942796.995 8                  23585521.340
                      -949.280                          52.000
  92554706.173 8  23585520.520        -708.901          52.550    94969163.928 8
  23585517.340        -727.399          53.200    93761934.866 8  23585519.040
      -718.136          51.550
 148768358.455 7                  28309677.180
                      -798.046                          44.800
 111093252.918 7  28309677.220        -595.962          44.350   113991327.457 7
  28309673.460        -611.421          46.800   112542288.504 6  28309675.800
      -603.742          41.750
 140676292.406 6                  26769809.700
                     -2390.255                          40.950
 105050475.589 6  26769808.980       -1785.150          38.850   107790911.675 6
  26769806.360       -1831.741          41.750   106420690.458 6  26769808.440
     -1808.721          36.150
 139799832.813 6                  26603023.000
                      2847.824                          41.700
 104396012.897 6  26603033.300        2126.592          39.550   107119374.873 7
  26603029.740        2181.982          42.650   105757695.205 6  26603031.280
      2154.301          36.950
 114213792.868 8                  21734156.820
                      -145.714                          51.850
  85289539.680 8  21734157.460        -108.823          52.350    87514463.863 8
  21734154.160        -111.667          53.100    86402003.589 8  21734155.860
      -110.242          51.300
 18  1 21 21 12 30.0000000  0 27G02G05G12G14G16G21G23G25G26G29G31G32
                                R07R08R09R14R15R16R17R18R19R24E01E05
                                E09E24E26
 127564075.253 7  99400545.27946  24274632.900
  24274623.620       -2491.993       -1941.812          43.700          38.200



 131794580.840 7 102697061.13645  25079673.740
  25079666.600        2177.374        1696.657          43.200          33.200



 126919396.882 7  98898221.53146  24151948.600
  24151943.640       -3246.601       -2529.819          44.350          36.750



 126320233.222 6  98431303.40645  24037942.640
  24037936.160       -2786.650       -2171.415          41.250          32.750



 133380524.033 6 103932898.92644  25381471.460
  25381465.340        3382.369        2635.610          38.500          26.050



 122996459.831 7  95841369.69746  23405447.860
  23405440.640        3104.942        2419.437          45.400          36.650



 134432925.650 7 104752893.13045  25581734.160
  25581725.320        1628.396        1268.877          43.650          31.850



 111995698.307 8  87269380.25147  21312063.040
  21312058.260       -2038.127       -1588.151          50.600          47.050
  83633175.379 8  21312060.160       -1521.977          52.350


 120388558.217 7  93809265.58446  22909180.740
  22909177.100        2893.266        2254.492          45.900          41.700
  89900541.960 8  22909177.000        2160.525          50.400


 105698777.977 8  82362658.93848  20113801.980
  20113794.960        -631.279        -491.905          51.150          48.700



 109704916.567 8  85484319.94247  20876148.980
  20876141.200         237.724         185.239          50.500          47.150



 134056402.940 7 104459506.97545  25510084.280
  25510080.560       -3267.754       -2546.301          42.900          33.650
 100107036.312 7  25510081.820       -2440.219          45.750


 128805109.453 6 100181759.978 6  24061879.940
  24061877.840       -2171.427       -1688.889          39.650          40.000



 127613106.684 5  99254625.325 6  23830846.720
  23830843.400         654.637         509.162          34.650          41.500



 127815646.037 6  99412152.736 6  23935762.320
  23935759.700        4130.713        3212.776          40.350          39.350



 126352351.203 7  98274069.278 6  23703373.980
  23703374.040       -4075.896       -3170.143          42.450          38.750



 108211987.880 7  84164895.143 6  20250391.540
  20250392.380       -2518.576       -1958.893          46.700          41.650



 105619970.332 7  82148871.680 7  19772281.440
  19772280.860        2072.803        1612.179          44.150          44.750



 104692770.766 8  81427717.869 8  19564340.920
  19564339.020       -1636.848       -1273.104          48.350          48.800



 105955722.413 8  82410021.704 8  19849075.400
  19849075.000        2409.578        1874.116          48.100          48.100



 128484134.290 6  99932107.855 6  24018754.040
  24018752.340        4371.106        3399.750          37.850          38.300



 123884548.386 6  96354644.222 5  23167028.560
  23167026.440       -4174.785       -3247.054          37.700          30.400



 123971408.734 8                  23590966.120
                      -958.629                          52.050
  92576072.081 8  23590965.080        -715.856          52.550    94991087.205 8
  23590962.080        -734.539          53.150    93783579.461 8  23590963.680
      -725.201          51.350
 148792474.319 7                  28314266.220
                      -810.348                          44.850
 111111261.521 7  28314266.060        -605.005          44.350   114009805.861 7
  28314262.720        -620.838          46.750   112560532.009 6  28314264.880
      -612.969          41.500
 140748059.983 6                  26783466.700
                     -2394.320                          38.350
 105104068.179 6  26783466.500       -1787.960          38.300   107845902.320 6
  26783463.660       -1834.468          41.600   106474982.051 5  26783465.540
     -1811.062          35.700
 139714366.145 7                  26586759.220
                      2849.458                          42.800
 104332190.332 6  26586768.980        2127.847          38.700   107053887.387 7
  26586765.860        2183.358          42.100   105693040.195 6  26586767.660
      2155.517          36.300
 114218344.519 8                  21735022.980
                      -158.277                          51.800
  85292938.649 8  21735023.700        -118.171          52.350    87517951.501 8
  21735020.340        -121.254          53.050    86405446.891 8  21735022.000
      -119.706          51.200
 18  1 21 21 13  0.0000000  0 26G02G05G12G14G16G21G23G25G26G29G31G32
                                R07R08R09R14R15R16R17R18R19R24E01E05
                                E24E26
 127638992.636 7  99458922.47346  24288889.320
  24288879.940       -2502.801       -1950.235          43.150          38.200



 131729415.321 7 102646282.81745  25067273.060
  25067265.900        2166.466        1688.160          43.150          33.850



 127016844.786 7  98974154.94246  24170492.820
  24170487.540       -3250.344       -2532.736          45.050          36.200



 126403952.180 6  98496538.93745  24053873.840
  24053867.300       -2794.878       -2177.828          41.000          33.550



 133279048.765 6 103853827.31545  25362161.420
  25362154.100        3381.839        2635.197          41.500          30.250



 122903419.284 7  95768870.56946  23387742.960
  23387735.740        3097.442        2413.591          45.250          37.700



 134384306.545 7 104715008.09245  25572482.760
  25572473.080        1612.689        1256.640          44.600          30.000



 112057002.298 8  87317149.58047  21323728.640
  21323724.020       -2049.067       -1596.676          50.400          46.950
  83678954.313 8  21323725.960       -1530.142          52.350


 120301837.141 7  93741690.74246  22892678.160
  22892674.700        2887.903        2250.315          45.900          41.650
  89835782.733 8  22892674.220        2156.578          50.350


 105717952.059 8  82377599.78548  20117450.800
  20117443.620        -647.286        -504.379          51.000          48.850



 109698071.005 8  85478985.73647  20874846.320
  20874838.540         218.383         170.168          50.400          47.150



 134154416.409 7 104535881.09245  25528735.640
  25528732.140       -3266.693       -2545.478          42.050          32.050
 100180228.133 7  25528733.220       -2439.421          45.100


 128870543.558 6 100232653.183 6  24074103.820
  24074101.560       -2191.191       -1704.258          40.400          39.050



 127593829.696 5  99239632.122 6  23827246.560
  23827243.840         630.034         490.026          35.150          41.400



 127691725.679 6  99315770.217 6  23912555.920
  23912553.340        4130.449        3212.571          40.800          39.250



 126474715.627 7  98369241.583 6  23726329.060
  23726329.640       -4081.900       -3174.812          43.000          38.700



 108287809.711 7  84223867.664 6  20264580.540
  20264581.420       -2536.554       -1972.875          46.700          41.600



 105558053.952 7  82100714.486 7  19760690.420
  19760690.000        2054.681        1598.084          43.950          44.800



 104742199.666 8  81466162.565 8  19573577.940
  19573575.920       -1658.700       -1290.101          48.100          48.750



 105883747.447 8  82354041.185 8  19835592.040
  19835591.760        2388.414        1857.655          48.000          48.300



 128353066.446 6  99830166.205 6  23994252.320
  23994250.600        4366.510        3396.173          37.900          38.300



 124009862.320 6  96452110.596 5  23190463.000
  23190460.600       -4179.783       -3250.944          38.050          30.800



 124000325.778 8                  23596468.940
                      -969.408                          51.950
  92597665.957 8  23596467.740        -723.907          52.500    95013244.400 8
  23596464.820        -742.796          53.150    93805454.993 8  23596466.420
      -733.330          51.400
 148816979.215 7                  28318929.360
                      -823.886                          45.050
 111129560.635 7  28318928.860        -615.141          44.250   114028582.347 7
  28318926.080        -631.187          47.200   112579069.797 6  28318928.000
      -623.016          41.800
 139628872.163 7                  26570489.920
                      2849.675                          42.450
 104268347.368 6  26570499.540        2128.235          39.550   106988378.942 7
  26570496.720        2183.670          43.050   105628364.474 6  26570498.740
      2155.901          37.000
 114223294.484 8                  21735964.980
                      -172.081                          51.800
  85296635.049 8  21735965.560        -128.478          52.400    87521744.325 8
  21735962.340        -131.820          53.050    86409191.504 8  21735963.940
      -130.146          51.250
 18  1 21 21 13 30.0000000  0 26G02G05G12G14G16G21G23G25G26G29G31G32
                                R07R08R09R14R15R16R17R18R19R24E01E05
                                E24E26
 127714228.327 7  99517547.68646  24303206.180
  24303196.780       -2513.430       -1958.517          43.550          37.750



 131664578.943 7 102595760.96445  25054934.920
  25054928.200        2155.546        1679.646          42.750          33.250



 127114389.965 7  99050164.14346  24189055.740
  24189050.060       -3253.236       -2534.989          45.750          36.050



 126487891.374 6  98561946.05045  24069846.880
  24069840.260       -2801.949       -2183.341          40.900          34.050



 133177580.084 6 103774760.87845  25342852.460
  25342844.980        3381.762        2635.138          40.600          32.700



 122810590.354 7  95696536.35246  23370078.220
  23370070.940        3090.684        2408.327          45.350          37.000



 134336143.055 7 104677478.08844  25563318.120
  25563307.740        1597.546        1244.841          44.400          29.850



 112118623.290 8  87365165.92347  21335454.620
  21335450.080       -2059.459       -1604.773          50.400          46.650
  83724969.976 8  21335452.000       -1537.799          52.250


 120215266.199 7  93674232.87846  22876204.120
  22876200.620        2883.039        2246.523          46.100          41.000
  89771135.611 8  22876200.140        2152.961          50.150


 105737592.186 8  82392903.77948  20121188.240
  20121181.040        -662.558        -516.278          50.950          48.800



 109691792.294 8  85474093.23047  20873651.520
  20873643.780         199.775         155.670          50.400          47.000



 134252385.606 7 104612220.66945  25547378.640
  25547375.120       -3264.903       -2544.083          42.850          33.350
 100253386.898 7  25547376.040       -2438.007          44.250


 128936555.121 6 100283995.541 6  24086435.900
  24086432.920       -2210.211       -1719.052          39.850          39.900



 127575290.490 5  99225212.738 6  23823784.700
  23823782.100         606.036         471.360          35.800          41.200



 127567813.237 6  99219393.865 6  23889351.000
  23889348.520        4130.039        3212.251          41.750          38.850



 126597242.543 7  98464540.286 6  23749314.700
  23749315.520       -4087.234       -3178.961          42.850          37.700



 108364160.611 7  84283251.677 6  20278868.500
  20278869.440       -2553.988       -1986.436          46.550          41.200



 105496669.360 7  82052970.924 7  19749199.040
  19749198.720        2036.956        1584.300          43.750          44.550



 104792268.049 8  81505104.644 8  19582934.520
  19582932.400       -1679.645       -1306.391          48.250          48.600



 105812396.843 7  82298546.275 8  19822225.600
  19822225.360        2367.852        1841.663          47.900          48.200



 128222122.242 6  99728320.713 6  23969773.960
  23969771.740        4362.592        3393.127          37.950          38.250



 124135303.403 6  96549675.864 5  23213921.260
  23213918.700       -4183.534       -3253.861          38.300          30.500



 124029553.804 8                  23602030.920
                      -979.528                          52.000
  92619492.073 8  23602029.540        -731.437          52.350    95035639.893 8
  23602026.740        -750.512          53.150    93827565.799 8  23602028.320
      -740.975          51.400
 148841877.799 7                  28323667.580
                      -836.487                          45.500
 111148153.757 7  28323666.540        -624.778          43.300   114047660.483 7
  28323664.500        -641.054          46.950   112597905.434 6  28323665.880
      -632.906          41.300
 139543357.112 7                  26554216.920
                      2850.667                          42.200
 104204488.705 6  26554226.560        2128.818          40.700   106922854.421 7
  26554223.860        2184.270          44.650   105563672.868 6  26554225.840
      2156.627          38.850
 114228647.699 8                  21736983.720
                      -185.295                          51.800
  85300632.584 8  21736984.180        -138.288          52.300    87525846.145 8
  21736981.040        -141.910          53.050    86413241.180 8  21736982.620
      -140.073          51.200
 18  1 21 21 14  0.0000000  0 26G02G05G12G14G16G21G23G25G26G29G31G32
                                R07R08R09R14R15R16R17R18R19R24E01E05
                                E24E26
 127789775.771 7  99576415.81846  24317582.160
  24317572.980       -2523.502       -1966.365          42.800          38.550



 131600070.261 7 102545494.46345  25042659.160
  25042652.660        2144.833        1671.298          42.050          31.800



 127212027.174 7  99126245.07846  24207636.060
  24207629.860       -3256.070       -2537.196          45.800          36.000



 126572043.777 6  98627519.31345  24085860.560
  24085854.000       -2808.927       -2188.777          41.700          34.100



 133076114.863 6 103695697.12745  25323544.380
  25323536.700        3382.186        2635.472          39.750          31.750



 122717971.292 7  95624365.65846  23352453.340
  23352446.040        3083.984        2403.105          45.200          37.100



 134288432.380 7 104640300.91445  25554239.540
  25554228.240        1582.924        1233.444          44.300          32.100



 112180556.316 8  87413425.41847  21347240.020
  21347235.480       -2069.600       -1612.676          50.400          46.550
  83771218.666 8  21347237.460       -1545.436          52.300


 120128842.275 7  93606889.58346  22859758.200
  22859754.600        2878.504        2242.989          46.150          41.250
  89706598.288 8  22859754.100        2149.445          50.300


 105757692.658 8  82408566.48648  20125013.260
  20125006.000        -677.585        -527.988          50.950          48.850



 109686076.862 8  85469639.63947  20872563.940
  20872556.240         181.231         141.219          50.550          47.150



 134350303.429 7 104688520.27145  25566011.860
  25566008.320       -3262.660       -2542.331          43.050          34.750
 100326507.346 7  25566009.080       -2436.609          45.100


 129003136.320 6 100335780.927 6  24098873.680
  24098870.920       -2228.774       -1733.490          39.400          40.500



 127557485.764 6  99211364.605 6  23820460.000
  23820457.440         581.062         451.937          36.350          41.100



 127443906.635 6  99123022.028 6  23866147.420
  23866144.720        4130.237        3212.405          41.650          39.850



 126719925.462 7  98559960.362 6  23772329.840
  23772330.460       -4091.954       -3182.631          42.800          37.850



 108441034.721 7  84343042.643 6  20293254.360
  20293255.520       -2571.114       -1999.756          46.650          41.600



 105435815.049 7  82005639.798 7  19737806.920
  19737806.800        2019.722        1570.895          43.650          45.200



 104842968.649 8  81544538.447 8  19592409.240
  19592407.120       -1700.383       -1322.520          48.300          48.850



 105741668.148 7  82243535.089 8  19808975.640
  19808975.480        2347.329        1825.701          47.750          48.550



 128091299.945 6  99626570.075 6  23945318.260
  23945316.340        4358.614        3390.034          38.650          39.400



 124260864.250 6  96647334.301 5  23237401.960
  23237399.180       -4187.125       -3256.654          38.800          30.800



 124059088.678 8                  23607651.160
                      -989.516                          52.000
  92641547.332 8  23607649.780        -738.914          52.400    95058270.510 8
  23607647.040        -758.235          53.150    93849908.739 8  23607648.620
      -748.610          51.350
 148867164.927 7                  28328479.720
                      -849.103                          45.300
 111167036.998 7  28328478.240        -634.068          43.100   114067036.340 7
  28328476.600        -650.647          46.750   112617034.983 6  28328477.860
      -642.350          41.100
 139457817.500 6                  26537939.300
                      2851.703                          41.850
 104140611.767 6  26537949.000        2129.536          41.750   106857311.119 7
  26537946.360        2185.126          45.300   105498962.755 6  26537948.340
      2157.398          39.500
 114234399.288 8                  21738078.260
                      -198.291                          51.800
  85304927.612 8  21738078.640        -148.046          52.300    87530253.219 8
  21738075.520        -151.950          53.050    86417592.232 8  21738077.100
      -149.997          51.100
 18  1 21 21 14 30.0000000  0 26G02G05G12G14G16G21G23G25G26G29G31G32
                                R07R08R09R14R15R16R17R18R19R24E01E05
                                E24E26
 127865630.602 7  99635523.47746  24332016.800
  24332007.780       -2534.281       -1974.764          42.900          39.250



 131535889.987 6 102495483.89145  25030445.680
  25030439.680        2133.338        1662.342          41.550          33.250



 127309753.799 7  99202395.68345  24226233.120
  24226226.460       -3259.528       -2539.892          45.950          35.550



 126656403.724 6  98693254.31445  24101913.700
  24101906.960       -2815.904       -2194.213          41.200          34.800



 132974651.534 6 103616634.77245  25304236.540
  25304228.940        3381.841        2635.201          40.850          32.050



 122625562.208 7  95552358.58646  23334868.460
  23334861.180        3076.237        2397.069          45.250          38.250



 134241173.909 7 104603476.11344  25545246.760
  25545235.100        1567.235        1221.219          43.800          29.700



 112242798.370 8  87461925.70747  21359084.240
  21359079.640       -2080.349       -1621.052          50.300          46.400
  83817698.108 8  21359081.780       -1553.558          52.300


 120042564.330 7  93539660.01146  22843340.220
  22843336.360        2872.882        2238.607          46.550          40.950
  89642169.947 8  22843335.980        2145.376          50.400


 105778249.923 8  82424585.13448  20128925.200
  20128917.920        -693.386        -540.301          51.200          48.750



 109680923.039 8  85465623.66847  20871583.260
  20871575.480         161.909         126.163          50.500          47.150



 134448164.693 7 104764775.76545  25584634.380
  25584630.540       -3261.622       -2541.522          42.450          33.400
 100399585.530 7  25584631.340       -2435.686          43.900


 129070281.400 6 100388004.863 6  24111416.720
  24111414.380       -2248.134       -1748.549          38.950          40.600



 127540413.769 6  99198086.404 6  23817272.380
  23817269.300         556.333         432.704          36.500          40.850



 127320006.125 6  99026654.971 6  23842944.840
  23842942.020        4129.154        3211.564          41.400          40.050



 126842759.965 6  98655498.285 6  23795373.260
  23795373.820       -4097.608       -3187.029          41.650          38.500



 108518428.425 7  84403237.729 6  20307737.460
  20307738.860       -2589.027       -2013.687          46.600          41.300



 105375491.475 7  81958721.456 7  19726514.280
  19726514.220        2001.293        1556.561          44.000          44.950



 104894296.295 8  81584459.945 8  19602001.060
  19601998.920       -1721.957       -1339.300          48.450          48.700



 105671560.412 7  82189006.859 8  19795842.020
  19795842.060        2326.036        1809.141          47.900          48.700



 127960599.403 6  99524914.106 6  23920885.600
  23920883.040        4354.334        3386.706          37.400          39.250



 124386539.199 6  96745081.493 5  23260904.080
  23260900.940       -4191.516       -3260.068          38.500          30.200



 124088928.188 8                  23613329.360
                     -1000.354                          51.900
  92663830.069 8  23613328.060        -747.000          52.400    95081134.536 8
  23613325.260        -766.485          53.150    93872482.121 8  23613326.900
      -756.729          51.350
 148892837.317 7                  28333365.100
                      -862.777                          44.850
 111186207.958 7  28333363.300        -644.312          42.650   114086707.389 7
  28333361.960        -661.058          46.250   112636455.999 6  28333363.060
      -652.840          40.350
 139372251.809 7                  26521656.740
                      2852.123                          42.700
 104076715.335 7  26521666.080        2129.866          42.450   106791747.843 7
  26521663.800        2185.273          44.850   105434232.899 6  26521665.840
      2157.473          39.600
 114240546.277 8                  21739247.960
                      -212.094                          51.750
  85309517.899 8  21739248.280        -158.339          52.350    87534963.257 8
  21739245.240        -162.522          53.050    86422242.395 8  21739246.840
      -160.425          51.150
 18  1 21 21 15  0.0000000  0 26G02G05G12G14G16G21G23G25G26G29G31G32
                                R07R08R09R14R15R16R17R18R19R24E01E05
                                E24E26
 127941795.817 7  99694872.99946  24346510.500
  24346501.460       -2544.215       -1982.505          43.300          38.650



 131472045.077 6 102445734.61845  25018295.880
  25018290.500        2121.927        1653.445          41.850          34.700



 127407573.510 7  99278618.82046  24244847.700
  24244840.680       -3262.573       -2542.266          46.100          36.550



 126740973.191 6  98759152.56945  24118006.720
  24118000.100       -2822.648       -2199.470          41.700          31.350



 132873195.891 6 103537578.45545  25284930.360
  25284922.220        3381.211        2634.708          39.800          31.000



 122533370.091 7  95480520.58346  23317324.880
  23317317.660        3069.065        2391.479          45.400          37.250



 134194373.969 7 104567008.64445  25536341.220
  25536329.760        1552.013        1209.363          44.000          30.350



 112305353.813 8  87510670.19647  21370988.140
  21370983.480       -2090.790       -1629.187          50.550          46.100
  83864411.572 8  21370985.800       -1561.269          52.400


 119956438.668 7  93472549.10646  22826951.300
  22826947.140        2867.929        2234.750          47.000          41.750
  89577855.324 8  22826946.880        2141.686          50.600


 105799267.800 8  82440962.70248  20132924.760
  20132917.540        -708.500        -552.078          51.100          48.700



 109676336.365 8  85462049.61847  20870710.500
  20870702.720         143.105         111.510          50.750          46.850



 134545971.668 6 104840988.95445  25603246.600
  25603242.700       -3259.447       -2539.832          41.050          34.900
 100472623.169 7  25603243.180       -2433.970          43.100


 129137991.998 6 100440668.651 6  24124065.260
  24124063.620       -2267.041       -1763.255          37.650          40.850



 127524080.614 6  99185382.835 6  23814222.200
  23814219.080         531.600         413.466          36.000          40.600



 127196119.030 6  98930298.310 6  23819744.960
  23819742.040        4129.039        3211.476          41.150          40.300



 126965748.922 6  98751156.330 6  23818445.800
  23818446.120       -4102.476       -3190.816          40.100          38.450



 108596344.590 7  84463839.187 6  20322318.420
  20322319.780       -2606.086       -2026.956          46.600          41.250



 105315706.801 7  81912222.271 7  19715322.500
  19715322.360        1983.551        1542.763          43.450          44.950



 104946253.213 8  81624870.881 8  19611710.540
  19611708.400       -1742.709       -1355.440          48.100          48.700



 105602080.483 7  82134966.925 8  19782826.060
  19782826.160        2305.122        1792.873          47.550          48.600



 127830028.942 6  99423359.359 6  23896476.620
  23896474.340        4349.952        3383.299          37.150          38.700



 124512329.952 6  96842918.739 5  23284427.620
  23284424.520       -4194.951       -3262.739          38.500          30.050



 124119077.498 8                  23619066.500
                     -1010.434                          52.000
  92686344.153 8  23619065.260        -754.527          52.400    95104235.946 8
  23619062.460        -774.206          53.150    93895289.865 8  23619064.140
      -764.339          51.400
 148918899.093 7                  28338324.580
                      -875.468                          44.850
 111205669.662 7  28338322.540        -653.687          42.100   114106676.803 7
  28338321.300        -670.845          46.150   112656171.561 6  28338322.340
      -662.372          40.250
 139286665.890 7                  26505370.120
                      2852.817                          43.250
 104012803.756 6  26505379.820        2130.419          41.250   106726168.991 7
  26505377.540        2186.001          43.900   105369487.693 6  26505379.300
      2158.153          38.350
 114247093.110 8                  21740493.780
                      -225.244                          51.850
  85314406.770 8  21740494.000        -168.132          52.350    87539979.660 8
  21740491.060        -172.524          53.050    86427195.034 8  21740492.680
      -170.355          51.250
 18  1 21 21 15 30.0000000  0 26G02G05G12G14G16G21G23G25G26G29G31G32
                                R07R08R09R14R15R16R17R18R19R24E01E05
                                E24E26
 128018266.042 7  99754460.17846  24361062.260
  24361053.020       -2553.955       -1990.097          43.300          38.900



 131408535.522 6 102396246.67345  25006210.360
  25006204.860        2111.660        1645.449          41.850          35.100



 127505482.469 7  99354911.49746  24263479.300
  24263472.100       -3264.994       -2544.151          46.150          36.800



 126825746.393 6  98825209.58145  24134138.500
  24134131.640       -2829.301       -2204.654          41.400          33.950



 132771744.995 6 103458525.87545  25265625.040
  25265616.720        3381.469        2634.910          40.800          33.950



 122441394.584 7  95408851.36346  23299822.440
  23299815.380        3062.299        2386.206          45.250          37.500



 134148030.944 7 104530897.17145  25527522.460
  25527511.100        1537.134        1197.764          43.500          31.900



 112368218.854 8  87559655.92447  21382950.980
  21382946.400       -2100.492       -1636.748          50.600          46.450
  83911356.226 8  21382948.760       -1568.480          52.450


 119870463.358 7  93405555.35046  22810590.940
  22810586.520        2863.542        2231.330          47.050          41.150
  89513652.988 8  22810586.380        2138.339          50.750


 105820741.801 8  82457695.69048  20137011.040
  20137003.960        -723.255        -563.575          51.050          48.900



 109672314.156 8  85458915.42347  20869945.160
  20869937.260         124.764          97.217          50.650          47.200



 134643718.760 7 104917155.47145  25621847.300
  25621843.500       -3256.900       -2537.842          43.300          34.000
 100545616.066 7  25621843.900       -2432.159          45.450


 129206261.976 6 100493767.467 6  24136818.580
  24136816.980       -2284.821       -1777.085          39.500          39.900



 127508484.055 5  99173252.179 6  23811309.560
  23811306.400         507.534         394.748          35.300          40.900



 127072244.801 7  98833951.700 6  23796547.260
  23796544.860        4129.033        3211.471          42.050          41.000



 127088887.051 6  98846930.389 6  23841546.240
  23841546.700       -4107.035       -3194.364          41.600          38.650



 108674778.979 7  84524843.691 6  20336996.400
  20336997.820       -2622.889       -2040.026          46.650          40.950



 105256460.627 7  81866141.895 7  19704231.620
  19704231.360        1965.860        1529.002          43.700          44.750



 104998833.291 8  81665766.494 8  19621536.360
  19621534.280       -1762.954       -1371.187          48.250          48.650



 105533226.632 7  82081413.944 8  19769927.320
  19769927.440        2284.760        1777.035          47.700          48.600



 127699587.585 6  99321905.018 6  23872091.840
  23872089.980        4346.206        3380.385          37.750          39.200



 124638230.490 6  96940841.358 5  23307971.760
  23307968.740       -4198.426       -3265.444          38.400          30.700



 124149533.653 8                  23624862.000
                     -1020.213                          51.950
  92709087.375 8  23624860.880        -761.779          52.450    95127572.468 8
  23624858.040        -781.646          53.150    93918329.738 8  23624859.740
      -771.723          51.350
 148945346.173 7                  28343357.400
                      -888.108                          45.300
 111225419.125 7  28343355.220        -662.964          42.650   114126941.439 7
  28343353.880        -680.205          45.700   112676178.608 6  28343354.960
      -671.696          39.900
 139201057.397 7                  26489079.520
                      2854.364                          43.500
 103948875.319 6  26489088.700        2131.218          40.850   106660572.867 7
  26489086.840        2187.062          43.250   105304725.398 6  26489088.580
      2159.281          37.750
 114254036.037 8                  21741814.940
                      -237.947                          51.700
  85319591.421 8  21741815.160        -177.604          52.400    87545299.565 8
  21741812.240        -182.271          53.050    86432447.309 8  21741813.880
      -179.933          51.150
 18  1 21 21 16  0.0000000  0 26G02G05G12G14G16G21G23G25G26G29G31G32
                                R07R08R09R14R15R16R17R18R19R24E01E05
                                E24E26
 128095041.932 7  99814285.55846  24375672.240
  24375662.820       -2564.219       -1998.092          43.100          39.800



 131345367.294 7 102347024.72745  24994189.900
  24994184.260        2100.151        1636.484          42.550          33.200



 127603482.945 7  99431275.46846  24282128.200
  24282121.100       -3268.199       -2546.651          45.550          37.000



 126910722.650 6  98891424.79945  24150308.820
  24150302.400       -2835.812       -2209.725          41.100          34.700



 132670302.905 6 103379480.15345  25246321.140
  25246313.260        3381.442        2634.890          40.250          30.000



 122349640.680 7  95337354.82446  23282362.220
  23282355.160        3054.779        2380.347          45.300          37.550



 134102149.095 7 104495145.06445  25518791.260
  25518780.300        1521.652        1185.697          42.300          31.250



 112431395.387 8  87608884.38547  21394973.220
  21394968.500       -2111.084       -1645.001          50.650          46.700
  83958533.503 8  21394970.980       -1576.442          52.400


 119784642.355 7  93338681.85746  22794259.740
  22794255.260        2858.021        2227.028          46.550          41.500
  89449565.886 8  22794255.300        2134.353          50.750


 105842673.686 8  82474785.48148  20141184.540
  20141177.520        -738.703        -575.613          51.150          49.100



 109668859.548 8  85456223.51947  20869287.800
  20869279.860         105.649          82.324          50.550          47.700



 134741405.610 6 104993275.04545  25640436.440
  25640432.560       -3255.292       -2536.590          41.900          32.550
 100618563.999 7  25640433.480       -2430.757          43.650


 129275090.074 6 100547300.465 6  24149676.200
  24149674.180       -2303.572       -1791.666          38.650          38.850



 127493627.266 5  99161696.893 6  23808534.380
  23808531.820         482.727         375.453          35.150          40.900



 126948388.538 7  98737619.041 6  23773353.080
  23773350.800        4127.958        3210.633          42.750          41.050



 127212174.933 7  98942820.956 6  23864674.680
  23864675.380       -4112.103       -3198.303          42.350          38.000



 108753732.824 7  84586252.241 6  20351771.580
  20351772.820       -2640.594       -2053.796          46.250          40.800



 105197758.715 7  81820484.861 7  19693242.440
  19693242.240        1947.774        1514.936          43.650          44.750



 105052036.341 7  81707146.652 8  19631478.500
  19631476.520       -1783.861       -1387.448          47.850          48.550



 105465003.276 7  82028351.359 8  19757146.780
  19757146.900        2263.502        1760.502          47.700          48.400



 127569280.806 6  99220555.322 6  23847732.060
  23847730.280        4341.175        3376.469          38.800          38.700



 124764240.221 6  97038848.911 5  23331536.300
  23331533.480       -4202.194       -3268.375          37.350          30.250



 124180299.374 8                  23630716.500
                     -1030.732                          51.900
  92732061.773 8  23630715.440        -769.646          52.300    95151146.198 8
  23630712.560        -789.710          53.150    93941603.804 8  23630714.280
      -779.679          51.400
 148972180.231 7                  28348463.760
                      -900.975                          45.000
 111245457.590 7  28348461.820        -672.740          42.350   114147502.639 7
  28348460.060        -690.275          45.450   112696478.430 6  28348461.180
      -681.509          40.000
 139115429.810 7                  26472785.220
                      2854.388                          43.900
 103884932.619 6  26472794.580        2131.696          41.250   106594962.076 7
  26472792.540        2187.493          43.850   105239948.661 6  26472794.160
      2159.708          38.350
 114261377.038 8                  21743211.880
                      -251.378                          51.800
  85325073.343 8  21743212.120        -187.599          52.300    87550924.496 8
  21743209.140        -192.522          53.100    86438000.738 8  21743210.820
      -190.072          51.300
 18  1 21 21 16 30.0000000  0 26G02G05G12G14G16G21G23G25G26G29G31G32
                                R07R08R09R14R15R16R17R18R19R24E01E05
                                E24E26
 128172118.972 7  99874345.58946  24390339.600
  24390330.200       -2574.235       -2005.896          43.150          37.950



 131282541.159 7 102298069.31245  24982234.540
  24982228.980        2088.465        1627.377          42.900          33.500



 127701572.116 7  99507708.57146  24300793.760
  24300787.020       -3271.417       -2549.157          45.300          36.850



 126995896.603 6  98957794.09545  24166516.860
  24166510.560       -2842.288       -2214.767          41.200          33.650



 132568867.745 6 103300439.76445  25227018.880
  25227010.880        3380.949        2634.504          41.000          30.750



 122258108.256 7  95266030.87346  23264944.120
  23264936.940        3047.274        2374.501          45.650          37.700



 134056727.341 7 104459751.51845  25510147.520
  25510136.800        1506.298        1173.737          42.900          31.600



 112494880.448 8  87658353.24547  21407054.080
  21407049.300       -2121.454       -1653.081          50.550          46.250
  84005941.157 8  21407051.840       -1584.229          52.450


 119698974.596 7  93271927.75546  22777957.640
  22777953.180        2853.023        2223.136          46.650          40.900
  89385593.225 8  22777953.400        2130.415          51.000


 105865059.575 8  82492229.03548  20145444.580
  20145437.400        -753.817        -587.391          51.300          49.000



 109665970.611 8  85453972.39147  20868738.120
  20868730.100          86.724          67.576          50.550          47.250



 134839027.208 6 105069343.81945  25659013.220
  25659009.660       -3252.978       -2534.787          41.800          33.850
 100691463.203 7  25659010.500       -2429.213          44.700


 129344470.447 6 100601262.992 6  24162636.860
  24162634.860       -2321.828       -1805.865          39.050          38.650



 127479508.805 5  99150715.866 6  23805897.540
  23805895.200         458.672         356.745          35.150          41.300



 126824550.151 7  98641300.300 6  23750162.360
  23750160.020        4127.556        3210.322          42.450          41.750



 127335608.071 7  99038824.520 6  23887830.540
  23887831.200       -4117.133       -3202.214          42.300          37.200



 108833203.059 7  84648062.409 6  20366643.360
  20366644.640       -2657.611       -2067.032          46.350          41.150



 105139601.615 7  81775251.550 7  19682355.320
  19682355.180        1929.427        1500.665          43.750          45.000



 105105856.992 7  81749007.168 8  19641536.100
  19641534.040       -1804.389       -1403.413          47.900          48.700



 105397409.647 7  81975778.549 8  19744484.260
  19744484.340        2242.604        1744.248          47.850          48.550



 127439108.824 6  99119310.516 6  23823397.760
  23823396.140        4336.615        3372.924          38.950          38.000



 124890353.371 6  97136936.915 5  23355120.140
  23355117.320       -4205.306       -3270.792          37.900          30.350



 124211372.464 8                  23636629.540
                     -1040.959                          51.950
  92755265.698 8  23636628.520        -777.414          52.400    95174955.445 8
  23636625.600        -797.685          53.150    93965110.389 8  23636627.300
      -787.554          51.300
 148999398.028 7                  28353643.080
                      -913.639                          44.350
 111265782.576 7  28353641.380        -682.491          43.300   114168357.836 7
  28353639.380        -700.140          45.650   112717068.527 6  28353640.600
      -691.313          40.350
 139029781.600 7                  26456486.920
                      2854.877                          44.200
 103820974.502 6  26456496.600        2131.909          41.750   106529335.505 7
  26456494.580        2187.606          44.500   105175156.322 6  26456495.840
      2159.744          38.950
 114269113.151 8                  21744684.020
                      -264.530                          51.750
  85330850.323 8  21744684.240        -197.605          52.400    87556852.175 8
  21744681.260        -202.749          53.050    86443853.068 8  21744682.960
      -200.183          51.150
 18  1 21 21 17  0.0000000  0 27G02G05G12G14G16G21G23G25G26G29G31G32
                                R01R07R08R09R14R15R16R17R18R19R24E01
                                E05E24E26
 128249497.241 7  99934640.33646  24405064.280
  24405054.640       -2584.151       -2013.624          43.150          37.850



 131220061.594 7 102249383.95845  24970345.300
  24970339.560        2076.906        1618.368          43.350          31.950



 127799750.869 7  99584211.48546  24319476.420
  24319469.860       -3274.023       -2551.187          45.000          37.750



 127081267.411 6  99024316.71845  24182762.420
  24182756.020       -2848.813       -2219.860          40.850          34.400



 132467442.479 6 103221407.10744  25207718.060
  25207709.980        3380.719        2634.323          41.700          28.900



 122166801.860 7  95194883.04646  23247569.020
  23247562.060        3039.767        2368.650          45.200          37.600



 134011769.553 7 104424719.49245  25501592.380
  25501581.380        1490.841        1161.694          42.350          31.850



 112558675.425 8  87708063.60747  21419193.940
  21419189.000       -2131.543       -1660.942          50.500          46.150
  84053580.252 8  21419191.600       -1591.665          52.400


 119613463.413 7  93205295.67546  22761685.220
  22761680.920        2847.774        2219.045          45.950          41.750
  89321737.477 8  22761681.340        2126.717          51.050


 105887900.140 8  82510026.88648  20149791.140
  20149783.740        -768.847        -599.101          51.300          48.850



 109663649.745 8  85452163.92247  20868296.500
  20868288.420          67.947          52.945          50.500          47.350



 134936583.037 6 105145361.28945  25677577.380
  25677573.860       -3250.691       -2533.012          41.850          33.050
 100764313.280 7  25677574.860       -2427.332          44.550


 131757011.940 6 102477678.406 4  24647872.300
  24647873.520        2749.273        2138.325          36.500          28.200



 129414401.793 6 100655654.053 6  24175700.600
  24175698.460       -2339.914       -1819.934          40.900          38.950



 127466131.548 5  99140311.309 6  23803399.260
  23803397.140         433.766         337.372          34.950          41.000



 126700734.510 7  98544999.235 6  23726975.800
  23726973.280        4126.845        3209.768          42.900          41.150



 127459186.283 7  99134940.944 6  23911013.620
  23911014.140       -4121.470       -3205.588          42.600          36.300



 108913189.052 7  84710273.733 6  20381611.680
  20381613.000       -2674.803       -2080.402          46.850          40.700



 105081994.461 7  81730445.986 7  19671571.220
  19671570.920        1911.189        1486.479          44.200          44.550



 105160294.638 8  81791347.564 8  19651708.840
  19651707.000       -1824.793       -1419.283          48.050          48.400



 105330449.219 8  81923698.237 8  19731940.520
  19731940.260        2221.474        1727.813          48.450          48.050



 127309076.209 6  99018174.092 6  23799089.580
  23799088.040        4332.114        3369.427          39.600          39.750



 125016569.257 6  97235104.820 5  23378723.060
  23378720.380       -4208.969       -3273.642          38.950          31.150



 124242755.152 8                  23642601.440
                     -1051.211                          51.850
  92778700.811 8  23642600.480        -784.899          52.350    95199001.912 8
  23642597.560        -805.375          53.100    93988851.177 8  23642599.240
      -795.122          51.250
 149027000.740 7                  28358895.540
                      -926.349                          43.700
 111286394.973 7  28358894.300        -691.682          44.100   114189507.946 7
  28358891.940        -709.678          45.600   112737949.779 6  28358893.160
      -700.660          40.650
 138944115.628 7                  26440185.380
                      2855.973                          43.050
 103757003.173 7  26440195.080        2132.783          42.600   106463695.361 7
  26440192.960        2188.413          44.750   105110350.590 6  26440194.240
      2160.492          39.350
 114277245.829 8                  21746231.620
                      -277.600                          51.750
  85336923.426 8  21746231.880        -207.228          52.400    87563083.711 8
  21746228.920        -212.642          53.050    86450005.385 8  21746230.560
      -209.940          51.100
 18  1 21 21 17 30.0000000  0 27G02G05G12G14G16G21G23G25G26G29G31G32
                                R01R07R08R09R14R15R16R17R18R19R24E01
                                E05E24E26
 128327171.928 7  99995166.06445  24419845.220
  24419835.760       -2594.200       -2021.453          43.050          35.950



 131157928.435 7 102200968.50446  24958522.120
  24958515.880        2065.091        1609.164          43.600          36.750



 127898015.610 7  99660781.37845  24338175.480
  24338169.120       -3277.000       -2553.507          44.650          35.950



 127166829.239 6  99090988.25845  24199044.320
  24199037.480       -2855.308       -2224.913          41.500          30.850



 132366025.350 6 103142380.78944  25188418.880
  25188410.700        3380.388        2634.067          40.300          27.150



 122075721.417 7  95123911.29046  23230236.980
  23230230.060        3032.063        2362.647          44.950          38.650



 133967274.156 6 104390047.72845  25493125.280
  25493113.700        1475.401        1149.661          41.900          31.950



 112622777.218 8  87758013.04547  21431392.160
  21431387.120       -2141.887       -1669.002          50.250          46.050
  84101448.460 8  21431389.740       -1599.409          52.400


 119528107.727 7  93138784.75446  22745442.420
  22745438.200        2842.604        2215.017          46.050          41.300
  89257997.863 8  22745438.900        2122.730          51.000


 105911191.831 8  82528176.25648  20154223.420
  20154216.000        -783.987        -610.899          51.250          48.800



 109661894.997 8  85450796.58247  20867962.560
  20867954.480          48.991          38.175          50.550          47.350



 135034067.905 6 105221323.50745  25696127.920
  25696124.340       -3248.309       -2531.150          40.000          35.650
 100837110.398 7  25696125.420       -2425.698          42.700


 131674757.904 6 102413703.074 4  24632485.260
  24632486.540        2734.241        2126.633          36.350          29.050



 129484878.216 6 100710469.039 6  24188866.740
  24188864.340       -2358.285       -1834.222          40.700          39.000



 127453493.440 5  99130481.688 6  23801039.040
  23801037.140         408.719         317.893          34.550          41.400



 126576941.576 7  98448715.832 6  23703793.580
  23703790.920        4125.915        3209.046          43.000          41.650



 127582905.189 6  99231166.775 6  23934222.920
  23934223.420       -4126.555       -3209.541          41.100          36.500



 108993688.280 7  84772884.225 6  20396676.020
  20396677.140       -2691.912       -2093.710          46.550          40.900



 105024937.501 7  81686068.353 7  19660890.040
  19660889.700        1892.666        1472.074          43.850          44.750



 105215343.756 7  81834163.551 8  19661996.000
  19661994.220       -1845.213       -1435.165          47.850          48.600



 105264121.035 8  81872109.658 8  19719515.140
  19719514.620        2200.292        1711.339          48.300          48.100



 127179183.168 6  98917146.175 6  23774807.620
  23774805.620        4327.313        3365.688          38.350          38.750



 125142882.234 6  97333348.238 5  23402344.280
  23402341.620       -4212.013       -3276.010          38.450          31.550



 124274445.115 8                  23648631.860
                     -1061.494                          51.800
  92802365.390 8  23648630.900        -792.635          52.300    95223283.824 8
  23648628.000        -813.298          53.150    94012824.424 8  23648629.640
      -802.965          51.300
 149054984.937 7                  28364220.580
                      -939.427                          43.750
 111307292.223 7  28364219.960        -701.263          44.300   114210950.372 7
  28364216.980        -719.599          46.050   112759119.608 6  28364218.520
      -710.305          41.250
 138858430.443 7                  26423880.080
                      2856.517                          45.350
 103693017.491 7  26423889.960        2133.179          43.600   106398040.505 7
  26423887.380        2188.796          45.750   105045530.316 6  26423888.940
      2160.991          40.500
 114285772.003 8                  21747854.080
                      -290.799                          51.800
  85343290.384 8  21747854.440        -217.075          52.350    87569616.758 8
  21747851.440        -222.734          53.100    86456455.389 8  21747853.040
      -219.896          51.250
 18  1 21 21 18  0.0000000  0 27G02G05G12G14G16G21G23G25G26G29G31G32
                                R01R07R08R09R14R15R16R17R18R19R24E01
                                E05E24E26
 128405141.988 7 100055921.94746  24434682.460
  24434673.080       -2603.796       -2028.931          43.150          38.650



 131096145.674 7 102152826.13845  24946765.480
  24946758.820        2053.735        1600.316          43.200          35.500



 127996366.770 7  99737418.60746  24356890.980
  24356884.360       -3279.656       -2555.578          44.500          38.200



 127252580.374 6  99157807.26545  24215362.320
  24215355.320       -2861.437       -2229.694          40.650          34.250



 132264618.244 6 103063362.28645  25169121.660
  25169113.660        3380.271        2633.973          40.200          33.650



 121984869.842 7  95053117.85746  23212948.520
  23212941.400        3024.759        2356.953          44.950          37.750



 133923243.489 6 104355738.10645  25484746.280
  25484735.640        1460.282        1137.887          41.650          30.900



 112687185.922 8  87808201.63447  21443648.840
  21443643.760       -2151.875       -1676.786          50.400          46.600
  84149545.856 8  21443646.300       -1606.929          52.400


 119442909.595 7  93072396.61246  22729229.540
  22729225.680        2837.308        2210.890          46.000          41.500
  89194375.901 8  22729226.380        2118.824          51.050


 105934934.055 8  82546676.68648  20158741.400
  20158734.040        -798.710        -622.371          51.200          48.800



 109660707.698 8  85449871.40347  20867736.500
  20867728.520          30.267          23.585          50.450          47.200



 135131480.158 6 105297229.12944  25714664.600
  25714661.260       -3245.831       -2529.223          39.600          29.950
 100909853.297 7  25714662.200       -2423.849          42.300


 131592962.831 5 102350084.667 4  24617182.980
  24617184.780        2719.080        2114.838          35.700          29.150



 129555896.981 6 100765705.858 6  24202134.140
  24202131.460       -2376.130       -1848.100          38.950          39.300



 127441596.110 5  99121228.241 6  23798817.320
  23798815.420         384.141         298.777          34.700          41.700



 126453174.707 7  98352452.711 6  23680616.160
  23680613.420        4125.055        3208.377          42.850          41.950



 127706763.580 6  99327501.064 6  23957458.340
  23957459.340       -4130.623       -3212.706          39.400          37.100



 109074698.598 7  84835892.242 6  20411836.100
  20411836.980       -2708.654       -2106.731          46.200          41.100



 104968434.470 7  81642121.544 7  19650312.440
  19650312.160        1874.192        1457.705          43.750          44.800



 105271001.972 7  81877453.272 8  19672397.100
  19672395.160       -1865.277       -1450.771          47.600          48.700



 105198427.675 8  81821014.827 8  19707208.540
  19707207.940        2179.273        1694.991          48.000          48.200



 127049433.323 6  98816229.696 6  23750552.460
  23750550.480        4322.895        3362.254          37.800          38.250



 125269289.753 6  97431665.162 5  23425983.460
  23425980.660       -4215.159       -3278.458          38.050          31.750



 124306443.266 8                  23654720.860
                     -1071.636                          51.800
  92826260.103 8  23654719.960        -800.234          52.300    95247801.877 8
  23654717.100        -821.074          53.150    94037030.809 8  23654718.680
      -810.656          51.300
 149083350.475 7                  28369618.060
                      -951.743                          43.500
 111328474.278 7  28369618.120        -710.731          44.300   114232684.973 7
  28369614.660        -729.189          45.850   112780577.944 6  28369616.240
      -719.953          41.050
 138772727.656 7                  26407571.600
                      2857.393                          44.750
 103629018.659 7  26407581.500        2133.611          43.500   106332372.126 7
  26407578.600        2189.236          45.450   104980696.705 6  26407580.220
      2161.457          40.200
 114294691.784 8                  21749551.460
                      -303.725                          51.850
  85349951.266 8  21749551.880        -226.805          52.400    87576451.404 8
  21749548.860        -232.715          53.100    86463203.150 8  21749550.400
      -229.736          51.250
 18  1 21 21 18 30.0000000  0 27G02G05G12G14G16G21G23G25G26G29G31G32
                                R01R07R08R09R14R15R16R17R18R19R24E01
                                E05E24E26
 128483406.227 7 100116907.06646  24449575.720
  24449566.160       -2613.721       -2036.666          43.500          37.400



 131034717.633 7 102104960.11545  24935076.260
  24935069.500        2041.663        1590.905          43.500          30.650



 128094805.392 7  99814123.99746  24375623.240
  24375616.620       -3282.814       -2558.040          44.700          36.300



 127338518.776 6  99224772.19045  24231715.740
  24231708.680       -2867.397       -2234.341          40.950          35.000



 132163223.136 6 102984353.18845  25149826.720
  25149819.120        3379.824        2633.630          40.150          35.600



 121894250.920 7  94982505.71846  23195704.360
  23195697.180        3016.506        2350.524          45.450          37.700



 133879680.146 6 104321792.67545  25476456.160
  25476446.240        1444.438        1125.541          41.100          31.600



 112751902.005 8  87858629.74047  21455963.980
  21455958.840       -2162.307       -1684.915          50.600          46.200
  84197872.788 8  21455961.320       -1614.660          52.450


 119357871.502 7  93006133.17746  22713047.300
  22713043.520        2831.886        2206.664          46.250          41.600
  89130873.439 8  22713044.220        2114.758          51.000


 105959126.835 8  82565528.20548  20163345.080
  20163337.680        -813.860        -634.177          51.050          48.750



 109660089.162 8  85449389.42347  20867618.720
  20867610.780          11.208           8.733          50.400          47.150



 135228818.077 6 105373076.82645  25733187.020
  25733184.180       -3243.332       -2527.272          39.500          31.200
 100982540.663 7  25733184.560       -2421.925          42.450


 131511631.681 6 102286827.138 4  24601968.660
  24601969.940        2703.245        2102.525          36.300          28.800



 129627455.647 6 100821362.598 6  24215501.820
  24215499.120       -2394.229       -1862.180          39.200          39.100



 127430441.214 5  99112552.226 6  23796734.820
  23796732.480         359.429         279.555          35.550          41.400



 126329437.544 7  98256212.662 6  23657444.400
  23657441.500        4124.125        3207.651          42.800          41.700



 127830760.153 6  99423942.827 6  23980719.740
  23980720.860       -4135.379       -3216.407          41.100          37.700



 109156220.465 7  84899298.122 6  20427091.920
  20427092.800       -2725.805       -2120.070          46.550          40.950



 104912489.613 7  81598608.878 7  19639839.380
  19639839.200        1855.455        1443.132          43.350          44.700



 105327267.664 7  81921215.473 8  19682911.860
  19682909.860       -1885.545       -1466.535          47.750          48.550



 105133371.657 7  81770415.716 8  19695021.320
  19695020.760        2157.994        1678.441          47.800          48.000



 126919830.251 6  98715427.329 6  23726324.640
  23726322.400        4317.736        3358.244          38.150          39.450



 125395789.997 6  97530054.231 5  23449639.520
  23449636.860       -4218.185       -3280.812          38.500          31.450



 124338750.853 8                  23660868.780
                     -1082.046                          51.750
  92850385.891 8  23660867.900        -807.985          52.350    95272557.038 8
  23660864.960        -829.113          53.100    94061471.283 8  23660866.600
      -818.568          51.200
 149112097.471 7                  28375088.300
                      -964.662                          43.300
 111349941.202 7  28375088.880        -720.380          44.950   114254711.917 7
  28375084.980        -739.128          45.850   112802324.876 6  28375086.640
      -729.758          41.050
 138687009.252 7                  26391260.100
                      2857.554                          44.650
 103565008.149 7  26391269.780        2133.965          42.950   106266691.772 7
  26391266.800        2189.517          44.700   104915851.273 6  26391268.480
      2161.743          39.350
 114304005.670 8                  21751323.820
                      -317.064                          51.800
  85356906.450 8  21751324.300        -236.698          52.450    87583588.023 8
  21751321.280        -242.860          53.050    86470249.053 8  21751322.780
      -239.783          51.200
 18  1 21 21 19  0.0000000  0 27G02G05G12G14G16G21G23G25G26G29G31G32
                                R01R07R08R09R14R15R16R17R18R19R24E01
                                E05E24E26
 128561962.409 7 100178119.67646  24464524.580
  24464515.100       -2622.896       -2043.812          43.650          38.700



 130973646.372 7 102057372.15745  24923454.840
  24923448.080        2030.315        1582.068          43.600          34.000



 128193329.856 7  99890896.28346  24394371.980
  24394365.320       -3285.111       -2559.829          44.900          37.000



 127424641.158 6  99291880.50545  24248104.240
  24248096.920       -2873.381       -2238.999          40.600          30.850



 132061840.451 6 102905353.76744  25130534.060
  25130526.040        3379.668        2633.505          39.400          27.500



 121803866.585 7  94912076.38546  23178504.780
  23178497.660        3009.417        2345.000          45.750          38.650



 133836585.334 6 104288212.30245  25468255.240
  25468245.340        1429.357        1113.785          40.750          34.500



 112816924.443 8  87909296.56047  21468337.400
  21468332.280       -2171.966       -1692.441          50.700          46.350
  84246428.489 8  21468334.620       -1621.942          52.450


 119272994.423 7  92939995.19647  22696895.820
  22696891.940        2826.969        2202.833          46.700          42.650
  89067491.199 8  22696892.600        2111.122          50.950


 105983768.485 8  82584729.49148  20168034.100
  20168026.780        -828.244        -645.386          51.100          48.750



 109660039.762 8  85449350.92147  20867609.260
  20867601.380          -7.270          -5.665          50.600          47.500



 135326078.948 6 105448864.51745  25751694.920
  25751692.480       -3240.152       -2524.796          41.050          31.800
 101055170.550 7  25751692.520       -2419.492          44.400


 131430767.457 6 102223932.727 4  24586841.580
  24586842.260        2688.316        2090.912          37.100          27.600



 129699550.515 6 100877436.405 6  24228969.460
  24228967.080       -2411.545       -1875.646          39.350          39.750



 127420029.319 5  99104454.095 6  23794791.020
  23794788.120         335.299         260.788          35.050          41.100



 126205732.279 7  98159997.471 7  23634278.380
  23634275.560        4123.627        3207.266          43.200          42.000



 127954892.530 6  99520490.206 6  24004006.600
  24004007.420       -4139.505       -3219.616          41.250          37.400



 109238251.378 7  84963099.929 6  20442442.900
  20442443.740       -2742.293       -2132.896          46.750          40.750



 104857105.249 7  81555532.151 7  19629471.360
  19629471.060        1837.445        1429.124          43.750          44.700



 105384137.462 8  81965447.536 8  19693539.460
  19693537.360       -1905.111       -1481.754          48.050          48.450



 105068953.914 8  81720313.029 8  19682953.620
  19682953.100        2137.063        1662.159          48.200          48.050



 126790376.331 6  98614740.966 6  23702124.380
  23702122.080        4313.401        3354.870          39.150          38.950



 125522379.814 6  97628512.985 5  23473312.600
  23473309.640       -4220.860       -3282.891          38.900          30.300



 124371367.650 8                  23667075.520
                     -1091.814                          51.800
  92874742.576 8  23667074.640        -815.305          52.400    95297549.114 8
  23667071.700        -836.606          53.050    94086145.662 8  23667073.380
      -825.966          51.000
 149141224.620 7                  28380630.900
                      -976.644                          44.300
 111371691.995 7  28380631.800        -729.309          44.600   114277030.119 7
  28380627.620        -748.379          45.400   112824359.382 6  28380629.260
      -738.883          40.550
 138601275.808 7                  26374945.640
                      2858.524                          44.900
 103500986.403 7  26374955.320        2134.634          43.350   106200999.882 7
  26374952.200        2190.367          44.700   104850994.459 6  26374953.880
      2162.518          39.600
 114313712.637 8                  21753171.000
                      -329.567                          51.900
  85364155.162 8  21753171.520        -246.099          52.450    87591025.834 8
  21753168.440        -252.536          53.000    86477592.317 8  21753169.940
      -249.345          51.050
 18  1 21 21 19 30.0000000  0 27G02G05G12G14G16G21G23G25G26G29G31G32
                                R01R07R08R09R14R15R16R17R18R19R24E01
                                E05E24E26
 128640804.949 7 100239555.40546  24479527.980
  24479518.140       -2632.768       -2051.507          43.450          37.800



 130912931.474 7 102010061.86545  24911901.300
  24911894.820        2017.949        1572.428          43.900          34.250



 128291936.432 7  99967732.54846  24413136.420
  24413129.600       -3288.083       -2562.143          44.600          37.250



 127510941.269 6  99359127.32645  24264526.700
  24264518.980       -2879.030       -2243.400          40.550          34.000



 131960467.701 6 102826362.00744  25111243.380
  25111235.640        3379.249        2633.175          40.900          26.800



 121713715.172 7  94841828.55346  23161349.440
  23161342.460        3001.157        2338.564          45.850          38.250



 133793957.296 6 104254995.64545  25460143.400
  25460133.340        1413.462        1101.401          40.100          35.000



 112882249.421 8  87960199.12047  21480768.380
  21480763.280       -2182.434       -1700.599          50.650          46.050
  84295210.107 8  21480765.540       -1629.742          52.400


 119188276.533 7  92873981.24947  22680774.620
  22680770.640        2821.322        2198.432          46.700          42.450
  89004227.844 8  22680771.100        2106.800          50.750


 106008854.232 8  82604276.83048  20172807.740
  20172800.440        -843.533        -657.299          51.000          48.750



 109660556.490 8  85449753.55847  20867707.540
  20867699.720         -26.578         -20.711          50.600          47.050



 135423256.762 6 105524587.45344  25770187.240
  25770185.620       -3237.727       -2522.908          39.400          28.800
 101127738.384 7  25770185.020       -2417.891          44.100


 131350371.190 6 102161402.284 4  24571801.960
  24571802.620        2671.864        2078.116          36.800          29.250



 129772174.703 6 100933921.845 6  24242536.040
  24242533.960       -2429.477       -1889.594          39.700          40.500



 127410357.554 5  99096931.623 6  23792985.100
  23792981.900         309.685         240.866          34.200          41.400



 126082058.410 6  98063806.657 7  23611118.080
  23611115.320        4121.665        3205.741          41.750          42.400



 128079155.522 6  99617139.212 6  24027318.020
  24027318.640       -4144.097       -3223.187          40.600          37.500



 109320787.244 7  85027294.483 6  20457888.380
  20457889.220       -2759.559       -2146.323          46.200          41.050



 104802281.237 7  81512891.244 7  19619208.120
  19619207.920        1818.142        1414.110          44.100          44.800



 105441605.208 7  82010144.670 8  19704278.720
  19704276.520       -1925.360       -1497.503          47.850          48.650



 105005172.799 8  81670705.514 8  19671005.260
  19671004.760        2115.512        1645.398          48.450          48.400



 126661071.165 6  98514170.304 6  23677951.860
  23677949.720        4307.670        3350.407          39.000          37.900



 125649052.944 6  97727036.516 5  23497000.880
  23496998.160       -4223.765       -3285.151          38.150          30.750



 124404290.636 8                  23673340.600
                     -1102.522                          51.800
  92899327.911 8  23673339.680        -823.288          52.300    95322775.804 8
  23673336.700        -844.737          53.050    94111051.674 8  23673338.400
      -834.018          51.050
 149170727.852 7                  28386245.160
                      -989.566                          44.500
 111393723.618 7  28386246.240        -738.777          44.250   114299636.508 7
  28386241.980        -758.334          46.100   112846678.380 6  28386243.660
      -748.604          41.000
 138515525.069 7                  26358627.800
                      2858.688                          45.100
 103436951.749 7  26358637.600        2134.700          43.850   106135294.759 7
  26358634.320        2190.371          45.700   104786124.566 6  26358636.020
      2162.671          40.600
 114323808.877 8                  21755092.220
                      -342.989                          51.800
  85371694.565 8  21755092.820        -256.136          52.400    87598761.915 8
  21755089.680        -262.802          53.050    86485230.057 8  21755091.160
      -259.450          51.100
 18  1 21 21 20  0.0000000  0 27G02G05G12G14G16G21G23G25G26G29G31G32
                                R01R07R08R09R14R15R16R17R18R19R24E01
                                E05E24E26
 128719936.153 7 100301216.08146  24494586.280
  24494576.180       -2642.622       -2059.187          43.700          37.350



 130852579.457 7 101963034.33345  24900416.760
  24900410.160        2005.748        1562.922          43.950          33.500



 128390628.402 7 100044635.34746  24431916.960
  24431909.920       -3291.177       -2564.556          45.200          37.300



 127597420.200 6  99426513.44345  24280983.140
  24280975.800       -2885.858       -2248.727          41.000          33.900



 131859110.180 6 102747382.10244  25091955.520
  25091947.300        3378.243        2632.390          41.650          27.000



 121623804.195 7  94771768.05646  23144240.100
  23144232.880        2992.950        2332.170          46.250          38.150



 133751801.385 6 104222146.86945  25452121.500
  25452111.120        1397.389        1088.875          40.650          32.950



 112947880.486 8  88011340.19647  21493257.620
  21493252.520       -2192.873       -1708.732          50.750          46.300
  84344220.303 8  21493254.700       -1637.537          52.350


 119103723.454 7  92808095.73947  22664684.800
  22664680.820        2815.616        2193.987          46.750          42.550
  88941087.553 8  22664680.840        2102.543          50.650


 106034387.251 8  82624172.68548  20177666.540
  20177659.200        -858.698        -669.115          51.100          48.700



 109661643.656 8  85450600.69547  20867914.400
  20867906.580         -45.825         -35.708          50.600          46.950



 135520353.387 6 105600247.16645  25788664.040
  25788662.040       -3235.347       -2521.053          40.600          32.900
 101200245.542 7  25788661.980       -2415.873          45.350


 131270450.678 6 102099241.861 4  24556851.420
  24556851.820        2656.047        2065.813          39.150          29.350



 129845328.931 6 100990819.572 6  24256201.840
  24256199.700       -2447.131       -1903.323          39.850          40.200



 127401430.809 5  99089988.606 6  23791317.800
  23791314.940         285.190         221.815          34.300          41.300



 125958422.839 7  97967645.630 7  23587964.760
  23587962.160        4120.413        3204.763          42.550          42.000



 128203551.143 6  99713891.366 6  24050654.220
  24050654.840       -4148.754       -3226.810          40.100          36.300



 109403830.505 7  85091883.661 6  20473428.700
  20473429.540       -2776.685       -2159.644          46.400          40.750



 104748024.583 7  81470691.622 7  19609051.340
  19609050.920        1799.034        1399.248          44.100          44.750



 105499672.129 7  82055307.826 8  19715129.960
  19715127.680       -1945.637       -1513.273          47.900          48.600



 104942033.998 8  81621597.560 8  19659177.280
  19659176.740        2093.884        1628.577          48.600          48.350



 126531921.279 6  98413720.430 6  23653808.420
  23653806.540        4302.306        3346.239          38.350          38.300



 125775810.556 6  97825625.747 5  23520705.080
  23520702.640       -4226.399       -3287.200          37.600          31.500



 124437524.158 8                  23679664.820
                     -1112.977                          51.850
  92924145.142 8  23679663.820        -831.101          52.250    95348240.439 8
  23679660.720        -852.789          53.100    94136192.606 8  23679662.520
      -841.937          51.150
 149200610.346 7                  28391931.560
                     -1002.518                          44.950
 111416038.484 7  28391932.600        -748.481          43.900   114322533.484 7
  28391928.520        -768.059          45.750   112869284.301 6  28391930.060
      -758.252          40.750
 138429762.197 7                  26342307.700
                      2858.806                          45.350
 103372908.031 7  26342317.580        2134.953          44.300   106069580.352 7
  26342314.140        2190.649          45.900   104721245.514 6  26342315.980
      2162.708          41.100
 114334297.959 8                  21757088.220
                      -356.157                          51.900
  85379527.329 8  21757088.880        -266.036          52.350    87606799.006 8
  21757085.680        -272.952          53.050    86493164.984 8  21757087.160
      -269.495          51.250
 18  1 21 21 20 30.0000000  0 27G02G05G12G14G16G21G23G25G26G29G31G32
                                R01R07R08R09R14R15R16R17R18R19R24E01
                                E05E24E26
 128799352.893 7 100363099.26146  24509698.860
  24509688.720       -2651.933       -2066.440          43.950          36.200



 130792593.156 7 101916291.78045  24889001.520
  24888995.140        1993.460        1553.346          43.550          33.900



 128489403.964 7 100121603.29946  24450713.560
  24450706.360       -3293.822       -2566.614          44.750          36.750



 127684074.001 6  99494035.83245  24297472.960
  24297465.980       -2891.229       -2252.913          40.950          32.450



 131757767.911 6 102668414.12944  25072670.660
  25072662.000        3377.905        2632.133          40.300          29.600



 121534134.842 7  94701895.84546  23127176.600
  23127169.440        2984.924        2325.916          45.650          38.050



 133710118.042 6 104189666.34245  25444189.180
  25444179.240        1381.543        1076.525          40.650          33.700



 113013815.976 8  88062718.48547  21505804.740
  21505799.620       -2202.881       -1716.531          50.700          46.000
  84393457.828 8  21505801.820       -1644.988          52.350


 119019335.459 7  92742338.86247  22648626.380
  22648622.340        2810.113        2189.699          46.950          42.850
  88878070.538 8  22648622.080        2098.526          50.650


 106060365.430 8  82644415.42448  20182610.020
  20182602.740        -873.370        -680.549          51.050          48.450



 109663300.785 8  85451891.96047  20868229.760
  20868221.920         -64.749         -50.453          50.550          47.050



 135617365.134 6 105675840.71445  25807124.780
  25807122.600       -3232.023       -2518.464          41.500          35.550
 101272689.382 7  25807122.760       -2413.666          44.350


 131191008.681 6 102037453.649 4  24541990.180
  24541990.760        2639.987        2053.322          37.650          29.700



 129919008.508 6 101048125.920 6  24269965.840
  24269963.840       -2464.591       -1916.903          39.750          40.400



 127393248.565 5  99083624.649 6  23789789.520
  23789787.040         260.193         202.372          34.550          40.700



 125834827.059 7  97871515.577 6  23564819.120
  23564816.500        4119.135        3203.771          42.250          41.750



 128328076.463 6  99810744.376 5  24074014.620
  24074015.120       -4153.135       -3230.217          37.800          35.550



 109487378.387 7  85156865.340 6  20489063.380
  20489064.280       -2793.430       -2172.668          45.950          40.250



 104694336.976 7  81428934.607 7  19599000.920
  19599000.360        1780.046        1384.480          44.100          44.300



 105558334.370 7  82100934.016 8  19726092.420
  19726090.140       -1965.295       -1528.562          47.900          48.350



 104879537.786 8  81572989.416 8  19647469.620
  19647469.200        2072.540        1611.977          48.300          48.200



 126402928.268 6  98313392.543 6  23629694.240
  23629692.180        4297.294        3342.341          39.050          38.150



 125902648.465 6  97924277.423 5  23544424.220
  23544422.280       -4229.195       -3289.376          37.700          30.050



 124471067.289 8                  23686047.920
                     -1123.246                          51.900
  92949193.570 8  23686046.880        -838.705          52.300    95373942.306 8
  23686043.720        -860.641          53.050    94161567.754 8  23686045.560
      -849.686          51.050
 149230870.036 7                  28397689.900
                     -1014.917                          45.050
 111438635.008 7  28397690.640        -757.965          43.700   114345719.492 7
  28397686.860        -777.725          45.750   112892175.570 6  28397688.440
      -767.897          40.550
 138343987.051 7                  26325985.220
                      2859.267                          44.750
 103308855.173 7  26325995.340        2135.291          44.050   106003856.535 7
  26325991.540        2190.964          44.900   104656357.175 6  26325993.440
      2163.088          40.250
 114345178.174 8                  21759158.680
                      -369.215                          51.850
  85387652.163 8  21759159.300        -275.647          52.350    87615135.794 8
  21759156.080        -282.817          53.000    86501395.795 8  21759157.580
      -279.236          51.050
 18  1 21 21 21  0.0000000  0 27G02G05G12G14G16G21G23G25G26G29G31G32
                                R01R07R08R09R14R15R16R17R18R19R24E01
                                E05E24E26
 128879052.140 7 100425202.54846  24524865.280
  24524855.160       -2660.977       -2073.490          44.250          36.950



 130732973.804 7 101869835.17245  24877656.080
  24877649.980        1981.599        1544.104          43.100          34.800



 128588261.702 7 100198635.27446  24469525.560
  24469518.380       -3296.480       -2568.687          44.300          36.350



 127770898.737 6  99561691.43045  24313995.240
  24313988.520       -2896.598       -2257.094          40.600          34.600



 131656440.806 6 102589458.00145  25053388.620
  25053380.280        3377.604        2631.902          40.350          33.850



 121444708.666 7  94632213.11646  23110159.240
  23110152.300        2976.976        2319.723          46.250          37.750



 133668907.741 6 104157554.45845  25436346.920
  25436337.420        1365.756        1064.226          39.750          33.350



 113080054.182 8  88114332.66347  21518409.560
  21518404.300       -2212.682       -1724.168          50.850          45.950
  84442921.417 8  21518406.580       -1652.356          52.400


 118935112.945 7  92676710.93347  22632599.440
  22632595.340        2804.855        2185.602          47.100          42.900
  88815177.100 8  22632595.080        2094.586          50.800


 106086786.308 8  82665003.11748  20187637.760
  20187630.440        -887.803        -691.795          51.100          48.450



 109665527.251 8  85453626.85847  20868653.480
  20868645.580         -83.492         -65.059          50.550          47.050



 135714288.222 6 105751365.17045  25825568.820
  25825565.960       -3229.062       -2516.157          37.800          34.100
 101345066.944 7  25825566.600       -2411.219          42.100


 131112048.173 6 101976039.925 4  24527218.960
  24527219.140        2624.003        2040.892          37.450          29.250



 129993208.862 6 101105837.298 6  24283826.840
  24283825.300       -2481.696       -1930.208          39.050          39.900



 127385810.201 5  99077839.250 6  23788400.480
  23788398.040         235.896         183.474          35.150          40.750



 125711272.810 6  97775417.830 6  23541681.280
  23541678.800        4118.002        3202.891          41.850          41.650



 128452728.268 6  99907695.784 5  24097398.680
  24097398.320       -4157.087       -3233.291          38.200          34.250



 109571428.600 7  85222237.710 6  20504792.180
  20504793.180       -2809.844       -2185.435          46.050          40.100



 104641220.734 7  81387621.968 7  19589057.460
  19589056.800        1761.168        1369.798          44.250          44.300



 105617587.646 8  82147019.895 8  19737165.320
  19737163.060       -1984.741       -1543.688          48.250          48.300



 104817684.510 8  81524881.326 8  19635882.480
  19635881.980        2051.231        1595.402          48.700          48.200



 126274094.078 6  98213188.171 6  23605610.040
  23605607.920        4292.196        3338.375          39.900          38.100



 126029562.663 6  98022988.472 4  23568157.660
  23568156.200       -4231.624       -3291.263          37.300          29.700



 124504919.134 8                  23692489.760
                     -1133.261                          51.950
  92974472.539 8  23692488.640        -846.271          52.300    95399880.727 8
  23692485.500        -868.334          53.050    94187176.453 8  23692487.360
      -857.320          51.050
 149261505.056 7                  28403519.720
                     -1027.188                          45.100
 111461511.797 7  28403520.280        -766.892          43.950   114369193.091 7
  28403516.680        -787.156          45.450   112915350.761 6  28403518.140
      -776.962          40.400
 138258199.535 7                  26309660.240
                      2859.994                          45.850
 103244793.041 7  26309670.580        2135.806          43.550   105938123.203 7
  26309666.660        2191.517          45.550   104591459.450 6  26309668.400
      2163.543          40.300
 114356447.818 8                  21761303.260
                      -381.915                          51.900
  85396067.812 8  21761303.840        -285.171          52.400    87623770.982 8
  21761300.580        -292.604          53.000    86509921.216 8  21761302.100
      -288.879          51.100
 18  1 21 21 21 30.0000000  0 27G02G05G12G14G16G21G23G25G26G29G31G32
                                R01R07R08R09R14R15R16R17R18R19R24E01
                                E05E24E26
 128959030.086 7 100487523.03846  24540084.680
  24540074.480       -2670.794       -2081.136          44.200          37.750



 130673722.336 7 101823665.22645  24866380.700
  24866374.760        1968.634        1534.003          43.100          33.900



 128687198.762 7 100275729.07045  24488352.560
  24488345.440       -3299.267       -2570.857          44.550          35.850



 127857889.425 6  99629476.38145  24330549.300
  24330542.340       -2902.395       -2261.606          40.100          33.050



 131555127.758 6 102510512.84044  25034109.400
  25034101.300        3376.634        2631.146          40.850          28.850



 121355525.654 7  94562719.88046  23093188.300
  23093181.160        2968.504        2313.121          46.700          38.550



 133628169.689 6 104125810.50145  25428594.620
  25428585.900        1350.144        1052.059          40.400          33.500



 113146592.634 8  88166180.81047  21531071.460
  21531066.120       -2223.066       -1732.259          50.700          46.150
  84492609.211 8  21531068.500       -1660.072          52.400


 118851055.463 7  92611211.61747  22616603.780
  22616599.820        2799.065        2181.092          46.750          43.200
  88752406.911 8  22616599.680        2090.195          50.850


 106113646.957 8  82685933.50148  20192749.220
  20192741.760        -902.817        -703.493          51.050          48.500



 109668321.874 8  85455804.48447  20869185.280
  20869177.380        -102.763         -80.074          50.400          47.100



 135811106.988 6 105826829.70045  25843995.480
  25843993.700       -3226.051       -2513.811          39.650          34.900
 101417376.639 7  25843992.920       -2409.143          44.350


 131033571.028 6 101915002.158 5  24512538.180
  24512538.660        2607.600        2028.137          36.850          30.200



 130067924.600 6 101163949.532 6  24297784.620
  24297782.760       -2499.250       -1943.860          38.950          39.850



 127379113.993 5  99072631.091 6  23787149.980
  23787147.580         210.504         163.726          35.600          40.900



 125587760.910 6  97679353.004 7  23518551.260
  23518549.000        4116.171        3201.467          41.800          42.700



 128577502.453 6 100004742.397 5  24120805.980
  24120805.300       -4161.351       -3236.603          39.750          33.750



 109655977.082 7  85287997.631 6  20520614.260
  20520615.260       -2826.786       -2198.611          45.900          40.650



 104588676.475 7  81346754.215 7  19579221.100
  19579220.440        1741.720        1354.672          44.200          44.750



 105677427.217 8  82193561.794 8  19748347.820
  19748345.440       -2004.541       -1559.087          48.050          48.550



 104756473.870 8  81477273.074 8  19624415.720
  19624415.220        2029.481        1578.486          48.650          48.400



 126145419.394 6  98113107.901 6  23581555.920
  23581553.780        4286.226        3333.733          39.800          38.750



 126156548.360 6  98121755.113 4  23591904.560
  23591903.320       -4234.397       -3293.420          37.800          29.700



 124539078.002 8                  23698990.040
                     -1143.846                          51.900
  92999980.773 8  23698988.880        -854.176          52.300    95426054.397 8
  23698985.680        -876.473          53.050    94213017.403 8  23698987.600
      -865.307          51.050
 149292512.527 7                  28409420.540
                     -1040.081                          45.450
 111484666.746 7  28409420.940        -776.539          44.300   114392952.078 7
  28409417.240        -796.770          45.650   112938807.734 6  28409418.760
      -786.687          40.700
 138172398.847 7                  26293332.980
                      2860.167                          45.700
 103180721.079 7  26293343.160        2135.792          44.300   105872379.827 7
  26293339.520        2191.559          46.200   104526551.765 6  26293341.240
      2163.760          41.000
 114368104.409 8                  21763521.460
                      -395.146                          51.850
  85404772.413 8  21763522.060        -295.027          52.400    87632702.660 8
  21763518.680        -302.721          53.000    86518739.353 8  21763520.280
      -298.873          51.050
 18  1 21 21 22  0.0000000  0 26G02G05G12G14G16G21G23G25G26G29G31R01
                                R07R08R09R14R15R16R17R18R19R24E01E05
                                E24E26
 129039286.440 7 100550060.46146  24555357.000
  24555346.500       -2679.561       -2087.969          43.950          38.450



 130614843.460 7 101777785.61145  24855176.200
  24855170.000        1956.813        1524.791          43.050          32.700



 128786217.062 7 100352886.13846  24507195.220
  24507187.820       -3301.779       -2572.816          44.300          37.300



 127945045.198 6  99697389.90745  24347134.600
  24347127.600       -2907.593       -2265.659          40.000          32.000



 131453831.731 6 102431580.89245  25014833.480
  25014825.080        3376.518        2631.055          41.300          31.000



 121266590.676 7  94493419.90246  23076264.600
  23076257.260        2960.687        2307.028          46.300          37.900



 133587907.510 6 104094437.38345  25420933.260
  25420924.440        1334.314        1039.724          41.200          35.750



 113213432.736 8  88218263.98847  21543790.740
  21543785.480       -2232.799       -1739.845          50.750          46.250
  84542522.255 8  21543787.760       -1667.379          52.350


 118767166.489 7  92545843.58947  22600640.180
  22600636.340        2793.772        2176.966          46.850          43.000
  88689762.547 8  22600636.340        2086.234          50.850


 106140947.584 8  82707206.71548  20197944.300
  20197936.960        -917.126        -714.644          50.900          48.650



 109671686.358 8  85458426.14447  20869825.540
  20869817.640        -121.488         -94.667          50.200          47.300



 130955582.845 5 101854344.659 5  24497948.720
  24497949.260        2591.829        2015.865          35.700          31.050



 130143154.286 6 101222461.484 6  24311838.160
  24311836.380       -2515.824       -1956.752          37.950          38.400



 127373162.805 5  99068002.374 6  23786038.560
  23786036.040         186.357         144.944          35.350          40.650



 125464296.070 6  97583324.802 7  23495430.000
  23495428.000        4114.889        3200.467          41.650          42.050



 128702399.083 6 100101884.229 5  24144236.380
  24144236.200       -4165.156       -3239.565          39.800          34.750



 109741025.882 7  85354146.680 6  20536530.100
  20536531.000       -2843.146       -2211.337          46.050          40.250



 104536709.255 7  81306335.254 7  19569492.720
  19569492.080        1722.709        1339.883          44.350          44.500



 105737852.061 7  82240558.889 8  19759639.620
  19759637.340       -2023.717       -1574.003          47.850          48.450



 104695909.219 8  81430167.238 8  19613069.840
  19613069.400        2008.168        1561.909          48.550          48.200



 126016908.890 6  98013155.259 6  23557532.340
  23557529.680        4281.227        3329.845          39.650          38.650



 126283604.854 6  98220576.840 5  23615664.480
  23615663.440       -4235.976       -3294.648          37.550          30.250



 124573546.043 8                  23705549.120
                     -1153.843                          51.850
  93025719.884 8  23705547.940        -861.685          52.300    95452464.958 8
  23705544.820        -884.148          53.050    94239092.236 8  23705546.640
      -872.890          51.100
 149323893.468 7                  28415392.440
                     -1052.231                          44.900
 111508100.566 7  28415392.600        -785.619          44.200   114416997.217 7
  28415388.780        -805.984          45.850   112962547.216 6  28415390.420
      -795.820          40.900
 138086587.978 7                  26277003.720
                      2860.753                          44.600
 103116641.528 7  26277013.940        2136.407          44.350   105806628.615 7
  26277010.360        2192.068          46.150   104461636.386 6  26277011.940
      2164.224          41.050
 114380149.329 8                  21765813.520
                      -407.818                          51.800
  85413766.996 8  21765814.060        -304.532          52.350    87641931.880 8
  21765810.660        -312.430          53.000    86527851.257 8  21765812.360
      -308.474          51.100
 18  1 21 21 22 30.0000000  0 27G02G05G12G14G16G20G21G23G25G26G29G31
                                R01R07R08R09R14R15R16R17R18R19R24E01
                                E05E24E26
 129119822.781 7 100612816.04546  24570682.600
  24570672.060       -2688.913       -2095.256          43.650          38.050



 130556343.000 7 101732200.85345  24844043.800
  24844037.720        1943.864        1514.702          43.150          34.000



 128885318.825 7 100430108.25246  24526053.640
  24526046.080       -3304.552       -2574.974          44.000          37.200



 128032366.782 6  99765432.67946  24363751.540
  24363744.460       -2913.298       -2270.102          39.950          36.350



 131352557.229 6 102352665.67145  24995561.640
  24995553.400        3375.825        2630.515          41.550          32.250



 134460603.638 5 104774463.34944  25587000.260
  25586995.660        2993.286        2332.431          35.250          28.950



 121177909.047 7  94424317.35046  23059388.920
  23059381.620        2952.040        2300.291          45.750          38.850



 133548125.701 6 104063438.59145  25413363.120
  25413354.200        1318.277        1027.229          41.650          32.150



 113280577.276 8  88270584.39847  21556567.960
  21556562.660       -2242.880       -1747.699          50.650          46.300
  84592662.644 8  21556564.980       -1674.852          52.350


 118683450.897 7  92480610.66047  22584709.640
  22584705.820        2787.859        2172.358          46.750          42.750
  88627247.651 8  22584705.860        2081.875          50.950


 106168690.821 8  82728824.81548  20203223.540
  20203216.420        -931.854        -726.120          50.850          48.600



 109675624.597 8  85461494.89147  20870574.940
  20870567.060        -140.567        -109.533          50.300          47.150



 130878091.255 5 101794073.420 5  24483452.220
  24483453.080        2575.079        2002.841          34.500          31.750



 130218897.665 6 101281373.021 6  24325987.600
  24325985.760       -2532.881       -1970.018          39.550          37.600



 127367960.332 5  99063956.009 6  23785066.880
  23785064.300         161.136         125.328          34.900          40.200



 125340884.625 6  97487338.122 7  23472318.700
  23472316.880        4113.292        3199.227          41.050          42.200



 128827419.553 6 100199122.447 5  24167690.040
  24167690.120       -4168.800       -3242.397          40.400          34.750



 109826574.645 7  85420684.598 6  20552539.440
  20552540.480       -2859.677       -2224.192          45.950          40.350



 104485325.765 7  81266370.319 7  19559873.660
  19559872.920        1703.383        1324.854          44.250          44.550



 105798862.683 7  82288011.603 8  19771040.900
  19771038.700       -2043.112       -1589.087          47.850          48.550



 104635995.364 8  81383567.592 8  19601845.840
  19601845.480        1986.624        1545.153          48.350          48.050



 125888568.718 6  97913335.138 6  23533540.780
  23533538.120        4275.287        3325.226          39.100          38.950



 126410732.765 6  98319454.084 5  23639437.980
  23639436.720       -4238.226       -3296.398          36.950          30.250



 124608326.866 8                  23712167.640
                     -1164.310                          51.750
  93051692.563 8  23712166.540        -869.391          52.250    95479115.186 8
  23712163.480        -892.054          53.100    94265403.691 8  23712165.220
      -880.712          51.300
 149355650.348 7                  28421435.580
                     -1064.559                          44.350
 111531815.116 7  28421435.740        -795.047          44.150   114441330.419 7
  28421431.780        -815.613          46.100   112986571.080 6  28421433.680
      -805.225          41.100
 138000771.373 7                  26260673.200
                      2860.912                          45.350
 103052557.676 7  26260683.560        2136.366          44.050   105740873.025 7
  26260680.100        2192.199          46.950   104396716.674 6  26260681.540
      2164.239          41.700
 114392585.326 8                  21768180.000
                      -420.728                          51.700
  85423053.621 8  21768180.440        -314.145          52.350    87651460.766 8
  21768177.040        -322.324          53.050    86537259.014 8  21768178.840
      -318.255          51.250
 18  1 21 21 23  0.0000000  0 27G02G05G12G14G16G20G21G23G25G26G29G31
                                R01R07R08R09R14R15R16R17R18R19R24E01
                                E05E24E26
 129200629.787 7 100675782.54346  24586059.640
  24586049.000       -2698.488       -2102.718          43.350          38.600



 130498217.680 7 101686908.40345  24832982.980
  24832976.540        1930.921        1504.615          43.100          31.150



 128984496.384 7 100507389.43046  24544926.040
  24544918.960       -3307.342       -2577.150          43.300          36.200



 128119844.260 6  99833596.89645  24380397.980
  24380390.480       -2919.084       -2274.612          40.200          33.850



 131251298.386 6 102273762.69745  24976292.780
  24976284.820        3374.791        2629.708          40.600          33.700



 134370803.206 5                  25569911.600
                      2993.673                          35.500



 121089476.574 7  94355408.95646  23042560.760
  23042553.420        2943.301        2293.484          46.150          38.900



 133508818.753 6 104032809.77645  25405883.240
  25405874.360        1302.005        1014.549          40.650          34.800



 113348018.520 8  88323136.01547  21569401.660
  21569396.260       -2253.304       -1755.820          50.600          46.350
  84643024.606 8  21569398.580       -1682.721          52.300


 118599902.966 7  92415508.38547  22568811.000
  22568807.040        2781.634        2167.508          46.650          43.050
  88564857.964 8  22568807.240        2077.317          51.100


 106196868.116 8  82750781.15748  20208585.420
  20208578.400        -946.733        -737.713          50.800          48.850



 109680129.975 8  85465005.57047  20871432.300
  20871424.440        -159.838        -124.548          50.400          47.400



 130801092.802 6 101734185.731 5  24469048.100
  24469048.760        2558.021        1989.573          36.050          32.900



 130295143.802 6 101340675.622 6  24340230.780
  24340228.500       -2550.456       -1983.686          39.200          36.750



 127363499.679 5  99060486.629 6  23784233.720
  23784231.080         136.090         105.850          34.800          40.650



 125217521.963 6  97391389.410 6  23449216.480
  23449215.000        4110.969        3197.423          40.600          41.950



 128952554.918 6 100296449.976 5  24191165.360
  24191165.180       -4173.134       -3245.770          40.650          35.550



 109912615.909 7  85487605.569 6  20568640.880
  20568641.880       -2876.509       -2237.284          46.000          40.750



 104434521.203 7  81226855.660 7  19550363.000
  19550362.340        1683.537        1309.419          44.650          44.900



 105860448.969 7  82335912.051 8  19782549.640
  19782547.580       -2062.723       -1604.339          47.850          48.750



 104576726.230 8  81337469.391 8  19590742.640
  19590742.280        1964.554        1527.988          48.450          48.100



 125760394.284 6  97813643.920 6  23509579.960
  23509577.540        4269.379        3320.632          39.800          38.450



 126537921.970 6  98418379.017 4  23663222.680
  23663221.520       -4240.931       -3298.500          36.500          29.200



 124643413.476 8                  23718844.380
                     -1174.937                          51.750
  93077893.603 8  23718843.320        -877.430          52.300    95505999.734 8
  23718840.280        -900.313          53.050    94291946.486 8  23718842.000
      -888.848          51.100
 149387775.090 7                  28427548.740
                     -1077.334                          43.850
 111555804.390 7  28427548.640        -804.389          43.900   114465945.491 7
  28427544.660        -825.426          45.700   113010873.256 6  28427546.720
      -814.890          40.600
 137914942.936 7                  26244340.420
                      2860.915                          45.200
 102988465.008 7  26244351.040        2136.380          44.250   105675108.368 7
  26244347.560        2192.068          46.200   104331788.004 6  26244349.000
      2164.235          41.100
 114405404.669 8                  21770619.400
                      -433.922                          51.700
  85432626.521 8  21770619.820        -324.083          52.350    87661283.395 8
  21770616.420        -332.542          53.000    86546956.774 8  21770618.300
      -328.312          51.050
 18  1 21 21 23 30.0000000  0 26G02G05G12G14G16G21G23G25G26G29G31R01
                                R07R08R09R14R15R16R17R18R19R24E01E05
                                E24E26
 129281708.134 7 100738960.46646  24601488.320
  24601477.860       -2707.451       -2109.702          44.300          37.700



 130440472.187 7 101641911.92345  24821994.500
  24821987.840        1918.252        1494.742          44.000          33.250



 129083751.847 7 100584731.33345  24563813.500
  24563806.600       -3310.086       -2579.287          44.750          35.050



 128207476.963 6  99901882.10545  24397073.860
  24397066.620       -2923.890       -2278.358          40.200          33.300



 131150058.270 6 102194874.35745  24957027.260
  24957019.460        3374.328        2629.346          40.850          35.100



 121001297.917 7  94286698.31546  23025781.000
  23025773.640        2934.789        2286.849          46.300          38.500



 133469990.484 7 104002553.98145  25398494.320
  25398485.520        1286.133        1002.182          42.350          34.850



 113415758.536 8  88375920.42747  21582292.100
  21582286.780       -2263.212       -1763.542          50.800          46.100
  84693609.663 8  21582289.000       -1690.076          52.300


 118516526.847 7  92350539.98947  22552945.020
  22552941.020        2776.240        2163.305          46.550          42.750
  88502596.596 8  22552941.260        2073.115          51.350


 106225480.838 8  82773076.79148  20214030.240
  20214023.220        -961.301        -749.065          51.050          48.600



 109685205.249 8  85468960.32447  20872398.100
  20872390.260        -178.912        -139.411          50.600          47.300



 130724593.783 5 101674686.480 5  24454737.320
  24454738.500        2541.165        1976.461          35.950          31.850



 130371892.280 6 101400368.885 6  24354567.920
  24354565.220       -2566.811       -1996.406          37.400          37.000



 127359783.925 5  99057596.597 6  23783539.900
  23783537.060         111.026          86.354          35.300          40.850



 125094213.790 6  97295483.057 7  23426124.680
  23426123.340        4109.436        3196.229          39.900          42.250



 129077805.522 6 100393867.137 5  24214662.100
  24214662.260       -4177.223       -3248.951          39.500          35.750



 109999150.805 7  85554910.472 6  20584834.820
  20584835.780       -2892.949       -2250.071          46.150          40.650



 104384301.432 7  81187795.830 7  19540961.840
  19540961.200        1664.008        1294.229          44.350          44.800



 105922610.546 7  82384259.947 8  19794166.000
  19794164.020       -2081.821       -1619.194          47.850          48.600



 104518106.088 8  81291875.958 7  19579761.080
  19579760.700        1942.896        1511.142          48.100          47.800



 125632391.265 6  97714085.985 6  23485651.400
  23485648.520        4263.645        3316.169          38.600          38.700



 126665172.167 6  98517351.372 4  23687018.920
  23687017.800       -4243.051       -3300.152          36.200          29.400



 124678808.683 8                  23725579.780
                     -1185.252                          51.850
  93104325.078 8  23725578.880        -885.068          52.400    95533120.727 8
  23725575.860        -908.174          53.050    94318722.719 8  23725577.500
      -896.605          51.100
 149420269.310 7                  28433732.180
                     -1089.531                          44.150
 111580069.560 7  28433731.620        -813.639          43.600   114490843.661 7
  28433727.960        -834.852          46.000   113035454.934 6  28433730.100
      -824.322          40.600
 137829106.377 7                  26228006.100
                      2860.851                          45.350
 102924366.260 7  26228016.660        2136.467          44.100   105609337.462 7
  26228013.480        2192.360          46.900   104266853.181 6  26228014.780
      2164.431          41.350
 114418609.333 8                  21773132.140
                      -446.730                          51.850
  85442487.151 8  21773132.500        -333.634          52.400    87671401.256 8
  21773129.160        -342.293          53.000    86556946.020 8  21773131.060
      -337.955          51.050
 18  1 21 21 24  0.0000000  0 26G02G05G12G14G16G21G23G25G26G29G31R01
                                R07R08R09R14R15R16R17R18R19R24E01E05
                                E24E26
 129363055.324 7 100802347.87246  24616968.200
  24616957.800       -2716.447       -2116.713          44.500          37.100



 130383109.523 7 101597213.77445  24811078.740
  24811072.000        1905.243        1484.607          44.200          34.250



 129183084.432 7 100662133.31045  24582715.840
  24582708.860       -3312.991       -2581.552          44.100          35.950



 128295261.666 6  99970285.74945  24413778.620
  24413771.340       -2929.288       -2282.561          40.050          35.700



 131048837.782 6 102116001.30045  24937765.640
  24937758.280        3373.061        2628.362          41.400          32.200



 120913375.151 7  94218187.09946  23009049.820
  23009042.440        2925.893        2279.919          46.150          39.050



 133431641.899 7 103972671.97246  25391196.940
  25391188.260        1269.770         989.433          42.500          36.750



 113483796.237 8  88428936.79747  21595239.240
  21595233.960       -2273.434       -1771.507          50.700          45.750
  84744417.021 8  21595236.020       -1697.666          52.300


 118433323.571 7  92285706.27147  22537111.840
  22537107.860        2770.048        2158.479          46.250          42.350
  88440464.293 8  22537108.100        2068.529          51.400


 106254527.348 8  82795710.43548  20219557.620
  20219550.560        -975.963        -760.490          50.850          48.250



 109690850.361 8  85473359.10847  20873472.380
  20873464.500        -198.185        -154.429          50.500          47.100



 130648597.532 5 101615578.267 5  24440520.540
  24440521.920        2524.181        1963.256          35.500          32.650



 130449138.811 6 101460449.495 6  24368998.600
  24368995.600       -2583.620       -2009.483          38.650          36.850



 127356812.990 5  99055285.877 6  23782985.100
  23782982.260          86.148          67.007          35.050          40.900



 124970962.380 6  97199620.845 7  23403043.640
  23403042.180        4106.876        3194.238          40.050          42.250



 129203168.915 6 100491372.032 5  24238179.820
  24238180.640       -4181.831       -3252.531          37.800          35.050



 110086176.646 7  85622597.226 6  20601120.760
  20601121.560       -2909.500       -2262.944          46.700          41.150



 104334668.673 7  81149192.573 7  19531670.500
  19531669.900        1644.115        1278.756          44.200          45.200



 105985343.896 8  82433052.555 8  19805889.240
  19805887.260       -2101.123       -1634.207          48.100          48.750



 104460135.551 8  81246787.777 7  19568901.140
  19568900.660        1920.995        1494.108          48.250          47.800



 125504561.646 6  97614662.946 6  23461754.560
  23461752.380        4257.676        3311.526          39.200          39.700



 126792480.416 6  98616368.912 4  23710825.820
  23710825.280       -4245.062       -3301.715          36.250          28.900



 124714512.175 8                  23732373.880
                     -1195.790                          51.800
  93130986.764 8  23732373.100        -892.943          52.400    95560477.942 8
  23732370.040        -916.245          53.050    94345732.172 8  23732371.660
      -904.603          51.100
 149453131.627 7                  28439985.560
                     -1102.102                          43.700
 111604609.612 7  28439984.700        -822.921          42.850   114516023.882 7
  28439981.420        -844.508          45.350   113060315.056 6  28439983.560
      -833.683          39.900
 137743262.235 7                  26211670.660
                      2861.035                          45.700
 102860261.880 7  26211680.840        2136.409          44.550   105543560.815 7
  26211677.940        2192.343          46.700   104201912.658 6  26211679.300
      2164.493          41.550
 114432198.216 8                  21775717.980
                      -459.932                          51.800
  85452634.697 8  21775718.260        -343.463          52.400    87681813.519 8
  21775715.040        -352.365          53.000    86567225.924 8  21775716.940
      -347.883          51.050
 18  1 21 21 24 30.0000000  0 27G02G05G12G14G16G20G21G23G25G26G29G31
                                R01R07R08R09R14R15R16R17R18R19R24E01
                                E05E24E26
 129444674.280 7 100865947.05946  24632499.860
  24632489.340       -2724.979       -2123.360          44.350          37.500



 130326136.701 7 101552819.36745  24800237.420
  24800230.620        1892.647        1474.791          44.100          34.450



 129282498.426 7 100739598.71946  24601633.280
  24601626.720       -3314.947       -2583.076          43.450          36.900



 128383200.409 6 100038809.39145  24430512.720
  24430505.360       -2933.544       -2285.883          40.100          32.300



 130947643.106 6 102037148.27745  24918508.860
  24918501.300        3372.851        2628.195          40.200          35.150



 134101198.089 5 104494435.90744  25518611.700
  25518602.920        2996.615        2335.021          35.000          28.750



 120825715.266 7  94149880.71646  22992368.600
  22992361.340        2917.681        2273.519          46.600          39.350



 133393778.896 7 103943168.32445  25383991.880
  25383983.280        1254.091         977.212          42.900          35.700



 113552135.942 8  88482188.51147  21608243.820
  21608238.600       -2282.868       -1778.858          50.500          46.250
  84795449.903 8  21608240.680       -1704.768          52.300


 118350299.562 7  92221012.24747  22521312.760
  22521308.880        2764.419        2154.092          46.200          42.400
  88378465.838 8  22521309.020        2064.419          51.450


 106284011.232 8  82818684.89448  20225168.260
  20225161.140        -989.964        -771.400          51.000          48.450



 109697070.292 8  85478205.79647  20874656.080
  20874648.140        -216.677        -168.839          50.600          47.450



 130573113.065 5 101556868.146 5  24426399.280
  24426401.420        2507.619        1950.369          35.900          32.750



 130526884.557 6 101520918.419 6  24383522.180
  24383519.020       -2599.931       -2022.168          39.050          37.650



 127354592.114 5  99053558.547 6  23782570.300
  23782567.680          61.762          48.039          34.350          40.950



 124847775.490 6  97103808.832 7  23379974.640
  23379973.240        4105.451        3193.130          40.950          42.100



 129328648.037 6 100588966.944 5  24261719.280
  24261720.420       -4184.345       -3254.488          38.050          34.950



 110173697.344 7  85690668.862 6  20617499.260
  20617500.080       -2925.563       -2275.438          46.700          41.000



 104285630.641 7  81111051.873 7  19522490.460
  19522489.940        1624.804        1263.736          44.600          45.100



 106048651.085 8  82482291.484 8  19817719.720
  19817717.680       -2119.600       -1648.577          48.300          48.400



 104402821.004 8  81202209.804 7  19558164.200
  19558163.640        1899.729        1477.567          48.550          47.650



 125376913.180 6  97515380.814 6  23437892.080
  23437889.860        4252.118        3307.204          38.900          38.900



 126919848.843 6  98715433.219 4  23734644.320
  23734644.200       -4246.300       -3302.679          36.000          29.250



 124750529.045 8                  23739227.680
                     -1205.686                          51.850
  93157882.469 8  23739226.920        -900.363          52.400    95588075.276 8
  23739223.840        -923.862          53.100    94372978.690 8  23739225.480
      -912.106          51.250
 149486365.979 7                  28446309.720
                     -1114.168                          43.100
 111629427.473 7  28446308.780        -831.870          42.750   114541489.143 7
  28446305.640        -853.451          45.050   113085456.642 6  28446307.740
      -842.739          39.750
 137657416.538 7                  26195334.740
                      2861.700                          44.850
 102796156.298 7  26195344.600        2136.988          44.350   105477782.911 7
  26195341.940        2192.706          47.050   104136970.923 6  26195343.420
      2164.768          41.650
 114446175.589 8                  21778377.780
                      -472.298                          51.800
  85463072.346 8  21778378.020        -352.659          52.400    87692523.456 8
  21778374.840        -361.840          53.050    86577799.718 8  21778376.740
      -357.238          51.150
 18  1 21 21 25  0.0000000  0 26G02G05G12G14G16G21G23G25G26G29G31R01
                                R07R08R09R14R15R16R17R18R19R24E01E05
                                E24E26
 129526558.075 7 100929752.61746  24648081.740
  24648071.280       -2733.918       -2130.324          43.400          37.100



 130269551.901 7 101508727.33345  24789469.860
  24789462.880        1879.707        1464.709          44.350          33.800



 129381987.687 7 100817122.81146  24620565.180
  24620559.020       -3317.645       -2585.180          43.500          36.400



 128471285.335 6 100107446.96845  24447274.780
  24447268.100       -2938.700       -2289.896          40.300          31.550



 130846470.202 6 101958312.27145  24899256.180
  24899248.900        3372.240        2627.718          39.000          33.700



 120738316.070 7  94081777.46146  22975737.060
  22975729.880        2908.966        2266.728          46.500          39.700



 133356398.165 7 103914040.48445  25376878.680
  25376869.900        1237.910         964.607          43.350          31.700



 113620772.210 8  88535671.30547  21621304.720
  21621299.660       -2292.849       -1786.635          50.300          46.150
  84846704.247 8  21621301.760       -1712.252          52.250


 118267451.429 7  92156455.26847  22505547.220
  22505543.340        2758.844        2149.750          46.150          42.100
  88316598.753 8  22505543.480        2060.022          51.500


 106313926.632 8  82841995.60048  20230861.080
  20230853.880       -1004.386        -782.638          51.000          48.550



 109703860.473 8  85483496.84647  20875948.300
  20875940.240        -235.934        -183.844          50.550          47.500



 130498139.192 6 101498555.144 5  24412374.000
  24412375.660        2490.495        1937.052          36.400          31.900



 130605120.993 6 101581768.985 6  24398137.440
  24398134.220       -2616.004       -2034.668          40.150          38.350



 127353116.746 5  99052411.041 6  23782295.020
  23782292.360          36.776          28.604          34.700          41.150



 124724651.141 6  97008045.446 7  23356917.540
  23356915.880        4102.961        3191.195          41.000          42.050



 129454235.996 6 100686646.470 5  24285279.220
  24285280.800       -4188.105       -3257.412          39.200          34.500



 110261705.877 7  85759119.939 6  20633968.880
  20633969.960       -2941.895       -2288.141          46.200          41.350



 104237185.588 7  81073372.387 7  19513421.260
  19513420.960        1604.928        1248.277          44.150          45.400



 106112524.175 8  82531970.554 8  19829656.020
  19829653.860       -2138.553       -1663.318          48.100          48.700



 104346158.703 8  81158139.140 7  19547549.580
  19547548.840        1877.830        1460.536          48.300          47.950



 125249443.715 6  97416237.885 6  23414063.000
  23414060.400        4245.915        3302.377          39.000          39.550



 127047269.613 6  98814538.272 4  23758473.140
  23758472.960       -4248.522       -3304.406          36.400          29.350



 124786854.606 8                  23746140.240
                     -1216.029                          51.850
  93185008.682 8  23746139.460        -908.091          52.400    95615909.133 8
  23746136.440        -931.805          53.150    94400458.726 8  23746138.000
      -919.932          51.400
 149519966.482 7                  28452703.500
                     -1126.380                          42.700
 111654518.739 7  28452702.540        -840.850          42.350   114567234.983 7
  28452699.500        -862.901          45.800   113110875.178 6  28452701.700
      -851.912          40.100
 137571565.515 7                  26178997.780
                      2861.778                          45.300
 102732046.765 7  26179007.740        2136.905          44.700   105412000.954 7
  26179004.860        2192.713          47.300   104072025.172 7  26179006.580
      2164.869          42.200
 114460535.945 8                  21781110.500
                      -485.081                          51.900
  85473796.002 8  21781110.680        -362.297          52.350    87703526.858 8
  21781107.580        -371.736          53.100    86588663.248 8  21781109.420
      -367.044          51.300
 18  1 21 21 25 30.0000000  0 27G02G05G12G14G16G20G21G23G25G26G29G31
                                R01R07R08R09R14R15R16R17R18R19R24E01
                                E05E24E26
 129608699.871 7 100993759.23446  24663712.660
  24663702.300       -2742.327       -2136.875          43.250          39.050



 130213353.282 7 101464936.22745  24778775.560
  24778768.540        1866.793        1454.645          43.700          34.650



 129481547.805 7 100894702.11545  24639510.820
  24639504.480       -3319.921       -2586.949          44.100          33.900



 128559509.198 6 100176192.82445  24464063.340
  24464056.660       -2942.944       -2293.203          39.550          34.050



 130745315.772 6 101879490.67445  24880006.960
  24879999.620        3371.537        2627.168          39.950          32.700



 133921368.040 6 104354294.16844  25484388.920
  25484378.320        2997.611        2335.807          37.100          29.450



 120651175.559 7  94013875.76346  22959154.780
  22959147.620        2900.440        2260.084          46.000          39.700



 133319496.386 7 103885285.86445  25369856.540
  25369847.320        1222.057         952.255          44.050          31.350



 113689699.935 8  88589381.20447  21634421.080
  21634416.200       -2302.353       -1794.042          50.250          46.150
  84898176.234 8  21634418.300       -1719.304          52.200


 118184776.253 7  92092033.06146  22489814.620
  22489810.820        2753.016        2145.208          46.650          41.750
  88254860.802 8  22489811.020        2055.836          51.600


 106344267.399 8  82865637.75848  20236634.800
  20236627.540       -1018.365        -793.531          50.900          48.400



 109711216.624 8  85489228.89547  20877348.180
  20877340.100        -254.600        -198.390          50.700          47.250



 130423674.969 6 101440638.542 4  24398444.200
  24398445.560        2473.686        1923.978          36.950          29.900



 130683840.062 6 101642994.927 6  24412842.980
  24412840.160       -2631.966       -2047.084          39.900          37.950



 127352382.014 5  99051839.585 6  23782157.840
  23782155.180          12.600           9.800          35.050          40.700



 124601587.609 7  96912329.355 6  23333872.040
  23333869.960        4100.932        3189.613          42.300          41.850



 129579926.204 6 100784405.516 5  24308858.440
  24308860.240       -4191.265       -3259.872          37.500          34.800



 110350196.556 7  85827945.999 6  20650528.540
  20650529.860       -2957.605       -2300.360          46.150          41.100



 104189331.893 7  81036152.839 7  19504462.900
  19504462.680        1585.316        1233.023          44.150          45.350



 106176955.454 8  82582083.772 8  19841696.580
  19841694.180       -2157.028       -1677.688          48.200          48.600



 104290145.502 8  81114573.325 8  19537056.480
  19537055.700        1856.332        1443.814          48.400          48.000



 125122151.297 6  97317232.652 6  23390267.160
  23390264.620        4240.155        3297.896          39.450          39.250



 127174735.364 6  98913678.278 4  23782310.320
  23782309.860       -4249.302       -3305.014          36.350          29.600



 124823484.479 8                  23753110.800
                     -1226.013                          51.900
  93212362.152 8  23753109.900        -915.549          52.350    95643976.173 8
  23753106.860        -939.421          53.100    94428168.977 8  23753108.460
      -927.463          51.350
 149553927.632 7                  28459165.760
                     -1137.962                          43.400
 111679879.350 7  28459165.020        -849.877          42.300   114593257.167 7
  28459161.940        -872.082          45.100   113136566.579 6  28459164.260
      -860.926          39.700
 137485705.748 7                  26162659.240
                      2862.146                          45.850
 102667930.650 7  26162669.020        2137.481          44.650   105346212.271 7
  26162666.020        2193.171          47.350   104007072.779 7  26162668.020
      2165.351          42.250
 114475274.142 8                  21783915.120
                      -497.546                          51.850
  85484801.796 8  21783915.280        -371.536          52.300    87714819.760 8
  21783912.160        -381.215          53.100    86599812.598 8  21783914.000
      -376.392          51.250
 18  1 21 21 26  0.0000000  0 27G02G05G12G14G16G20G21G23G25G26G29G31
                                R01R07R08R09R14R15R16R17R18R19R24E01
                                E05E24E26
 129691102.941 7 101057969.39846  24679393.280
  24679382.900       -2751.130       -2143.738          44.200          36.350



 130157548.392 7 101421451.89545  24768156.420
  24768149.180        1853.474        1444.265          43.850          35.550



 129581182.046 7 100972339.15745  24658470.600
  24658464.040       -3322.329       -2588.829          44.350          34.650



 128647873.947 6 100245048.43145  24480878.780
  24480872.060       -2948.153       -2297.263          40.200          33.300



 130644185.502 6 101800687.85245  24860762.320
  24860755.400        3370.226        2626.149          40.150          31.500



 133831413.428 6 104284199.58944  25467272.000
  25467263.780        2998.806        2336.724          37.550          29.200



 120564301.028 7  93946181.33846  22942623.000
  22942615.880        2891.275        2252.944          46.100          39.250



 133283079.879 7 103856909.34645  25362926.900
  25362917.040        1205.863         939.637          43.500          35.750



 113758923.303 8  88643321.46247  21647593.740
  21647589.000       -2312.477       -1801.931          50.300          46.400
  84949868.975 8  21647591.080       -1726.787          52.050


 118102280.273 7  92027750.47346  22474116.180
  22474112.320        2746.757        2140.330          46.700          41.950
  88193256.661 8  22474112.740        2051.154          51.500


 106375037.069 8  82889614.11848  20242490.040
  20242482.800       -1032.869        -804.833          50.950          48.400



 109719144.039 8  85495406.09047  20878856.780
  20878848.580        -273.833        -213.376          50.750          47.300



 130349729.137 6 101383125.097 4  24384611.480
  24384612.140        2455.885        1910.132          38.500          29.950



 130763042.841 6 101704597.118 6  24427638.660
  24427636.300       -2648.300       -2059.786          39.400          38.300



 127352393.536 5  99051848.530 6  23782159.600
  23782157.420         -13.130         -10.214          34.800          40.750



 124478592.680 7  96816666.636 6  23310839.360
  23310836.960        4098.779        3187.938          42.400          41.850



 129705721.546 6 100882246.374 5  24332457.480
  24332459.380       -4195.022       -3262.793          38.500          34.050



 110439172.049 7  85897149.140 6  20667178.880
  20667180.340       -2973.841       -2312.986          45.750          40.900



 104142076.947 7  80999398.983 7  19495616.760
  19495616.540        1565.040        1217.253          44.400          45.400



 106241946.762 8  82632632.562 8  19853841.800
  19853839.360       -2175.788       -1692.279          48.100          48.700



 104234787.079 8  81071516.781 8  19526685.980
  19526685.300        1834.289        1426.670          48.250          48.250



 124995043.755 6  97218371.215 6  23366505.680
  23366503.400        4233.678        3292.858          38.600          39.700



 127302248.458 6  99012855.112 4  23806156.240
  23806155.160       -4251.519       -3306.737          36.350          29.100



 124860423.595 8                  23760140.180
                     -1236.598                          51.950
  93239946.535 8  23760139.160        -923.380          52.300    95672280.146 8
  23760136.120        -947.473          53.100    94456113.156 8  23760137.760
      -935.406          51.350
 149588253.182 7                  28465697.620
                     -1150.282                          43.850
 111705512.078 7  28465696.960        -859.039          42.100   114619558.560 7
  28465693.820        -881.381          45.650   113162533.631 6  28465696.220
      -870.215          40.100
 137399843.061 7                  26146319.940
                      2862.050                          45.350
 102603812.440 7  26146329.900        2137.104          44.700   105280421.385 7
  26146326.700        2192.971          47.150   103942118.230 7  26146328.900
      2164.954          42.250
 114490394.240 8                  21786792.440
                      -510.438                          51.850
  85496092.773 8  21786792.540        -381.163          52.250    87726405.285 8
  21786789.440        -391.107          53.100    86611250.846 8  21786791.260
      -386.145          51.300
 18  1 21 21 26 30.0000000  0 27G02G05G12G14G16G20G21G23G25G26G29G31
                                R01R07R08R09R14R15R16R17R18R19R24E01
                                E05E24E26
 129773770.916 7 101122385.99646  24695124.460
  24695114.020       -2759.916       -2150.582          44.650          37.700



 130102145.244 7 101378280.63545  24757613.380
  24757606.360        1840.075        1433.824          44.050          34.400



 129680896.843 7 101050038.96045  24677445.800
  24677439.060       -3325.165       -2591.038          44.900          33.550



 128736382.276 6 100314015.89445  24497721.340
  24497714.820       -2952.521       -2300.672          40.400          32.250



 130543086.558 6 101721909.50245  24841523.560
  24841516.740        3369.459        2625.555          40.550          33.500



 133741451.969 6 104214025.36845  25450151.740
  25450144.380        2998.590        2336.551          37.350          30.600



 120477700.272 7  93878700.25046  22926143.320
  22926136.360        2882.131        2245.817          46.800          38.900



 133247155.426 7 103828916.24245  25356090.900
  25356080.500        1189.215         926.660          43.600          33.500



 113828447.512 8  88697496.14847  21660823.820
  21660818.980       -2322.439       -1809.693          50.400          45.950
  85001786.390 8  21660821.140       -1734.345          52.050


 118019970.855 7  91963613.26447  22458453.340
  22458449.200        2740.577        2135.515          46.750          42.100
  88131791.850 8  22458449.940        2046.506          51.550


 106406240.335 8  82913928.35548  20248427.820
  20248420.620       -1047.310        -816.085          51.000          48.450



 109727648.360 8  85502032.82347  20880475.120
  20880466.920        -293.063        -228.361          50.650          47.200



 130276311.446 6 101326022.444 4  24370877.320
  24370878.040        2438.552        1896.650          37.050          29.050



 130842731.933 6 101766577.508 6  24442525.040
  24442522.900       -2663.957       -2071.968          38.650          38.100



 127353156.951 5  99052442.297 6  23782302.180
  23782300.000         -38.133         -29.659          34.550          40.700



 124355675.243 6  96721064.177 7  23287821.180
  23287818.520        4096.045        3185.812          41.550          42.400



 129831626.028 6 100980172.131 5  24356076.960
  24356078.840       -4198.497       -3265.498          38.900          35.750



 110528637.424 7  85966733.301 6  20683920.900
  20683922.580       -2990.363       -2325.838          45.300          40.750



 104095429.526 7  80963117.650 7  19486884.360
  19486884.080        1544.997        1201.664          44.150          45.450



 106307501.178 7  82683619.332 8  19866092.160
  19866089.800       -2194.533       -1706.858          47.700          48.750



 104180090.839 7  81028975.277 8  19516439.440
  19516439.000        1812.123        1409.431          47.850          48.450



 124868129.577 6  97119660.182 6  23342780.440
  23342778.240        4227.311        3287.907          38.900          40.100



 127429811.938 6  99112071.154 4  23830011.680
  23830009.840       -4252.864       -3307.782          37.300          29.000



 124897677.939 8                  23767229.540
                     -1247.026                          52.000
  93267766.328 8  23767228.400        -931.271          52.300    95700825.679 8
  23767225.460        -955.562          53.100    94484295.820 8  23767227.020
      -943.405          51.300
 149622948.053 7                  28472299.860
                     -1162.779                          44.950
 111731420.582 7  28472299.080        -868.185          42.350   114646142.938 7
  28472296.060        -890.881          45.400   113188780.076 6  28472298.360
      -879.460          40.050
 137313984.476 7                  26129981.660
                      2861.675                          45.650
 102539697.208 7  26129991.580        2137.138          44.850   105214633.604 7
  26129988.300        2192.881          47.750   103877166.723 7  26129990.580
      2165.034          42.600
 114505901.421 8                  21789743.400
                      -523.336                          51.950
  85507672.821 8  21789743.460        -390.848          52.250    87738287.421 8
  21789740.440        -401.053          53.100    86622981.936 8  21789742.160
      -395.935          51.300
 18  1 21 21 27  0.0000000  0 27G02G05G12G14G16G20G21G23G25G26G29G31
                                R01R07R08R09R14R15R16R17R18R19R24E01
                                E05E24E26
 129856691.035 7 101186999.05946  24710903.480
  24710893.240       -2768.671       -2157.406          43.650          36.700



 130047137.131 7 101335417.20045  24747145.500
  24747138.600        1826.419        1423.182          43.950          33.500



 129780680.226 7 101127792.21145  24696434.100
  24696427.200       -3327.947       -2593.208          44.650          33.400



 128825020.514 6 100383084.63544  24514588.820
  24514581.980       -2957.479       -2304.531          40.700          29.500



 130442009.038 6 101643147.76445  24822289.220
  24822282.380        3368.341        2624.681          41.200          34.700



 133651469.899 6 104143909.50345  25433028.860
  25433019.020        2998.646        2336.598          37.300          32.150



 120391364.789 7  93811425.86046  22909714.300
  22909707.380        2872.810        2238.554          46.600          39.400



 133211713.615 7 103801299.26645  25349346.640
  25349336.320        1172.805         913.876          44.050          30.650



 113898261.202 8  88751896.41247  21674108.940
  21674104.060       -2332.378       -1817.437          50.350          45.650
  85053919.970 8  21674106.320       -1741.750          52.050


 117937838.760 7  91899614.23547  22442824.160
  22442819.880        2734.192        2130.539          46.750          42.050
  88070459.451 8  22442820.800        2041.747          51.600


 106437865.262 8  82938571.16248  20254445.800
  20254438.640       -1061.713        -827.309          50.950          48.100



 109736719.190 8  85509100.99847  20882201.180
  20882192.980        -312.334        -243.377          50.700          46.850



 130203414.456 6 101269324.779 5  24357240.480
  24357240.740        2420.354        1882.497          37.750          30.350



 130922892.276 6 101828924.458 6  24457499.580
  24457497.640       -2680.408       -2084.762          38.600          38.300



 127354661.613 5  99053612.594 6  23782583.240
  23782580.960         -63.200         -49.155          34.550          40.850



 124232827.098 6  96625515.620 6  23264815.920
  23264813.060        4093.212        3183.608          41.200          41.950



 129957626.578 6 101078172.558 5  24379714.200
  24379715.980       -4202.172       -3268.354          39.450          35.150



 110618579.397 7  86036688.161 6  20700752.240
  20700753.800       -3006.546       -2338.424          45.800          40.150



 104049381.735 7  80927302.705 7  19478264.040
  19478263.820        1524.467        1185.696          44.200          45.250



 106373604.542 7  82735033.061 8  19878445.040
  19878442.920       -2213.021       -1721.239          47.850          48.600



 104126046.662 7  80986940.940 8  19506315.080
  19506314.820        1789.999        1392.223          47.700          48.400



 124741400.176 6  97021092.886 6  23319089.880
  23319087.960        4220.667        3282.740          38.750          40.250



 127557412.139 6  99211315.778 4  23853873.720
  23853871.760       -4254.067       -3308.718          37.550          29.050



 124935236.828 8                  23774376.820
                     -1257.687                          51.900
  93295813.545 8  23774375.600        -939.135          52.350    95729604.562 8
  23774372.620        -963.628          53.050    94512708.869 8  23774374.260
      -951.345          51.150
 149658000.406 7                  28478970.360
                     -1174.935                          44.650
 111757596.064 7  28478969.260        -877.468          42.850   114673001.239 7
  28478966.540        -900.259          45.600   113215296.961 6  28478968.460
      -888.714          40.100
 137228120.223 7                  26113642.340
                      2861.571                          45.750
 102475577.802 7  26113652.460        2137.090          45.550   105148841.514 7
  26113649.000        2192.744          47.350   103812210.969 7  26113651.180
      2165.000          42.600
 114521784.209 8                  21792765.860
                      -536.262                          51.950
  85519533.352 8  21792765.880        -400.456          52.300    87750457.352 8
  21792762.900        -410.886          53.100    86634997.168 8  21792764.560
      -405.639          51.150
 18  1 21 21 27 30.0000000  0 27G02G05G12G14G16G20G21G23G25G26G29G31
                                R01R07R08R09R14R15R16R17R18R19R24E01
                                E05E24E26
 129939867.713 7 101251812.05146  24726731.260
  24726721.340       -2776.974       -2163.875          42.250          38.250



 129992532.493 7 101292868.15545  24736754.420
  24736747.820        1813.023        1412.746          43.700          33.900



 129880536.991 7 101205602.68745  24715436.340
  24715429.240       -3329.877       -2594.710          45.250          34.700



 128913792.094 6 100452257.28945  24531481.600
  24531474.680       -2961.194       -2307.422          40.000          31.750



 130340960.203 6 101564408.46545  24803060.380
  24803053.480        3367.736        2624.214          40.750          32.950



 133561479.456 6 104073787.06345  25415903.800
  25415895.900        3000.521        2338.071          36.950          33.300



 120305303.300 7  93744364.97546  22893337.300
  22893330.340        2864.010        2231.698          46.050          39.700



 133176761.501 7 103774063.87445  25342695.440
  25342685.060        1156.904         901.486          43.400          33.150



 113968369.873 8  88806526.53047  21687450.220
  21687445.320       -2342.002       -1824.936          50.250          45.700
  85106273.836 8  21687447.500       -1748.884          52.000


 117855891.629 7  91835759.33247  22427230.300
  22427225.880        2728.428        2126.048          47.300          42.300
  88009265.169 8  22427226.680        2037.376          51.550


 106469916.462 8  82963546.12247  20260544.840
  20260537.640       -1075.538        -838.081          50.850          47.850



 109746362.432 8  85516615.20747  20884036.140
  20884028.040        -331.101        -258.000          50.650          46.850



 130131048.084 6 101213039.804 5  24343702.980
  24343703.560        2403.325        1869.252          38.600          30.300



 131003526.741 6 101891640.155 6  24472562.620
  24472560.920       -2695.655       -2096.622          38.550          38.050



 127356913.564 5  99055364.110 6  23783003.900
  23783001.480         -87.996         -68.441          34.100          41.100



 124110057.565 7  96530028.230 7  23241825.340
  23241822.420        4090.636        3181.609          42.250          42.800



 130083727.369 6 101176250.968 5  24403370.360
  24403371.680       -4204.961       -3270.522          38.600          35.800



 110709002.263 7  86107017.055 6  20717673.680
  20717675.000       -3022.121       -2350.538          46.200          40.400



 104003942.309 7  80891960.929 7  19469757.640
  19469757.320        1504.407        1170.096          44.250          45.450



 106440259.903 7  82786876.116 8  19890901.040
  19890899.160       -2231.090       -1735.291          47.900          48.950



 104072662.473 7  80945419.916 8  19496314.360
  19496314.180        1768.414        1375.435          47.900          48.700



 124614864.858 6  96922676.535 6  23295435.440
  23295433.580        4214.376        3277.849          39.000          41.050



 127685052.511 6  99310591.647 4  23877743.540
  23877741.520       -4255.087       -3309.511          37.500          29.450



 124973106.532 8                  23781583.120
                     -1267.620                          51.950
  93324092.859 8  23781581.940        -946.608          52.350    95758621.602 8
  23781578.960        -971.311          53.100    94541357.046 8  23781580.660
      -958.967          51.250
 149693415.254 7                  28485709.780
                     -1186.570                          44.700
 111784042.213 7  28485708.660        -886.042          42.950   114700137.307 7
  28485706.400        -909.354          45.750   113242088.068 6  28485707.740
      -897.598          40.250
 137142257.600 7                  26097303.300
                      2862.019                          45.950
 102411459.615 7  26097313.440        2137.229          45.150   105083050.683 7
  26097310.060        2192.931          47.750   103747256.470 7  26097312.000
      2165.031          42.700
 114538048.031 8                  21795860.800
                      -548.567                          51.850
  85531678.422 8  21795860.900        -409.690          52.350    87762919.254 8
  21795857.880        -420.353          53.100    86647300.651 8  21795859.460
      -414.994          51.300
 18  1 21 21 28  0.0000000  0 27G02G05G12G14G16G20G21G23G25G26G29G31
                                R01R07R08R09R14R15R16R17R18R19R24E01
                                E05E24E26
 130023295.857 7 101316820.97846  24742606.760
  24742597.220       -2785.127       -2170.230          42.600          36.300



 129938331.022 7 101250633.27545  24726440.180
  24726433.660        1800.005        1402.604          43.850          33.250



 129980465.361 7 101283468.94145  24734452.360
  24734444.860       -3332.294       -2596.592          45.200          34.300



 129002691.797 6 100521529.75245  24548398.780
  24548391.440       -2965.461       -2310.751          40.350          32.650



 130239938.975 6 101485690.64145  24783836.880
  24783829.440        3366.988        2623.627          41.600          31.800



 133471481.098 6 104003658.43244  25398777.340
  25398771.620        2999.688        2337.423          36.600          28.800



 120219516.007 7  93677517.74946  22877012.460
  22877005.520        2855.102        2224.754          46.450          39.200



 133142298.212 7 103747209.33745  25336137.260
  25336126.900        1140.551         888.736          43.900          34.150



 114038770.582 8  88861384.20947  21700847.020
  21700842.180       -2351.594       -1832.411          50.100          45.650
  85158845.780 8  21700844.300       -1756.080          52.000


 117774128.692 7  91772047.94947  22411671.500
  22411666.900        2722.297        2121.271          47.550          42.800
  87948208.438 8  22411667.600        2032.880          51.400


 106502390.311 8  82988850.42448  20266724.360
  20266717.120       -1089.589        -849.029          51.000          48.200



 109756576.230 8  85524574.00647  20885979.680
  20885971.660        -350.069        -272.781          50.550          47.250



 130059213.762 6 101157168.659 5  24330265.020
  24330265.360        2385.551        1855.430          37.850          30.450



 131084629.260 6 101954719.880 6  24487713.260
  24487711.480       -2711.186       -2108.700          37.850          38.200



 127359910.652 5  99057695.184 6  23783563.560
  23783561.220        -112.572         -87.556          34.800          41.100



 123987367.111 7  96434602.332 7  23218849.680
  23218846.400        4088.163        3179.686          43.550          42.800



 130209924.262 6 101274404.143 5  24427044.360
  24427045.760       -4208.126       -3272.986          38.600          35.900



 110799902.540 7  86177717.252 6  20734684.480
  20734685.620       -3037.882       -2362.797          46.100          39.900



 103959111.638 7  80857092.636 7  19461365.300
  19461364.940        1484.044        1154.257          44.200          45.050



 106507461.954 8  82839144.382 8  19903459.340
  19903457.480       -2249.218       -1749.392          48.050          48.800



 104019936.444 7  80904410.803 8  19486436.920
  19486436.680        1746.488        1358.381          47.800          48.400



 124488523.700 6  96824411.190 6  23271817.180
  23271815.540        4208.119        3272.982          38.650          40.950



 127812728.210 5  99409894.950 4  23901619.560
  23901617.560       -4256.487       -3310.603          35.750          29.950



 125011284.838 8                  23788848.140
                     -1277.783                          51.900
  93352602.625 8  23788846.980        -954.235          52.350    95787875.100 8
  23788844.020        -979.151          53.050    94570238.683 8  23788845.760
      -966.732          51.150
 149729189.239 7                  28492517.400
                     -1198.465                          44.100
 111810756.566 7  28492516.580        -895.056          43.600   114727548.547 7
  28492514.460        -918.311          45.600   113269150.871 6  28492515.320
      -906.755          40.400
 137056395.386 7                  26080964.400
                      2862.016                          46.450
 102347341.748 7  26080974.520        2137.030          45.250   105017260.145 8
  26080971.200        2192.977          48.050   103682302.265 7  26080972.980
      2164.969          42.950
 114554689.853 8                  21799027.640
                      -561.050                          51.850
  85544105.762 8  21799027.800        -419.004          52.350    87775670.784 8
  21799024.840        -429.916          53.100    86659890.090 8  21799026.280
      -424.472          51.250
 18  1 21 21 28 30.0000000  0 27G02G05G12G14G16G20G21G23G25G26G29G31
                                R01R07R08R09R14R15R16R17R18R19R24E01
                                E05E24E26
 130106973.413 7 101382024.29146  24758529.720
  24758520.540       -2793.761       -2176.954          42.500          36.850



 129884535.421 7 101208714.61746  24716203.240
  24716196.720        1786.155        1391.810          43.850          36.500



 130080463.893 7 101361389.85145  24753481.520
  24753473.880       -3334.630       -2598.415          44.550          33.850



 129091716.197 6 100590899.39245  24565339.620
  24565332.080       -2969.874       -2314.191          40.100          32.350



 130138945.682 6 101406994.53945  24764618.800
  24764611.140        3365.816        2622.710          41.750          34.900



 133381477.428 6 103933525.69144  25381650.060
  25381645.220        2999.731        2337.455          36.300          28.950



 120134004.640 7  93610885.51746  22860740.240
  22860733.280        2845.463        2217.244          46.400          39.200



 133108324.158 7 103720736.06945  25329672.100
  25329661.800        1124.231         876.029          43.900          32.800



 114109462.242 8  88916468.59547  21714299.100
  21714294.420       -2361.497       -1840.128          50.100          45.600
  85211634.989 8  21714296.560       -1763.543          52.000


 117692551.027 8  91708480.91947  22396147.860
  22396143.180        2715.937        2116.314          48.650          43.100
  87887290.050 8  22396143.740        2027.960          51.250


 106535285.106 8  83014482.72748  20272984.080
  20272976.780       -1103.823        -860.122          50.850          48.400



 109767360.114 8  85532977.01647  20888031.780
  20888023.740        -369.308        -287.773          50.500          47.400



 129987914.530 6 101101713.677 4  24316926.640
  24316927.520        2367.471        1841.367          36.300          29.600



 131166195.621 6 102018160.339 6  24502950.460
  24502948.900       -2726.774       -2120.827          37.600          38.200



 127363652.309 5  99060605.360 6  23784262.120
  23784259.820        -137.094        -106.627          34.750          40.750



 123864758.259 7  96339239.877 7  23195889.080
  23195885.760        4085.256        3177.422          43.900          42.650



 130336214.776 6 101372630.104 6  24450736.060
  24450737.740       -4211.446       -3275.568          40.200          36.600



 110891277.375 7  86248786.549 6  20751784.160
  20751785.000       -3054.097       -2375.409          46.400          39.700



 103914892.099 7  80822699.646 7  19453087.420
  19453086.860        1463.398        1138.198          44.300          44.900



 106575207.165 7  82891835.087 8  19916119.240
  19916117.300       -2267.503       -1763.614          47.950          48.650



 103967869.260 7  80863914.113 8  19476683.020
  19476682.600        1724.219        1341.060          47.950          48.250



 124362379.050 6  96726298.688 6  23248235.620
  23248234.460        4201.292        3267.672          38.900          40.600



 127940436.063 5  99509223.275 4  23925501.400
  23925499.260       -4257.479       -3311.373          35.550          29.100



 125049771.377 8                  23796171.880
                     -1288.421                          51.800
  93381342.564 8  23796170.720        -962.178          52.350    95817364.775 8
  23796167.700        -987.251          53.050    94599353.486 8  23796169.520
      -974.707          51.200
 149765320.906 7                  28499393.060
                     -1210.687                          43.700
 111837737.993 7  28499392.380        -904.117          43.700   114755233.855 7
  28499390.340        -927.734          45.750   113296484.238 6  28499390.980
      -915.875          40.550
 136970534.200 7                  26064625.600
                      2861.719                          46.300
 102283224.604 7  26064635.700        2136.861          45.600   104951470.411 8
  26064632.600        2192.698          48.300   103617348.825 7  26064634.220
      2164.821          43.150
 114571708.499 8                  21802266.160
                      -573.853                          51.750
  85556814.489 8  21802266.400        -428.624          52.300    87788711.042 8
  21802263.440        -439.759          53.100    86672764.585 8  21802264.820
      -434.188          51.250
 18  1 21 21 29  0.0000000  0 27G02G05G12G14G16G20G21G23G25G26G29G31
                                R01R07R08R09R14R15R16R17R18R19R24E01
                                E05E24E26
 130190901.396 7 101447422.71746  24774500.500
  24774491.660       -2801.980       -2183.360          43.100          37.650



 129831150.995 7 101167116.37345  24706044.480
  24706038.180        1772.354        1381.054          44.250          33.850



 130180534.716 7 101439367.11245  24772524.640
  24772517.060       -3337.212       -2600.425          45.600          34.350



 129180865.714 6 100660366.54845  24582304.320
  24582297.360       -2973.535       -2317.036          39.800          35.100



 130037984.824 6 101328323.78745  24745406.680
  24745398.500        3364.535        2621.719          41.950          34.950



 133291474.448 6 103863393.47545  25364522.880
  25364518.520        2999.888        2337.569          36.350          32.000



 120048774.715 7  93544472.60546  22844521.440
  22844514.600        2836.041        2209.902          46.400          40.000



 133074844.195 7 103694647.76645  25323300.840
  25323290.640        1107.450         862.950          42.950          34.050



 114180447.434 8  88971781.71147  21727807.140
  21727802.540       -2371.278       -1847.750          50.200          45.350
  85264643.386 8  21727804.720       -1770.764          52.000


 117611163.369 8  91645061.97047  22380660.160
  22380655.680        2709.453        2111.262          48.550          42.200
  87826513.540 8  22380656.080        2023.253          51.050


 106568602.730 8  83040444.51147  20279324.180
  20279316.960       -1117.856        -871.058          50.950          47.700



 109778717.347 8  85541826.80247  20890193.000
  20890185.000        -388.430        -302.673          50.650          46.900



 129917157.841 6 101046680.690 5  24303689.680
  24303691.220        2349.312        1827.241          36.150          30.050



 131248225.435 6 102081961.296 6  24518274.100
  24518272.920       -2742.510       -2133.063          37.850          36.650



 127368141.750 5  99064097.162 6  23785100.860
  23785097.940        -162.378        -126.294          34.150          40.550



 123742237.308 7  96243945.790 7  23172944.960
  23172941.480        4082.295        3175.116          43.350          42.650



 130462600.201 6 101470929.866 5  24474445.620
  24474446.840       -4214.597       -3278.021          39.000          35.600



 110983128.453 7  86320226.268 6  20768973.000
  20768973.720       -3069.926       -2387.721          46.200          38.700



 103871289.799 7  80788786.755 7  19444925.000
  19444924.320        1442.818        1122.192          44.100          44.800



 106643495.660 7  82944948.367 8  19928880.700
  19928878.620       -2285.516       -1777.624          47.900          48.600



 103916465.524 7  80823933.444 8  19467053.420
  19467052.940        1702.161        1323.903          47.900          48.300



 124236436.992 6  96628343.768 6  23224691.920
  23224691.080        4194.449        3262.350          38.850          40.700



 128068176.726 5  99608577.094 5  23949389.220
  23949387.440       -4259.009       -3312.564          35.600          30.300



 125088569.493 8                  23803554.920
                     -1298.718                          51.900
  93410315.163 8  23803553.760        -969.877          52.350    95847093.185 8
  23803550.740        -995.177          53.100    94628703.991 8  23803552.580
      -982.513          51.250
 149801812.390 7                  28506337.240
                     -1222.444                          43.600
 111864988.137 7  28506336.600        -913.026          43.700   114783194.885 7
  28506334.500        -936.952          45.200   113324089.826 6  28506335.100
      -924.955          40.300
 136884678.413 7                  26048287.880
                      2861.375                          46.300
 102219111.507 7  26048297.940        2136.903          45.350   104885684.796 8
  26048294.980        2192.534          48.350   103552399.470 7  26048296.340
      2164.628          43.200
 114589106.463 8                  21805576.760
                      -586.417                          51.700
  85569806.479 8  21805577.120        -438.035          52.350    87802041.950 8
  21805574.200        -449.399          53.100    86685926.033 8  21805575.540
      -443.739          51.300
 18  1 21 21 29 30.0000000  0 27G02G05G12G14G16G20G21G23G25G26G29G31
                                R01R07R08R09R14R15R16R17R18R19R24E01
                                E05E24E26
 130275073.850 7 101513011.64046  24790517.860
  24790509.240       -2809.682       -2189.360          42.250          37.650



 129778176.940 7 101125837.91945  24695963.840
  24695957.680        1759.462        1371.015          43.950          34.400



 130280673.708 7 101517397.49345  24791580.820
  24791573.180       -3338.972       -2601.796          45.450          34.850



 129270133.154 6 100729925.54345  24599291.160
  24599284.280       -2977.292       -2319.969          39.600          35.200



 129937053.344 7 101249675.85245  24726200.260
  24726192.020        3364.211        2621.463          42.600          32.200



 133201471.004 5 103793260.98645  25347395.840
  25347391.480        3000.493        2338.053          35.600          31.650



 119963824.476 7  93478277.63246  22828355.800
  22828349.120        2827.213        2203.023          46.250          39.250



 133041855.108 7 103668941.97445  25317022.820
  25317013.260        1091.869         850.809          42.250          33.850



 114251721.425 8  89027319.87647  21741370.140
  21741365.540       -2380.272       -1854.758          49.950          45.550
  85317867.470 8  21741367.720       -1777.545          51.950


 117529963.167 8  91581789.08447  22365208.120
  22365203.860        2703.737        2106.809          48.050          43.850
  87765877.024 8  22365204.040        2019.061          51.000


 106602337.549 8  83066731.38348  20285743.660
  20285736.500       -1131.146        -881.413          50.850          48.100



 109790643.839 8  85551120.16847  20892462.600
  20892454.560        -406.733        -316.935          50.650          47.200



 129846942.533 6 100992068.815 4  24290554.360
  24290556.020        2331.593        1813.461          36.750          29.800



 131330710.719 6 102146116.537 5  24533683.100
  24533681.900       -2756.649       -2144.061          38.600          35.950



 127373374.775 5  99068167.313 6  23786078.320
  23786075.140        -186.688        -145.201          34.900          40.700



 123619803.025 7  96148719.125 7  23150016.840
  23150013.660        4079.966        3173.307          42.650          42.650



 130589074.318 6 101569298.659 5  24498171.900
  24498172.600       -4216.987       -3279.877          37.800          34.700



 111075450.399 7  86392032.218 6  20786249.980
  20786250.400       -3084.884       -2399.354          46.600          38.850



 103828303.077 7  80755352.637 7  19436877.800
  19436877.160        1422.853        1106.664          44.150          44.650



 106712320.152 8  82998478.528 8  19941742.320
  19941740.160       -2302.812       -1791.075          48.300          48.400



 103865721.757 8  80784466.080 8  19457547.460
  19457546.940        1680.691        1307.205          48.250          48.050



 124110695.792 6  96530545.081 6  23201185.640
  23201185.180        4188.182        3257.477          40.350          40.750



 128195943.466 5  99707951.235 4  23973281.880
  23973280.560       -4259.080       -3312.615          35.600          28.350



 125127675.142 8                  23810996.480
                     -1308.313                          51.750
  93439517.431 8  23810995.320        -977.064          52.400    95877057.253 8
  23810992.280       -1002.574          53.100    94658287.160 8  23810994.160
      -989.809          51.300
 149838658.441 7                  28513348.740
                     -1233.898                          43.650
 111892503.054 7  28513348.220        -921.490          43.700   114811427.582 7
  28513345.820        -945.490          45.550   113351963.635 6  28513346.820
      -933.513          40.600
 136798825.025 7                  26031950.660
                      2861.969                          46.250
 102155000.197 7  26031960.340        2137.203          45.750   104819901.037 8
  26031957.840        2192.993          48.750   103487451.929 7  26031959.100
      2165.123          43.550
 114606878.901 8                  21808958.660
                      -598.376                          51.600
  85583078.111 8  21808959.060        -446.817          52.350    87815659.802 8
  21808956.140        -458.499          53.100    86699370.773 8  21808957.520
      -452.666          51.300
 18  1 21 21 30  0.0000000  0 27G02G05G12G14G16G20G21G23G25G26G29G31
                                R01R07R08R09R14R15R16R17R18R19R24E01
                                E05E24E26
 130359488.441 6 101578789.21546  24806581.100
  24806572.940       -2818.063       -2195.896          40.400          38.700



 129725615.642 7 101084881.07246  24685961.780
  24685955.900        1744.879        1359.646          44.250          36.650



 130380879.927 7 101595480.24945  24810649.560
  24810641.980       -3341.647       -2603.881          45.350          35.900



 129359515.545 6 100799574.12845  24616299.760
  24616293.120       -2981.925       -2323.575          38.600          30.200



 129836152.465 7 101171051.80645  24706999.560
  24706991.580        3362.495        2620.129          43.050          34.600



 133111470.163 6 103723130.41245  25330269.480
  25330264.800        2999.509        2337.274          37.600          33.350



 119879156.115 7  93412302.29746  22812243.820
  22812237.180        2817.121        2195.161          46.300          39.550



 133009357.833 7 103643619.42845  25310838.540
  25310829.140        1074.761         837.476          43.400          32.350



 114323283.544 8  89083082.54647  21754987.900
  21754983.480       -2390.503       -1862.729          50.150          45.350
  85371306.686 8  21754985.680       -1785.144          51.850


 117448951.885 8  91518663.40947  22349792.160
  22349787.920        2696.846        2101.438          48.400          43.250
  87705381.580 8  22349787.940        2013.854          50.850


 106636488.537 8  83093342.54548  20292242.380
  20292235.220       -1145.547        -892.634          51.050          48.100



 109803139.483 8  85560857.02147  20894840.500
  20894832.420        -426.382        -332.246          50.800          47.350



 129777272.566 6 100937881.083 5  24277521.180
  24277522.920        2312.902        1798.928          36.650          30.150



 131413647.666 6 102210623.085 5  24549176.660
  24549174.700       -2772.420       -2156.327          36.850          35.600



 127379351.071 5  99072815.530 6  23787194.640
  23787191.480        -211.977        -164.871          35.950          40.650



 123497458.356 7  96053562.175 7  23127105.320
  23127102.520        4076.291        3170.452          42.200          42.700



 130715635.358 6 101667735.069 5  24521914.840
  24521915.040       -4220.593       -3282.683          39.650          33.750



 111168240.654 7  86464202.410 6  20803614.460
  20803614.720       -3101.109       -2411.974          46.750          38.550



 103785934.748 7  80722399.493 7  19428946.340
  19428945.640        1401.552        1090.097          44.150          44.600



 106781677.542 8  83052423.162 8  19954703.560
  19954701.280       -2321.062       -1805.270          48.300          48.350



 103815638.912 8  80745512.765 8  19448165.240
  19448164.800        1658.127        1289.655          48.100          48.050



 123985158.143 6  96432904.689 6  23177717.480
  23177717.100        4180.901        3251.814          40.200          40.850



 128323733.277 5                  23997178.840
                     -4260.093                          34.100



 125167088.355 8                  23818496.660
                     -1319.232                          51.900
  93468949.364 8  23818495.440        -985.197          52.350    95907256.976 8
  23818492.380       -1010.875          53.100    94688102.986 8  23818494.260
      -998.009          51.250
 149875857.907 7                  28520427.660
                     -1245.992                          43.550
 111920281.833 7  28520427.100        -930.567          43.350   114839931.032 7
  28520423.940        -954.872          45.600   113380104.742 6  28520425.740
      -942.636          40.550
 136712975.121 7                  26015613.940
                      2861.073                          46.000
 102090891.509 7  26015623.520        2136.577          45.050   104754119.926 8
  26015621.180        2192.379          48.450   103422507.038 7  26015622.380
      2164.404          43.150
 114625025.014 8                  21812411.640
                      -611.390                          51.750
  85596628.780 8  21812412.080        -456.604          52.300    87829563.969 8
  21812409.160        -468.523          53.100    86713098.192 8  21812410.600
      -462.555          51.250
 18  1 21 21 30 30.0000000  0 27G02G05G12G14G16G20G21G23G25G26G29G31
                                R01R07R08R09R14R15R16R17R18R19R24E01
                                E05E24E26
 130444145.436 6 101644755.70446  24822690.800
  24822682.680       -2825.918       -2202.015          41.400          38.950



 129673472.476 7 101044250.06445  24676039.140
  24676033.420        1731.441        1349.177          44.800          35.500



 130481155.014 7 101673616.68245  24829731.440
  24829724.120       -3343.261       -2605.136          45.800          34.950



 129449012.391 6 100869311.91045  24633330.540
  24633323.520       -2985.136       -2326.081          39.050          33.850



 129735285.375 7 101092454.08045  24687805.320
  24687797.380        3361.925        2619.685          43.550          32.100



 133021476.746 6 103653005.57344  25313144.840
  25313139.600        2999.808        2337.498          37.900          29.150



 119794774.076 7  93346550.06846  22796186.360
  22796179.700        2808.012        2188.062          46.450          40.800



 132977355.492 7 103618682.54545  25304748.880
  25304739.140        1058.829         825.063          43.850          33.000



 114395135.371 8  89139070.96647  21768660.800
  21768656.460       -2399.680       -1869.883          50.100          45.700
  85424962.253 8  21768658.760       -1791.891          51.800


 117368133.354 8  91455687.92947  22334412.920
  22334408.640        2690.865        2096.778          48.550          43.600
  87645030.060 8  22334408.580        2009.557          50.900


 106671056.481 8  83120278.60148  20298820.460
  20298813.260       -1158.974        -903.097          51.000          48.250



 109816206.630 8  85571039.20647  20897327.160
  20897319.060        -444.906        -346.681          50.800          47.700



 129708153.895 6 100884122.113 5  24264590.600
  24264592.360        2294.746        1784.804          36.700          30.400



 131497034.863 6 102275479.760 5  24564754.580
  24564751.720       -2786.582       -2167.343          37.800          35.350



 127386072.802 5  99078043.546 6  23788450.220
  23788447.060        -235.960        -183.524          35.200          40.750



 123375208.637 7  95958479.066 7  23104211.740
  23104209.340        4073.702        3168.436          42.750          43.000



 130842283.563 6 101766239.256 5  24545673.800
  24545673.960       -4222.761       -3284.367          39.100          34.400



 111261500.528 7  86536737.863 6  20821066.800
  20821067.000       -3116.243       -2423.746          46.350          38.700



 103744189.772 7  80689931.172 7  19421131.580
  19421130.860        1381.291        1074.337          44.600          44.950



 106851566.800 7  83106781.474 8  19967764.060
  19967761.760       -2338.231       -1818.625          47.950          48.500



 103766220.222 8  80707076.020 8  19438907.400
  19438907.000        1636.384        1272.743          48.050          48.250



 123859828.869 6  96335426.367 6  23154288.480
  23154287.640        4174.285        3246.667          39.950          40.850



 128451545.978 5                  24021079.900
                     -4260.386                          33.250



 125206811.438 8                  23826055.740
                     -1329.069                          51.900
  93498612.684 8  23826054.540        -992.437          52.350    95937694.126 8
  23826051.480       -1018.327          53.100    94718153.221 8  23826053.300
     -1005.355          51.350
 149913411.923 7                  28527574.140
                     -1257.574                          43.850
 111948325.423 7  28527573.480        -939.077          42.700   114868706.177 7
  28527569.520        -963.309          44.850   113408514.113 6  28527571.980
      -951.058          39.800
 136627132.067 7                  25999278.540
                      2861.419                          46.400
 102026787.920 7  25999288.060        2136.957          45.300   104688344.084 8
  25999285.880        2192.569          48.650   103357567.318 7  25999287.060
      2164.778          43.350
 114643546.292 8                  21815936.100
                      -623.447                          51.700
  85610459.600 8  21815936.480        -465.487          52.250    87843755.589 8
  21815933.520        -477.608          53.100    86727109.413 8  21815935.080
      -471.555          51.250
 18  1 21 21 31  0.0000000  0 27G02G05G12G14G16G20G21G23G25G26G29G31
                                R01R07R08R09R14R15R16R17R18R19R24E01
                                E05E24E26
 130529039.966 7 101710907.28246  24838845.660
  24838837.720       -2833.415       -2207.856          42.350          38.000



 129621746.416 7 101003944.07245  24666196.060
  24666190.360        1717.159        1338.048          45.050          35.050



 130581495.315 7 101751803.91545  24848825.840
  24848818.860       -3345.606       -2606.966          45.900          35.500



 129538617.745 6 100939134.23145  24650382.000
  24650375.100       -2988.837       -2328.964          39.350          30.550



 129634450.233 7 101013881.23645  24668617.180
  24668608.920        3360.518        2618.582          43.550          32.950



 132931490.945 6 103582886.79045  25296021.540
  25296015.600        2999.364        2337.158          38.300          30.300



 119710677.707 7  93281020.45846  22780183.380
  22780176.780        2798.472        2180.628          46.700          39.700



 132945846.336 7 103594129.91545  25298753.440
  25298743.420        1042.028         811.971          44.200          33.150



 114467273.093 8  89195282.16147  21782388.100
  21782383.880       -2409.385       -1877.443          50.300          45.650
  85478831.319 8  21782386.200       -1799.261          51.850


 117287505.984 8  91392861.41947  22319069.920
  22319065.820        2684.407        2091.746          48.200          42.850
  87584821.329 8  22319065.720        2004.502          51.100


 106706037.032 8  83147536.17548  20305477.060
  20305469.940       -1172.910        -913.956          51.050          48.250



 109829842.092 8  85581664.22947  20899921.920
  20899913.820        -464.007        -361.564          50.800          47.550



 129639586.461 6 100830791.887 5  24251763.160
  24251765.360        2276.162        1770.349          38.050          32.200



 131580865.177 6 102340681.109 5  24580415.100
  24580411.120       -2801.928       -2179.277          38.100          34.850



 127393536.139 5  99083848.366 6  23789843.400
  23789841.100        -261.249        -203.195          34.950          41.300



 123253053.683 7  95863469.637 7  23081335.880
  23081333.600        4070.320        3165.803          43.050          42.800



 130969013.891 6 101864807.303 5  24569448.280
  24569448.200       -4225.880       -3286.796          39.600          34.150



 111355223.717 7  86609633.671 6  20838605.760
  20838606.140       -3131.890       -2435.914          46.250          38.700



 103703067.463 7  80657947.160 7  19413433.400
  19413432.780        1360.342        1058.044          44.100          45.050



 106921981.790 7  83161548.695 8  19980922.680
  19980920.540       -2355.879       -1832.350          47.800          48.600



 103717463.217 8  80669153.916 8  19429773.500
  19429773.080        1614.217        1255.502          48.550          48.350



 123734707.930 6  96238110.097 6  23130898.620
  23130897.600        4167.287        3241.224          40.000          40.400



 128579375.862 5                  24044984.140
                     -4261.185                          32.600



 125246841.332 8                  23833673.240
                     -1339.423                          51.900
  93528505.130 8  23833672.020       -1000.269          52.400    95968366.378 8
  23833668.940       -1026.404          53.050    94748435.570 8  23833670.760
     -1013.343          51.250
 149951316.252 7                  28534787.180
                     -1269.154                          42.350
 111976630.612 7  28534786.460        -947.743          42.900   114897749.806 7
  28534781.800        -972.705          44.550   113437188.525 6  28534785.020
      -960.118          39.450
 136541293.882 7                  25982943.840
                      2861.164                          46.100
 101962687.959 7  25982953.420        2136.539          45.450   104622571.962 8
  25982951.420        2192.282          48.600   103292631.280 7  25982952.620
      2164.359          43.350
 114662438.817 8                  21819531.200
                      -635.880                          51.750
  85624567.666 8  21819531.580        -474.932          52.300    87858231.692 8
  21819528.500        -487.312          53.050    86741401.495 8  21819530.200
      -481.094          51.100
 18  1 21 21 31 30.0000000  0 27G02G05G12G14G16G20G21G23G25G26G29G31
                                R01R07R08R09R14R15R16R17R18R19R24E01
                                E05E24E26
 130614173.212 6 101777244.88746  24855046.100
  24855038.280       -2842.249       -2214.740          41.850          38.450



 129570442.739 7 100963967.20045  24656433.080
  24656427.740        1702.887        1326.927          44.650          34.700



 130681903.039 7 101830043.68646  24867932.800
  24867926.040       -3348.243       -2609.022          45.800          36.700



 129628332.252 6 101009041.60644  24667454.020
  24667446.940       -2992.499       -2331.814          38.500          26.950



 129533651.563 7 100935336.83745  24649435.920
  24649427.480        3358.986        2617.393          43.050          33.350



 132841519.065 6 103512778.86645  25278900.800
  25278894.380        2998.552        2336.534          38.250          30.750



 119626872.666 7  93215717.82946  22764235.880
  22764229.040        2788.313        2172.713          46.950          40.000



 132914834.897 7 103569965.14545  25292852.340
  25292842.300        1025.156         798.821          44.300          34.050



 114539699.565 8  89251718.36147  21796170.380
  21796166.260       -2419.243       -1885.125          50.050          45.650
  85532916.011 8  21796168.620       -1806.612          51.800


 117207074.807 7  91330187.79547  22303764.040
  22303760.300        2677.477        2086.346          47.950          43.800
  87524759.093 8  22303760.280        1999.364          51.200


 106741431.966 8  83175116.64548  20312212.520
  20312205.420       -1186.963        -924.905          51.100          48.200



 109844049.684 8  85592735.07647  20902625.500
  20902617.460        -483.437        -376.704          50.700          47.350



 129571577.653 6 100777896.162 5  24239040.340
  24239042.560        2257.112        1755.532          37.950          32.250



 131665138.568 6 102406227.080 5  24596157.980
  24596153.580       -2816.733       -2190.793          37.700          33.300



 127401744.861 5  99090232.921 6  23791376.020
  23791374.160        -286.502        -222.835          34.450          41.200



 123131000.028 7  95768539.019 7  23058479.020
  23058476.920        4066.262        3162.649          42.300          42.700



 131095828.445 6 101963440.870 5  24593238.220
  24593238.300       -4228.807       -3289.070          40.350          32.750



 111449412.936 7  86682891.944 6  20856231.960
  20856232.540       -3147.737       -2448.241          46.050          38.600



 103662574.102 7  80626452.316 7  19405852.900
  19405852.380        1339.167        1041.574          44.150          44.850



 106992922.857 8  83216725.078 8  19994179.560
  19994177.620       -2373.697       -1846.208          48.000          48.250



 103669372.633 8  80631750.138 8  19420764.580
  19420764.020        1591.676        1237.972          48.300          48.100



 123609800.864 6  96140960.176 6  23107548.840
  23107547.200        4159.870        3235.456          39.850          39.650



 128707224.116 5 100105594.962 4  24068892.220
  24068892.380       -4262.199       -3315.045          33.750          27.800



 125287181.554 8                  23841349.740
                     -1350.104                          51.850
  93558629.310 8  23841348.520       -1008.183          52.400    95999276.406 8
  23841345.460       -1034.507          53.100    94778952.674 8  23841347.240
     -1021.328          51.350
 149989573.346 7                  28542067.160
                     -1281.385                          42.050
 112005199.212 7  28542066.600        -956.814          42.400   114927063.653 7
  28542061.860        -981.836          44.950   113466129.747 6  28542065.020
      -969.345          39.800
 136455465.169 7                  25966611.020
                      2860.506                          46.350
 101898595.095 7  25966620.640        2136.077          45.250   104556807.096 8
  25966618.720        2191.906          48.400   103227702.408 7  25966620.000
      2163.979          43.200
 114681705.325 8                  21823197.540
                      -648.768                          51.750
  85638954.996 8  21823197.880        -484.439          52.300    87872994.341 8
  21823194.580        -497.043          53.050    86755976.485 8  21823196.500
      -490.746          51.100
 18  1 21 21 32  0.0000000  0 27G02G05G12G14G16G20G21G23G25G26G29G31
                                R01R07R08R09R14R15R16R17R18R19R24E01
                                E05E24E26
 130699540.740 6 101843765.03646  24871291.100
  24871283.180       -2849.290       -2220.224          41.850          37.650



 129519562.897 7 100924320.57845  24646750.860
  24646745.640        1689.103        1316.185          45.050          33.000



 130782375.743 7 101908334.08445  24887052.220
  24887045.460       -3350.118       -2610.483          45.450          34.600



 129718150.254 6 101079029.63145  24684545.600
  24684538.900       -2995.848       -2334.431          38.650          31.550



 129432887.895 7 100856819.73845  24630261.140
  24630252.720        3358.410        2616.941          43.600          35.000



 132751561.413 6 103442681.97645  25261782.520
  25261775.240        2998.425        2336.435          38.450          30.550



 119543358.573 7  93150641.93346  22748343.800
  22748336.780        2779.040        2165.487          47.100          38.950



 132884319.568 7 103546186.98545  25287045.500
  25287035.760        1009.245         786.427          43.550          33.800



 114612411.665 8  89308377.12447  21810006.960
  21810002.920       -2428.346       -1892.218          50.100          45.350
  85587213.992 8  21810005.320       -1813.371          51.800


 117126838.902 7  91267666.32347  22288495.460
  22288491.980        2671.500        2081.688          47.950          43.350
  87464842.678 8  22288492.020        1994.915          51.300


 106777237.657 8  83203017.19048  20319026.140
  20319019.000       -1200.204        -935.224          51.050          48.000



 109858826.108 8  85604249.16647  20905437.260
  20905429.340        -501.891        -391.084          50.550          47.000



 129504128.305 6 100725435.556 5  24226422.780
  24226425.240        2239.278        1741.662          39.050          32.600



 131749848.955 6 102472112.970 5  24611982.400
  24611978.100       -2830.774       -2201.713          36.000          34.350



 127410696.046 5  99097194.966 6  23793047.620
  23793045.940        -311.014        -241.898          34.750          40.900



 123009048.150 6  95673687.568 7  23035641.100
  23035639.040        4063.388        3160.415          41.850          42.850



 131222722.461 6 102062136.265 5  24617043.080
  24617043.340       -4230.656       -3290.509          38.600          32.800



 111544063.964 7  86756509.389 6  20873944.500
  20873945.500       -3162.595       -2459.796          46.250          39.000



 103622709.650 7  80595446.641 7  19398390.160
  19398389.680        1318.488        1025.491          43.950          45.000



 107064384.331 7  83272306.229 8  20007533.700
  20007531.900       -2390.614       -1859.367          47.500          48.350



 103621946.590 8  80594863.239 8  19411880.140
  19411879.540        1569.879        1221.018          48.300          48.350



 123485108.187 6  96043976.993 6  23084238.960
  23084237.300        4153.151        3230.229          40.150          40.650



 128835085.358 5 100205042.593 4  24092802.800
  24092803.320       -4261.627       -3314.600          34.550          29.550



 125327829.713 8                  23849084.800
                     -1359.946                          51.800
  93588983.439 8  23849083.700       -1015.513          52.450    96030422.378 8
  23849080.580       -1041.965          53.100    94809702.728 8  23849082.340
     -1028.748          51.300
 150028179.480 6                  28549413.020
                     -1292.260                          41.750
 112034028.454 7  28549413.000        -965.009          42.100   114956644.945 7
  28549408.520        -990.187          44.500   113495335.007 6  28549411.480
      -977.592          38.850
 136369644.610 7                  25950279.780
                      2860.802                          46.200
 101834508.303 7  25950289.380        2136.270          45.600   104491048.493 8
  25950287.420        2191.972          48.350   103162779.714 7  25950288.960
      2164.101          43.200
 114701342.520 8                  21826934.380
                      -660.608                          51.700
  85653619.137 8  21826934.700        -493.272          52.300    87888041.027 8
  21826931.240        -506.141          53.000    86770831.900 8  21826933.340
      -499.702          51.050
 18  1 21 21 32 30.0000000  0 27G02G05G12G14G16G20G21G23G25G26G29G31
                                R01R07R08R09R14R15R16R17R18R19R24E01
                                E05E24E26
 130785142.443 6 101910467.66646  24887580.540
  24887572.860       -2857.285       -2226.452          41.900          38.650



 129469111.288 7 100885007.65645  24637150.200
  24637144.860        1674.573        1304.863          45.150          34.350



 130882914.995 7 101986676.33645  24906183.960
  24906177.520       -3352.468       -2612.314          44.950          34.250



 129808071.179 6 101149097.83745  24701656.960
  24701649.940       -2998.951       -2336.852          38.750          32.150



 129332162.741 7 100778332.62345  24611093.740
  24611085.140        3356.744        2615.646          43.350          35.300



 132661623.407 6 103372600.48445  25244667.600
  25244660.200        2998.002        2336.120          38.750          32.200



 119460140.189 7  93085796.45946  22732507.940
  22732500.900        2768.844        2157.541          47.350          40.100



 132854303.360 7 103522797.72045  25281333.480
  25281323.780         992.055         773.028          43.550          31.100



 114685410.729 8  89365259.50747  21823898.240
  21823894.160       -2438.036       -1899.768          50.300          45.400
  85641726.278 8  21823896.740       -1820.571          51.750


 117046801.893 8  91205299.83247  22273264.900
  22273261.560        2664.621        2076.330          48.400          43.700
  87405074.793 8  22273261.620        1989.816          51.350


 106813454.702 8  83231238.26848  20325918.060
  20325910.960       -1214.035        -946.001          51.250          48.350



 109874173.587 8  85616208.23447  20908357.740
  20908349.900        -521.088        -406.043          50.600          47.250



 129437244.315 6 100673414.675 5  24213910.920
  24213913.460        2220.035        1726.693          39.750          32.350



 131834994.813 5 102538337.557 5  24627888.020
  24627885.000       -2845.035       -2212.800          35.750          35.500



 127420391.153 5  99104735.609 6  23794857.980
  23794856.300        -335.353        -260.828          35.350          40.900



 122887203.290 7  95578919.337 7  23012823.260
  23012821.580        4059.727        3157.564          42.300          43.000



 131349696.169 6 102160893.608 5  24640862.800
  24640863.360       -4233.911       -3293.040          37.750          31.850



 111639176.033 7  86830485.425 6  20891743.400
  20891744.620       -3178.006       -2471.783          45.900          38.750



 103583479.144 7  80564934.015 7  19391046.220
  19391045.640        1297.202        1008.936          44.600          45.100



 107136365.195 7  83328291.351 8  20020984.960
  20020983.280       -2408.000       -1872.889          47.750          48.200



 103575188.176 8  80558495.598 8  19403120.740
  19403120.180        1547.509        1203.619          48.450          48.400



 123360634.561 6  95947164.194 6  23060970.060
  23060968.100        4145.542        3224.311          40.300          40.300



 128962959.333 5 100304500.144 4  24116716.080
  24116716.980       -4263.036       -3315.693          33.550          27.550



 125368787.830 8                  23856878.880
                     -1370.393                          51.900
  93619569.042 8  23856877.820       -1023.318          52.400    96061805.866 8
  23856874.660       -1049.991          53.050    94840687.270 8  23856876.400
     -1036.646          51.150
 150067135.552 6                  28556825.540
                     -1304.286                          41.950
 112063119.050 7  28556825.840        -974.098          42.500   114986494.404 7
  28556821.880        -999.390          43.950   113524805.046 6  28556824.460
      -986.660          38.900
 136283835.398 7                  25933950.900
                      2859.908                          46.000
 101770429.988 7  25933960.440        2135.961          45.300   104425298.560 8
  25933958.340        2191.608          48.200   103097865.591 7  25933959.920
      2163.812          42.950
 114721351.653 8                  21830742.060
                      -673.087                          51.800
  85668561.036 8  21830742.300        -502.644          52.250    87903372.715 8
  21830738.720        -515.745          52.950    86785968.691 8  21830740.940
      -509.178          50.950
 18  1 21 21 33  0.0000000  0 27G02G05G12G14G16G20G21G23G25G26G29G31
                                R01R07R08R09R14R15R16R17R18R19R24E01
                                E05E24E26
 130870975.392 7 101977350.46746  24903914.100
  24903906.220       -2865.002       -2232.470          42.300          37.550



 129419088.900 7 100846029.20245  24627631.460
  24627625.680        1660.119        1293.602          45.000          34.750



 130983518.387 7 102065068.59845  24925327.900
  24925321.620       -3354.484       -2613.885          44.850          34.700



 129898090.903 6 101219243.07744  24718787.240
  24718780.240       -3002.074       -2339.279          38.450          28.300



 129231475.555 7 100699875.11645  24591933.300
  24591925.160        3355.706        2614.838          42.900          34.600



 132571706.828 6 103302535.60544  25227556.640
  25227549.240        2997.060        2335.373          38.300          27.100



 119377218.328 7  93021182.02846  22716728.600
  22716721.440        2759.220        2150.041          47.400          39.950



 132824786.168 7 103499797.31245  25275716.520
  25275707.140         975.596         760.206          43.550          32.050



 114758694.876 8  89422364.02147  21837843.780
  21837839.640       -2447.521       -1907.160          50.150          45.050
  85696451.441 8  21837842.360       -1827.713          51.800


 116966964.104 8  91143088.56247  22258072.220
  22258068.980        2657.941        2071.124          48.450          43.000
  87345455.664 8  22258069.160        1984.843          51.450


 106850080.462 8  83259777.82248  20332887.820
  20332880.680       -1227.710        -956.657          51.150          48.300



 109890090.750 8  85628611.21747  20911386.620
  20911378.900        -540.050        -420.818          50.500          47.300



 129370927.619 6 100621835.025 5  24201505.220
  24201507.560        2200.971        1711.866          39.700          31.800



 131920570.586 6 102604896.469 5  24643874.500
  24643872.040       -2859.561       -2224.103          36.750          35.200



 127430828.822 6  99112853.806 6  23796807.380
  23796805.100        -360.156        -280.121          36.750          40.650



 122765467.182 6  95484235.696 7  22990025.740
  22990024.480        4055.990        3154.658          41.150          43.150



 131476746.600 5 102259710.627 4  24664697.000
  24664697.980       -4236.146       -3294.779          33.800          27.950



 111734746.517 7  86904818.002 6  20909628.100
  20909629.480       -3193.495       -2483.829          46.350          38.650



 103544883.636 7  80534915.289 7  19383821.140
  19383820.560        1275.871         992.345          44.550          45.200



 107208860.998 8  83384676.978 8  20034532.480
  20034530.860       -2425.092       -1886.183          48.250          48.250



 103529096.770 8  80522646.748 8  19394486.300
  19394485.780        1525.180        1186.252          48.650          48.600



 123236380.993 6  95850522.553 6  23037742.200
  23037740.000        4138.063        3218.495          41.100          40.200



 129090842.157 5 100403964.548 4  24140630.800
  24140631.500       -4263.006       -3315.668          32.100          28.100



 125410054.720 8                  23864731.680
                     -1380.732                          51.850
  93650385.212 8  23864730.700       -1031.072          52.450    96093425.940 8
  23864727.520       -1057.925          53.100    94871905.392 8  23864729.240
     -1044.482          51.300
 150106439.121 7                  28564304.440
                     -1315.723                          42.350
 112092469.114 6  28564304.880        -982.754          41.350   115016610.140 7
  28564301.580       -1008.197          44.250   113554537.935 6  28564303.760
      -995.388          38.850
 136198037.388 7                  25917624.080
                      2859.884                          45.950
 101706360.047 7  25917633.800        2135.527          45.800   104359557.233 8
  25917631.420        2191.249          48.050   103032959.957 7  25917633.180
      2163.382          43.050
 114741730.704 8                  21834620.080
                      -685.437                          51.750
  85683779.161 8  21834620.260        -511.861          52.300    87918987.832 8
  21834616.640        -525.220          53.000    86801385.313 8  21834618.940
      -518.541          51.050
