     2.11           OBSERVATION DATA    M (MIXED)           RINEX VERSION / TYPE
teqc  2016Nov7      IGN-RGP             20180121 22:04:00UTCPGM / RUN BY / DATE
Linux 2.4.21-27.ELsmp|Opteron|gcc|Linux x86_64|=+           COMMENT
teqc  2016Nov7      Administrateur RGP  20180121 22:04:00UTCCOMMENT
teqc  2016Nov7      IGN-RGP             20180121 22:03:54UTCCOMMENT
teqc  2016Nov7      IGN-RGP             20180121 22:03:52UTCCOMMENT
   0.139      (antenna height)                              COMMENT
 +48.84444175 (latitude)                                    COMMENT
  +2.42501811 (longitude)                                   COMMENT
0126.237      (elevation)                                   COMMENT
BIT 2 OF LLI FLAGS DATA COLLECTED UNDER A/S CONDITION       COMMENT
10001M007 (COGO code)                                       COMMENT
SMNE                                                        MARKER NAME
10001M007                                                   MARKER NUMBER
Automatic           IGN                                     OBSERVER / AGENCY
5049K72135          TRIMBLE NETR9       4.85                REC # / TYPE / VERS
1441023107          TRM55971.00     NONE                    ANT # / TYPE
  4201792.2950   177945.2380  4779286.6850                  APPROX POSITION XYZ
        0.1390        0.0000        0.0000                  ANTENNA: DELTA H/E/N
     1     1                                                WAVELENGTH FACT L1/2
    22    L1    L2    C1    C2    P1    P2    D1    D2    S1# / TYPES OF OBSERV
          S2    L5    C5    D5    S5    L7    C7    D7    S7# / TYPES OF OBSERV
          L8    C8    D8    S8                              # / TYPES OF OBSERV
    30.0000                                                 INTERVAL
    18                                                      LEAP SECONDS
 SNR is mapped to RINEX snr flag value [0-9]                COMMENT
  L1 & L2: min(max(int(snr_dBHz/6), 0), 9)                  COMMENT
Forced Modulo Decimation to 30 seconds                      COMMENT
  2018     1    21    21     0    0.0000000     GPS         TIME OF FIRST OBS
                                                            END OF HEADER
 18  1 21 21  0  0.0000000  0 26G14G26R24G21G12G05G29R08R18G23R17R09
                                G02R16G25R07R19G31G32R14E05E26E09E01
                                S20R15
 124254902.018 6  96822043.31144  23644929.406
  23644932.941                                          41.300          24.700



 122545922.426 7  95490359.274 7  23319712.328    23319718.824
  23319718.996                                          44.600          43.600
  91511594.372 7  23319717.660                          47.200


 120834437.886 6  93982350.815 4  22596644.484    22596646.285    22596643.262
  22596645.352                                          38.900          29.300



 125389132.347 6  97705830.63543  23860758.336
  23860760.895                                          41.700          22.900



 124574702.450 7  97071263.682 6  23705771.469    23705773.930
  23705773.352                                          45.200          38.600



 133582776.489 6 104090486.493 5  25419958.461    25419961.617
  25419961.672                                          40.800          34.600



 105378987.871 8  82113517.772 8  20052947.844    20052950.375
  20052950.523                                          50.200          50.700



 128338379.482 5  99818752.504 6  23966291.352    23966290.203    23966290.020
  23966289.820                                          34.500          38.800



 107936941.742 8  83950979.044 7  20220224.508    20220226.352    20220224.020
  20220226.719                                          48.900          46.800



 135767722.872 6 105793046.80243  25835743.273
  25835743.250                                          40.200          19.900



 103687963.813 8  80646128.035 8  19376550.719    19376551.445    19376548.727
  19376551.477                                          49.700          48.500



 130862100.173 6 101781642.564 5  24506270.133    24506269.566    24506269.336
  24506268.973                                          37.500          33.100



 125838865.011 7  98056272.35844  23946336.250
  23946335.688                                          43.300          27.800



 107305391.987 7  83459761.742 7  20087793.766    20087794.363    20087793.359
  20087795.707                                          44.200          42.300



 110599671.958 8  86181599.633 8  21046406.430    21046412.059
  21046411.715                                          53.500          49.300
  82590718.292 9  21046412.484                          54.100


 127325124.137 6  99030671.432 6  23785406.539    23785407.168    23785404.488
  23785407.074                                          41.600          36.800



 131762707.530 6 102482114.646 6  24631649.672    24631651.230    24631648.723
  24631651.113                                          37.000          37.100



 110026484.201 8  85734938.025 7  20937340.461    20937343.270
  20937343.035                                          49.600          47.900



 131557425.187 6 102512389.811 5  25034565.891    25034572.848
  25034572.297                                          38.800          35.200
  98241035.931 7  25034572.332                          43.100


 123397057.073 7  95975451.750 6  23148971.188    23148972.977    23148969.238
  23148973.801                                          44.300          39.900



 148273069.579 6                  28215428.102
                                                        41.300
 110723399.591 6  28215429.527                          40.900   113611834.065 6
  28215429.012                          41.000   112167625.436 7  28215430.430
                        46.500
 114249727.409 8                  21740994.992
                                                        50.500
  85316347.869 8  21740998.797                          52.500    87541990.435 8
  21740997.906                          52.900    86429161.253 9  21740998.656
                        58.800
 138938646.064 6                  26439146.266
                                                        38.900
 103752890.824 6  26439150.363                          38.800   106459483.960 6
  26439148.953                          38.100   105106192.999 7  26439149.629
                        43.800
 123360857.406 8                  23474787.664
                                                        50.900
  92120173.373 8  23474789.672                          52.900    94523307.564 8
  23474788.828                          52.500    93321744.575 9  23474789.766
                        59.300
 202705261.698 6                  38573536.109
                                                        39.600



 106518358.608 7  82847640.387 6  19933453.227    19933456.672    19933452.902
  19933456.969                                          47.100          41.600



 18  1 21 21  0 30.0000000  0 26G14G26R24G21G12G05G29R08R18G23R17R09
                                G02R16G25R07R19G31G32R14E05E26E09E01
                                S20R15
 124332256.982 6  96882319.87643  23659649.094
  23659652.715       -2583.217       -2012.887          41.000          23.600



 122456045.319 7  95420325.179 7  23302609.234    23302615.652
  23302615.500        2994.036        2333.014          43.800          43.600
  91444478.361 7  23302614.277        2235.803          47.300


 120955636.843 6  94076616.647 5  22619309.352    22619309.637    22619308.246
  22619309.762       -4043.308       -3144.821          39.400          30.700



 125291705.076 6  97629913.29743  23842218.992
  23842220.863        3245.225        2528.747          40.800          22.500



 124669617.492 7  97145223.414 6  23723833.250    23723836.215
  23723835.945       -3165.602       -2466.701          45.200          39.000



 133510382.682 6 104034075.747 5  25406182.117    25406184.934
  25406185.180        2409.162        1877.276          39.800          35.500



 105386397.807 8  82119291.749 8  20054357.578    20054360.414
  20054360.504        -254.894        -198.615          51.000          50.200



 128300923.763 5  99789620.372 6  23959295.578    23959296.836    23959295.887
  23959295.852        1237.296         962.298          34.800          38.600



 107850069.974 8  83883412.126 7  20203950.797    20203952.063    20203949.602
  20203952.527        2886.573        2245.120          48.900          46.900



 135708186.147 6 105746654.55043  25824414.398
  25824414.074        1977.984        1541.257          41.300          19.600



 103720712.437 8  80671599.197 8  19382670.195    19382672.023    19382669.023
  19382672.043       -1102.911        -857.831          49.200          48.600



 130738886.438 6 101685809.594 6  24483196.156    24483196.344    24483195.359
  24483196.148        4107.981        3195.092          39.200          37.600



 125905187.465 7  98107952.18544  23958956.523
  23958956.449       -2216.630       -1727.245          42.000          27.200



 107231429.395 7  83402235.247 7  20073947.719    20073948.793    20073947.547
  20073949.957        2458.145        1911.906          44.100          42.400



 110653125.217 8  86223251.509 8  21056578.555    21056584.016
  21056584.039       -1787.021       -1392.488          52.900          48.800
  82630634.676 8  21056584.574       -1334.469          53.900


 127374992.042 6  99069457.611 6  23794722.047    23794723.234    23794721.754
  23794723.000       -1672.756       -1301.047          41.000          37.200



 131629404.492 5 102378434.608 5  24606728.906    24606731.547    24606728.313
  24606731.137        4442.526        3455.323          35.900          35.800



 110005856.574 8  85718864.546 8  20933415.453    20933418.254
  20933417.914         678.874         528.994          50.700          48.400



 131655797.684 6 102589043.718 6  25053285.586    25053292.559
  25053292.477       -3279.484       -2555.454          38.100          36.100
  98314495.910 7  25053292.336       -2448.966          43.900


 123514722.430 7  96066969.239 6  23171042.297    23171047.070    23171042.813
  23171047.336       -3925.547       -3053.200          44.000          39.900



 148287434.905 6                  28218161.789
                      -485.414                          41.300
 110734126.935 6  28218164.625        -362.482          41.900   113622841.256 6
  28218163.219        -371.940          41.100   112178492.704 7  28218163.969
      -367.211          47.000
 114244550.196 8                  21740009.867
                       165.976                          50.300
  85312481.778 8  21740013.445         123.938          52.600    87538023.482 8
  21740012.695         127.175          53.100    86425244.731 9  21740013.309
       125.563          58.800
 139006461.390 6                  26452051.195
                     -2263.540                          39.600
 103803532.089 6  26452054.719       -1690.302          37.800   106511446.307 6
  26452053.688       -1734.398          37.300   105157494.798 7  26452054.398
     -1712.347          43.000
 123382273.168 8                  23478862.977
                      -718.696                          51.200
  92136165.656 8  23478864.816        -536.688          53.700    94539717.039 8
  23478863.973        -550.687          52.800    93337945.455 9  23478864.977
      -543.690          59.200
 202702482.880 6                  38573010.453
                        92.817                          40.100



 106580744.659 7  82896162.849 6  19945127.586    19945131.695    19945127.262
  19945131.680       -2088.420       -1624.323          47.500          41.500



 18  1 21 21  1  0.0000000  0 26G14G26R24G21G12G05G29R08R18G23R17R09
                                G02R16G25R07R19G31G32R14E05E26E09E01
                                S20R15
 124409904.273 6  96942824.21143  23674425.477
  23674428.262       -2592.887       -2020.434          41.800          23.200



 122366286.277 7  95350383.081 7  23285528.930    23285534.859
  23285535.055        2990.072        2329.929          43.700          43.500
  91377450.519 7  23285533.832        2232.845          47.200


 121077045.036 6  94171045.257 4  22642013.508    22642014.535    22642011.699
  22642013.371       -4050.259       -3150.211          39.200          28.500



 125194425.960 6  97554111.40443  23823706.391
  23823709.762        3240.248        2524.873          41.100          21.500



 124764644.211 7  97219270.183 6  23741915.992    23741918.980
  23741918.695       -3169.323       -2469.596          45.200          39.200



 133438241.165 6 103977861.622 5  25392453.414    25392457.160
  25392456.848        2400.651        1870.641          41.100          35.300



 105394298.513 8  82125448.152 8  20055860.836    20055863.961
  20055864.016        -271.228        -211.349          51.100          50.600



 128264166.783 5  99761031.562 6  23952433.461    23952432.234    23952431.074
  23952431.289        1213.987         944.178          34.900          37.600



 107763770.339 8  83816290.204 7  20187783.484    20187785.633    20187783.113
  20187786.008        2867.430        2230.231          50.000          47.500



 135649059.027 6 105700581.44843  25813161.938
  25813162.570        1964.323        1530.633          40.200          20.400



 103754162.389 8  80697615.824 8  19388921.414    19388922.574    19388919.422
  19388922.680       -1126.249        -875.975          49.000          49.000



 130615622.916 5 101589938.027 6  24460112.602    24460112.227    24460111.688
  24460112.801        4109.612        3196.328          34.800          36.600



 125971876.073 6  98159917.34344  23971646.508
  23971647.684       -2228.797       -1736.724          41.100          28.000



 107157919.068 7  83345060.561 7  20060186.906    20060187.039    20060185.445
  20060187.914        2443.074        1900.162          43.600          42.700



 110706907.008 8  86265159.388 8  21066812.445    21066817.887
  21066817.848       -1798.007       -1401.041          53.400          48.800
  82670796.387 9  21066818.266       -1342.664          54.100


 127425511.430 6  99108750.444 6  23804158.750    23804160.430    23804158.340
  23804160.035       -1694.436       -1317.876          40.700          37.300



 131496157.770 5 102274798.211 5  24581821.008    24581821.191    24581818.887
  24581821.980        4440.608        3453.787          33.700          33.900



 109985772.362 8  85703214.507 8  20929593.953    20929596.254
  20929596.148         660.735         514.860          51.800          48.200



 131754194.895 6 102665716.857 6  25072010.711    25072016.418
  25072016.691       -3280.263       -2556.052          38.900          36.200
  98387974.361 7  25072016.844       -2449.552          43.800


 123632597.479 7  96158649.787 6  23193156.969    23193161.059    23193156.195
  23193160.855       -3932.527       -3058.619          43.800          40.400



 148302209.220 6                  28220973.023
                      -499.056                          41.200
 110745159.722 6  28220974.340        -372.666          40.800   113634161.848 6
  28220975.137        -382.387          41.400   112189669.390 7  28220975.457
      -377.530          46.600
 114239784.775 8                  21739103.047
                       152.256                          51.000
  85308923.188 8  21739106.547         113.693          52.300    87534372.057 8
  21739106.031         116.663          53.200    86421639.730 9  21739106.453
       115.174          58.900
 139074463.714 6                  26464991.578
                     -2269.719                          39.800
 103854313.020 6  26464994.250       -1694.928          37.600   106563551.993 6
  26464993.875       -1739.135          37.100   105208938.113 7  26464994.973
     -1717.034          43.100
 123403990.209 8                  23482995.422
                      -728.730                          51.000
  92152382.917 8  23482997.715        -544.178          53.700    94556357.362 8
  23482996.586        -558.375          53.200    93354374.244 9  23482997.609
      -551.280          59.300
 202699698.963 6                  38572482.547
                        92.730                          40.800



 106643683.456 7  82945115.221 6  19956906.742    19956909.645    19956905.246
  19956909.742       -2106.810       -1638.616          47.200          41.200



 18  1 21 21  1 30.0000000  0 26G14G26R24G21G12G05G29R08R18G23R17R09
                                G02R16G25R07R19G31G32R14E05E26E09E01
                                S20R15
 124487840.404 6  97003553.63843  23689256.242
  23689259.293       -2602.518       -2027.937          41.900          22.800



 122276645.888 7  95280533.422 7  23268470.234    23268476.477
  23268476.738        2986.107        2326.843          44.500          43.200
  91310511.253 7  23268475.281        2229.887          46.500


 121198658.435 6  94265633.444 4  22664755.242    22664756.992    22664754.609
  22664756.527       -4057.068       -3155.489          38.400          28.900



 125097296.992 6  97478426.51244  23805223.625
  23805226.863        3235.210        2520.949          41.700          24.600



 124859781.605 7  97293403.176 6  23760019.266    23760023.047
  23760022.941       -3173.012       -2472.469          46.000          39.700



 133366354.248 6 103921845.865 5  25378774.445    25378777.371
  25378777.789        2392.103        1863.982          38.800          34.900



 105402688.327 8  82131985.669 8  20057457.453    20057460.168
  20057460.355        -287.536        -224.056          50.400          50.500



 128228109.707 5  99732987.148 6  23945701.055    23945698.574    23945697.961
  23945697.727        1190.592         926.033          35.000          37.700



 107678044.614 8  83749614.652 8  20171725.266    20171727.297    20171724.660
  20171727.844        2848.217        2215.289          49.800          48.000



 135590342.976 6 105654828.69142  25801989.328
  25801989.719        1950.567        1519.923          38.700          17.800



 103788310.930 8  80724175.813 8  19395302.938    19395304.445    19395301.180
  19395304.711       -1149.493        -894.045          49.600          48.600



 130492310.925 6 101494028.669 6  24437020.266    24437020.742    24437019.117
  24437020.496        4111.158        3197.553          39.000          37.000



 126038928.439 7  98212165.93844  23984406.531
  23984407.313       -2240.934       -1746.179          42.100          27.300



 107084863.450 7  83288239.537 7  20046510.734    20046510.914    20046509.391
  20046512.125        2427.831        1888.315          43.900          42.900



 110761016.148 8  86307322.348 8  21077109.258    21077115.039
  21077115.141       -1808.898       -1409.532          53.500          48.600
  82711202.548 9  21077115.793       -1350.797          54.100


 127476679.082 6  99148547.535 6  23813717.633    23813719.227    23813717.340
  23813718.602       -1716.011       -1334.666          40.900          36.500



 131362969.357 5 102171207.206 6  24556921.859    24556924.191    24556921.383
  24556924.105        4438.649        3452.260          35.600          38.400



 109966232.183 8  85687988.394 7  20925875.656    20925877.578
  20925877.320         642.566         500.700          51.500          47.800



 131852613.393 6 102742406.648 5  25090739.492    25090744.777
  25090744.305       -3280.936       -2556.583          40.900          34.200
  98461468.674 7  25090744.867       -2450.053          44.100


 123750679.688 7  96250491.507 6  23215309.953    23215312.398    23215307.535
  23215312.313       -3939.394       -3063.984          43.800          39.700



 148317391.409 6                  28223861.633
                      -512.631                          40.000
 110756497.032 6  28223865.000        -382.803          41.600   113645794.935 6
  28223863.875        -392.796          40.800   112201154.590 7  28223864.902
      -387.798          46.600
 114235430.306 8                  21738274.328
                       138.528                          51.200
  85305671.476 8  21738277.926         103.445          52.900    87531035.524 8
  21738277.457         106.141          53.400    86418345.605 9  21738277.785
       104.792          58.800
 139142650.610 6                  26477967.453
                     -2275.843                          38.300
 103905231.788 5  26477970.164       -1699.492          35.400   106615799.064 6
  26477968.992       -1743.826          36.400   105260521.030 6  26477970.656
     -1721.652          41.500
 123426008.350 8                  23487185.383
                      -738.789                          50.800
  92168825.031 8  23487187.828        -551.695          53.900    94573228.399 8
  23487186.516        -566.086          52.900    93371030.818 9  23487187.551
      -558.887          59.300
 202696912.269 6                  38571953.391
                        92.792                          41.300



 106707173.789 7  82994496.584 6  19968787.422    19968791.391    19968787.098
  19968791.738       -2125.205       -1652.941          47.300          41.400



 18  1 21 21  2  0.0000000  0 26G14G26R24G21G12G05G29R08R18G23R17R09
                                G02R16G25R07R19G31G32R14E05E26E09E01
                                S20R15
 124566063.079 7  97064506.36343  23704141.430
  23704143.750       -2611.988       -2035.318          42.200          22.300



 122187125.643 7  95210777.373 7  23251434.977    23251441.227
  23251441.910        2982.080        2323.700          43.700          43.600
  91243661.714 7  23251440.570        2226.875          47.200


 121320473.848 6  94360378.774 4  22687534.555    22687536.668    22687534.273
  22687536.793       -4063.760       -3160.703          38.700          29.300



 125000320.666 7  97402860.57543  23786770.656
  23786772.199        3230.088        2516.947          42.200          23.200



 124955028.651 7  97367621.631 6  23778144.711    23778147.969
  23778148.676       -3176.663       -2475.320          45.300          39.900



 133294725.380 6 103866031.153 5  25365144.180    25365146.598
  25365147.168        2383.441        1857.235          41.700          34.800



 105411566.595 8  82138903.804 8  20059147.344    20059150.078
  20059150.063        -303.800        -236.724          50.500          50.600



 128192755.014 5  99705489.046 6  23939098.516    23939096.355    23939096.598
  23939095.652        1167.110         907.781          35.000          36.600



 107592895.589 8  83683387.660 8  20155773.805    20155775.723    20155772.258
  20155776.258        2828.994        2200.327          48.900          48.200



 135532039.870 6 105609397.63543  25790894.039
  25790894.680        1936.777        1509.187          37.000          19.000



 103823156.086 8  80751277.598 8  19401814.625    19401816.129    19401813.570
  19401816.238       -1172.685        -912.092          49.100          48.800



 130368953.021 6 101398083.580 5  24413917.352    24413918.883    24413916.438
  24413918.359        4112.633        3198.731          36.900          34.900



 126106342.780 6  98264696.58644  23997234.945
  23997235.320       -2252.943       -1755.537          41.000          26.600



 107012266.009 7  83231774.862 7  20032920.133    20032921.605    20032919.844
  20032922.219        2412.516        1876.402          44.300          42.700



 110815452.459 8  86349740.242 8  21087468.008    21087473.625
  21087473.422       -1819.796       -1418.026          52.700          49.100
  82751853.037 8  21087474.074       -1358.941          53.900


 127528492.813 6  99188847.130 6  23823395.164    23823398.844    23823394.520
  23823397.914       -1737.490       -1351.389          40.300          38.100



 131229841.809 6 102067663.585 5  24532035.734    24532036.480    24532034.316
  24532036.969        4436.599        3450.707          36.300          35.500



 109947237.547 8  85673187.365 8  20922260.805    20922262.727
  20922262.609         624.358         486.512          51.500          48.300



 131951050.529 6 102819110.913 6  25109470.375    25109476.953
  25109476.176       -3281.427       -2556.950          37.200          36.200
  98534976.929 7  25109476.563       -2450.419          43.300


 123868967.498 7  96342493.112 6  23237500.086    23237503.672    23237498.723
  23237503.191       -3946.195       -3069.274          43.700          39.600



 148332981.180 6                  28226828.578
                      -526.206                          39.600
 110768138.769 6  28226830.758        -392.945          40.700   113657740.354 6
  28226830.383        -403.200          40.000   112212948.167 7  28226831.211
      -398.071          46.000
 114231486.776 8                  21737523.805
                       124.855                          50.500
  85302726.642 8  21737527.438          93.235          52.700    87528013.862 8
  21737526.922          95.669          53.200    86415362.360 9  21737527.289
        94.449          58.900
 139211020.492 6                  26490977.836
                     -2281.906                          38.800
 103956287.217 6  26490980.434       -1704.017          36.200   106668186.389 6
  26490980.293       -1748.475          36.800   105312242.410 7  26490980.922
     -1726.250          42.400
 123448328.187 8                  23491432.977
                      -748.829                          51.000
  92185492.438 8  23491435.129        -559.194          53.700    94590330.611 8
  23491433.863        -573.778          53.200    93387915.630 9  23491434.828
      -566.484          59.400
 202694124.469 6                  38571421.344
                        93.033                          41.400



 106771215.043 7  83044306.428 6  19980771.797    19980775.574    19980771.238
  19980775.359       -2143.568       -1667.218          47.500          40.900



 18  1 21 21  2 30.0000000  0 26G14G26R24G21G12G05G29R08R18G23R17R09
                                G02R16G25R07R19G31G32R14E05E26E09E01
                                S20R15
 124644568.593 7  97125679.49343  23719080.883
  23719083.672       -2621.365       -2042.630          42.000          23.400



 122097726.280 7  95141115.526 7  23234423.359    23234429.367
  23234429.777        2978.024        2320.539          43.400          42.400
  91176902.440 7  23234428.730        2223.844          47.600


 121442487.452 6  94455278.245 4  22710352.109    22710355.035    22710351.355
  22710353.168       -4070.270       -3165.780          38.500          29.300



 124903499.131 6  97327415.23044  23768344.852
  23768347.891        3224.852        2512.862          39.800          24.100



 125050385.285 7  97441925.495 6  23796290.500    23796293.910
  23796294.348       -3180.302       -2478.154          44.500          40.400



 133223356.905 7 103810419.412 5  25351563.656    25351566.211
  25351566.266        2374.719        1850.436          42.600          35.000



 105420931.846 8  82146201.399 8  20060929.227    20060932.363
  20060932.336        -320.036        -249.382          50.500          51.000



 128158103.765 5  99678538.024 6  23932625.953    23932625.328    23932625.559
  23932624.750        1143.632         889.566          34.800          36.500



 107508324.765 8  83617610.375 8  20139929.984    20139932.230    20139929.262
  20139932.813        2809.691        2185.322          49.100          48.300



 135474151.321 6 105564289.72942  25779879.313
  25779878.570        1922.873        1498.335          39.200          17.800



 103858695.148 8  80778919.088 8  19408455.641    19408456.805    19408454.234
  19408457.363       -1195.819        -930.079          49.400          49.200



 130245550.544 5 101302103.879 5  24390808.234    24390809.539    24390808.258
  24390809.203        4114.084        3199.849          35.700          35.800



 126174116.912 6  98317507.60644  24010132.344
  24010132.441       -2264.901       -1764.853          41.300          26.700



 106940129.572 7  83175668.744 7  20019415.992    20019416.949    20019415.117
  20019418.074        2397.078        1864.393          44.400          43.700



 110870214.975 8  86392412.321 8  21097889.383    21097894.602
  21097894.387       -1830.675       -1426.504          51.900          48.600
  82792747.110 8  21097895.098       -1367.064          53.900


 127580949.150 6  99229646.487 6  23833195.789    23833198.047    23833194.559
  23833197.668       -1758.855       -1368.010          41.200          38.800



 131096777.544 5 101964169.233 5  24507162.352    24507162.438    24507159.527
  24507161.938        4434.417        3448.927          34.000          34.900



 109928788.915 8  85658811.801 7  20918750.203    20918752.422
  20918751.746         606.149         472.327          50.500          47.600



 132049503.009 6 102895827.127 6  25128205.891    25128211.805
  25128211.230       -3281.925       -2557.350          38.600          36.200
  98608496.636 7  25128211.031       -2450.791          43.900


 123987458.686 7  96434652.899 6  23259727.938    23259731.461    23259727.047
  23259731.391       -3952.973       -3074.527          43.800          40.100



 148348977.714 6                  28229872.156
                      -539.800                          39.300
 110780084.230 6  28229874.859        -403.101          40.900   113669997.422 6
  28229873.219        -413.614          40.000   112225049.434 7  28229875.152
      -408.360          46.100
 114227953.516 8                  21736851.656
                       111.161                          50.100
  85300088.175 8  21736855.234          83.012          52.200    87525306.569 8
  21736854.766          85.172          53.100    86412689.473 9  21736855.082
        84.092          58.900
 139279571.004 6                  26504022.375
                     -2287.902                          40.000
 104007477.503 6  26504024.441       -1708.503          36.000   106720712.099 6
  26504025.332       -1753.067          37.500   105364100.404 7  26504026.027
     -1730.788          42.100
 123470949.715 8                  23495737.633
                      -758.930                          50.800
  92202385.119 8  23495739.781        -566.729          53.700    94607663.975 8
  23495738.609        -581.519          53.000    93405028.653 9  23495739.609
      -574.124          59.400
 202691336.006 6                  38570894.406
                        92.554                          39.500



 106835805.564 7  83094543.491 6  19992858.852    19992862.602    19992858.176
  19992862.324       -2161.889       -1681.462          47.500          40.900



 18  1 21 21  3  0.0000000  0 26G14G26R24G21G12G05G29R08R18G23R17R09
                                G02R16G25R07R19G31G32R14E05E26E09E01
                                S20R15
 124723354.335 6  97187070.97143  23734073.023
  23734075.297       -2630.723       -2049.922          41.700          23.600



 122008449.149 7  95071548.913 7  23217434.766    23217440.578
  23217441.012        2973.878        2317.312          42.900          43.600
  91110234.454 7  23217440.027        2220.751          47.400


 121564695.897 6  94550329.227 4  22733206.352    22733207.613    22733204.895
  22733207.270       -4076.743       -3170.803          38.800          27.400



 124806835.025 6  97252092.55944  23749950.352
  23749952.727        3219.550        2508.748          41.200          25.900



 125145850.416 7  97516313.892 6  23814456.758    23814460.387
  23814459.855       -3183.946       -2480.990          45.300          40.000



 133152250.916 6 103755012.158 5  25338031.523    25338035.473
  25338034.906        2365.836        1843.515          41.500          35.400



 105430783.508 8  82153878.009 8  20062804.258    20062807.250
  20062807.141        -336.251        -262.018          51.100          51.100



 128124157.899 5  99652135.722 6  23926284.758    23926285.910    23926285.656
  23926285.016        1120.056         871.147          34.300          37.500



 107424334.643 8  83552284.738 7  20124196.180    20124198.531    20124195.809
  20124198.926        2790.254        2170.210          48.700          47.700



 135416679.348 6 105519506.38243  25768942.172
  25768942.078        1908.993        1487.517          39.900          19.600



 103894925.934 8  80807098.588 8  19415226.008    19415228.098    19415225.305
  19415228.000       -1218.809        -947.961          49.400          48.800



 130122105.990 6 101206091.482 6  24367691.594    24367692.391    24367690.797
  24367692.375        4115.469        3200.883          37.200          36.500



 126242248.955 6  98370597.50844  24023096.922
  24023097.406       -2276.828       -1774.160          41.300          25.400



 106868457.295 7  83119923.652 7  20005998.742    20006000.113    20005998.336
  20006001.355        2381.561        1852.329          44.100          43.200



 110925303.249 8  86435338.240 8  21108372.234    21108378.082
  21108378.215       -1841.534       -1434.961          52.300          48.600
  82833884.446 8  21108378.750       -1375.174          53.900


 127634045.456 6  99270943.599 6  23843113.891    23843117.234    23843113.246
  23843116.098       -1780.228       -1384.594          40.000          38.400



 130963779.366 6 101860726.158 5  24482299.055    24482298.426    24482296.816
  24482298.602        4432.150        3447.244          36.700          35.600



 109910887.211 8  85644862.420 7  20915343.352    20915345.590
  20915345.211         587.861         458.072          51.100          47.500



 132147968.220 6 102972553.254 6  25146942.406    25146948.500
  25146948.535       -3282.404       -2557.713          38.800          37.300
  98682025.823 7  25146948.570       -2451.139          43.200


 124106151.373 7  96526969.415 6  23281994.742    23281998.535    23281993.496
  23281998.148       -3959.697       -3079.773          43.600          39.600



 148365380.488 6                  28232993.102
                      -553.336                          38.700
 110792333.034 6  28232995.941        -413.208          41.000   113682565.764 6
  28232996.270        -423.985          41.200   112237458.005 7  28232996.422
      -418.596          46.500
 114224830.331 8                  21736257.289
                        97.479                          50.300
  85297755.939 8  21736260.711          72.792          52.200    87522913.484 8
  21736260.383          74.690          52.700    86410326.811 9  21736260.629
        73.745          58.800
 139348300.407 6                  26517101.234
                     -2293.854                          39.300
 104058801.389 6  26517103.426       -1712.936          37.500   106773374.882 6
  26517104.082       -1757.618          38.400   105416093.735 7  26517104.742
     -1735.273          43.700
 123493873.354 8                  23500099.875
                      -769.029                          51.200
  92219503.421 8  23500102.137        -574.277          53.300    94625228.840 8
  23500101.012        -589.255          53.100    93422370.237 9  23500101.840
      -581.771          59.400
 202688548.494 6                  38570362.969
                        92.959                          40.600



 106900944.539 7  83145207.119 6  20005049.023    20005053.699    20005049.520
  20005053.371       -2180.164       -1695.686          47.800          40.800



 18  1 21 21  3 30.0000000  0 26G14G26R24G21G12G05G29R08R18G23R17R09
                                G02R16G25R07R19G31G32R14E05E26E09E01
                                S20R15
 124802417.552 6  97248678.63843  23749118.398
  23749121.000       -2639.879       -2057.037          41.100          22.300



 121919295.343 7  95002078.432 7  23200469.094    23200475.297
  23200475.453        2969.818        2314.142          43.300          44.400
  91043658.585 7  23200474.348        2217.726          47.200


 121687095.491 6  94645528.929 4  22756094.281    22756097.395    22756093.883
  22756096.934       -4083.030       -3175.693          37.500          28.000



 124710330.728 6  97176894.43444  23731585.719
  23731588.477        3214.220        2504.576          40.900          24.000



 125241423.491 7  97590786.392 6  23832643.734    23832647.617
  23832647.293       -3187.492       -2483.757          45.500          40.000



 133081412.488 6 103699813.368 5  25324552.188    25324555.828
  25324555.574        2356.966        1836.607          40.500          35.000



 105441120.547 8  82161932.845 8  20064771.164    20064774.406
  20064774.363        -352.369        -274.573          51.300          51.300



 128090919.524 5  99626283.613 6  23920081.969    23920078.355    23920078.406
  23920078.293        1096.543         852.870          32.800          37.400



 107340927.445 8  83487412.484 8  20108570.797    20108573.578    20108570.660
  20108574.008        2770.835        2155.094          48.500          48.300



 135359625.839 6 105475049.09143  25758084.781
  25758084.789        1895.023        1476.634          41.300          19.300



 103931845.926 8  80835814.137 8  19422125.836    19422127.121    19422124.547
  19422127.383       -1241.760        -965.814          49.600          48.200



 129998621.156 6 101110047.681 6  24344566.578    24344567.609    24344566.016
  24344568.266        4116.792        3201.960          37.800          36.900



 126310736.959 6  98423964.77544  24036129.844
  24036129.906       -2288.647       -1783.363          41.400          26.600



 106797252.352 7  83064542.024 7  19992668.883    19992670.258    19992667.891
  19992670.848        2365.949        1840.191          44.300          43.600



 110980716.702 8  86478517.549 8  21118917.117    21118922.426
  21118922.320       -1852.319       -1443.360          53.100          49.100
  82875264.611 8  21118923.090       -1383.223          53.900


 127687779.190 6  99312736.572 6  23853152.453    23853155.316    23853150.285
  23853154.715       -1801.326       -1401.048          38.800          37.300



 130830849.203 6 101757336.095 5  24457448.898    24457449.324    24457445.957
  24457448.684        4429.902        3445.456          36.300          35.300



 109893533.781 8  85631340.255 7  20912041.070    20912042.996
  20912042.738         569.625         443.865          50.900          47.000



 132246443.010 6 103049286.854 6  25165683.914    25165688.242
  25165688.031       -3282.614       -2557.882          40.700          37.000
  98755562.197 7  25165688.418       -2451.308          44.300


 124225043.517 7  96619441.065 6  23304297.633    23304302.133    23304297.211
  23304301.777       -3966.264       -3084.868          42.300          39.900



 148382188.817 6                  28236192.039
                      -566.778                          38.700
 110804884.716 6  28236195.055        -423.243          41.100   113695444.882 6
  28236194.352        -434.282          40.700   112250173.406 7  28236195.078
      -428.764          46.200
 114222116.855 8                  21735741.008
                        83.848                          51.000
  85295729.644 8  21735744.555          62.614          52.400    87520834.330 8
  21735743.852          64.251          53.400    86408274.092 9  21735744.426
        63.432          58.800
 139417206.690 6                  26530213.820
                     -2299.696                          39.300
 104110257.339 6  26530216.066       -1717.306          36.200   106826173.127 6
  26530216.723       -1762.102          38.100   105468220.835 7  26530216.977
     -1739.704          43.100
 123517099.380 8                  23504519.336
                      -779.061                          51.000
  92236847.518 8  23504521.758        -581.765          53.500    94643025.396 8
  23504520.773        -596.941          53.400    93439940.559 9  23504521.594
      -589.351          59.400
 202685759.740 6                  38569825.984
                        92.906                          39.400



 106966631.283 7  83196296.797 6  20017341.727    20017344.902    20017340.230
  20017344.355       -2198.368       -1709.843          47.600          40.600



 18  1 21 21  4  0.0000000  0 26G14G26R24G21G12G05G29R08R18G23R17R09
                                G02R16G25R07R19G31G32R14E05E26E09E01
                                S20R15
 124881755.016 6  97310500.00743  23764215.844
  23764219.578       -2648.970       -2064.143          40.800          22.500



 121830266.091 7  94932705.005 7  23183527.609    23183533.859
  23183534.043        2965.636        2310.881          43.400          44.900
  90977175.715 7  23183532.234        2214.591          46.700


 121809682.821 6  94740874.590 4  22779019.875    22779021.160    22779018.770
  22779021.168       -4089.227       -3180.498          38.100          28.300



 124613989.114 6  97101823.07944  23713253.586
  23713255.805        3208.727        2500.301          41.100          25.800



 125337103.597 7  97665342.282 6  23850851.352    23850854.434
  23850854.363       -3191.038       -2486.520          46.200          39.700



 133010843.460 6 103644824.612 5  25311122.172    25311126.426
  25311126.254        2347.935        1829.563          40.100          34.400



 105451942.050 8  82170365.186 8  20066830.430    20066833.680
  20066833.676        -368.499        -287.143          52.800          50.300



 128058390.087 5  99600982.956 6  23914006.898    23914005.125    23914006.035
  23914004.738        1072.872         834.444          34.600          37.800



 107258105.467 8  83422995.430 7  20093056.063    20093058.629    20093055.574
  20093058.668        2751.285        2139.876          49.300          47.400



 135302992.708 6 105430919.34643  25747308.281
  25747307.453        1880.978        1465.692          41.700          19.600



 103969452.918 8  80865064.019 8  19429153.836    19429155.438    19429153.016
  19429155.594       -1264.611        -983.584          50.000          48.100



 129875098.285 6 101013974.309 6  24321435.063    24321436.398    24321434.500
  24321436.305        4118.033        3202.942          37.500          37.500



 126379578.854 7  98477607.81144  24049230.070
  24049230.461       -2300.405       -1792.527          42.400          27.200



 106726517.596 7  83009526.100 7  19979427.492    19979428.563    19979426.734
  19979429.457        2350.198        1827.926          44.600          43.800



 111036454.755 8  86521949.790 8  21129523.602    21129529.074
  21129528.762       -1863.166       -1451.818          53.200          48.100
  82916887.177 8  21129529.766       -1391.326          53.900


 127742147.159 6  99355022.760 6  23863306.539    23863311.793    23863308.008
  23863310.848       -1822.435       -1417.461          38.000          37.200



 130697989.625 5 101654000.855 5  24432610.461    24432612.430    24432609.746
  24432612.668        4427.501        3443.630          35.900          35.800



 109876729.286 8  85618245.845 7  20908843.313    20908845.086
  20908844.996         551.307         429.589          51.500          47.100



 132344924.594 6 103126025.752 6  25184423.227    25184429.316
  25184428.215       -3282.786       -2558.014          39.600          38.300
  98829103.616 7  25184428.777       -2451.433          43.900


 124344133.069 7  96712066.251 6  23326638.969    23326642.273    23326637.488
  23326641.762       -3972.829       -3089.964          43.000          38.900



 148399402.207 6                  28239467.703
                      -580.301                          37.900
 110817738.857 6  28239470.848        -433.344          40.700   113708634.361 6
  28239470.660        -444.646          40.700   112263195.210 7  28239470.762
      -438.994          46.200
 114219812.749 8                  21735302.438
                        70.201                          50.600
  85294009.050 8  21735306.023          52.426          52.900    87519068.859 8
  21735305.367          53.785          53.200    86406531.059 9  21735305.934
        53.108          58.800
 139486288.020 6                  26543359.820
                     -2305.484                          38.100
 104161844.010 5  26543360.793       -1721.640          34.100   106879105.525 6
  26543362.109       -1766.543          36.500   105520480.370 6  26543362.496
     -1744.091          40.700
 123540628.116 8                  23508996.820
                      -789.187                          51.500
  92254417.671 8  23508999.203        -589.327          53.200    94661053.901 8
  23508998.172        -604.707          53.500    93457739.890 9  23508999.059
      -597.015          59.300
 202682968.695 6                  38569303.719
                        93.021                          39.400



 107032864.536 7  83247811.535 6  20029736.320    20029739.207    20029735.176
  20029739.152       -2216.555       -1723.980          47.500          40.600



 18  1 21 21  4 30.0000000  0 26G14G26R24G21G12G05G29R08R18G23R17R09
                                G02R16G25R07R19G31G32R14E05E26E09E01
                                S20R15
 124961364.153 6  97372533.06743  23779364.867
  23779368.188       -2657.978       -2071.145          40.200          22.500



 121741362.861 7  94863429.776 7  23166609.867    23166615.621
  23166616.246        2961.404        2307.585          43.200          44.900
  90910786.935 7  23166614.086        2211.437          46.400


 121932455.095 6  94836364.135 4  22801979.125    22801981.262    22801978.492
  22801980.684       -4095.369       -3185.236          38.600          28.500



 124517812.686 6  97026880.39844  23694951.086
  23694953.703        3203.197        2495.999          40.800          25.100



 125432889.268 7  97739980.441 6  23869078.438    23869081.648
  23869081.883       -3194.569       -2489.272          45.800          40.200



 132940546.885 6 103590048.092 6  25297745.109    25297749.754
  25297750.016        2338.782        1822.421          40.500          36.300



 105463247.226 8  82179174.422 8  20068981.523    20068984.824
  20068984.777        -384.606        -299.697          50.000          50.800



 128026571.407 5  99576235.080 6  23908065.117    23908063.090    23908063.668
  23908062.684        1049.128         815.991          34.600          39.100



 107175871.175 8  83359035.418 7  20077650.852    20077652.387    20077649.305
  20077652.594        2731.646        2124.640          49.300          47.500



 135246781.945 6 105387118.73443  25736611.664
  25736611.004        1866.853        1454.689          40.800          19.000



 104007744.620 8  80894846.453 8  19436309.094    19436311.051    19436308.508
  19436311.172       -1287.417       -1001.325          50.000          48.300



 129751539.845 6 100917873.341 5  24298297.172    24298297.668    24298296.141
  24298297.480        4119.196        3203.806          38.400          35.800



 126448773.085 7  98531525.39544  24062397.258
  24062396.855       -2312.125       -1801.655          42.700          26.500



 106656256.402 7  82954878.508 7  19966274.359    19966274.738    19966273.367
  19966276.164        2334.367        1815.617          44.300          43.600



 111092517.087 8  86565634.716 8  21140191.797    21140197.523
  21140197.410       -1873.939       -1460.207          53.200          48.000
  82958751.896 9  21140198.590       -1399.368          54.000


 127797146.853 6  99397800.288 6  23873582.570    23873585.273    23873581.809
  23873584.590       -1843.441       -1433.815          38.800          37.400



 130565203.782 5 101550722.911 6  24407790.727    24407789.086    24407786.492
  24407788.988        4424.925        3441.669          35.500          36.100



 109860474.944 8  85605580.111 7  20905750.305    20905752.395
  20905752.301         532.919         415.261          49.600          47.600



 132443410.384 6 103202767.883 6  25203163.781    25203170.414
  25203170.094       -3282.899       -2558.104          38.500          37.800
  98902648.174 7  25203169.602       -2451.517          43.400


 124463418.388 7  96804843.687 6  23349016.820    23349020.043    23349015.691
  23349019.809       -3979.318       -3095.011          42.800          38.900



 148417020.291 6                  28242820.844
                      -593.810                          39.700
 110830895.222 6  28242823.918        -443.435          41.300   113722133.904 6
  28242823.168        -455.001          41.000   112276523.169 7  28242823.145
      -449.218          46.400
 114217917.943 8                  21734941.789
                        56.559                          50.100
  85292594.106 8  21734945.203          42.238          52.200    87517617.001 8
  21734944.781          43.337          53.100    86405097.657 9  21734945.254
        42.781          58.800
 139555542.771 6                  26556538.828
                     -2311.261                          40.400
 104213560.248 6  26556541.012       -1725.943          36.500   106932170.845 6
  26556540.730       -1770.970          36.000   105572871.153 6  26556540.926
     -1748.460          41.700
 123564460.112 8                  23513531.906
                      -799.303                          50.800
  92272214.283 8  23513534.113        -596.882          53.100    94679314.768 8
  23513533.266        -612.450          53.100    93475768.633 9  23513534.047
      -604.670          59.400
 202680177.920 6                  38568774.219
                        92.903                          39.800



 107099644.500 7  83299751.490 6  20042232.703    20042236.730    20042232.496
  20042236.277       -2234.786       -1738.157          47.300          40.800



 18  1 21 21  5  0.0000000  0 26G14G26R24G21G12G05G29R08R18G23R17R09
                                G02R16G25R07R19G31G32R14E05E26E09E01
                                S20R15
 125041241.324 6  97434774.99743  23794565.102
  23794568.438       -2666.857       -2078.074          40.200          23.000



 121652586.176 7  94794253.133 7  23149716.094    23149722.117
  23149722.785        2957.166        2304.291          43.800          44.600
  90844492.640 7  23149719.922        2208.274          45.400


 122055407.670 6  94931993.977 4  22824970.469    22824973.195    22824970.188
  22824972.852       -4101.265       -3189.895          37.900          27.000



 124421803.434 6  96952068.01244  23676681.188
  23676684.035        3197.585        2491.626          40.800          25.600



 125528780.745 7  97814701.068 6  23887326.023    23887329.266
  23887328.945       -3198.088       -2492.020          45.800          39.600



 132870525.586 6 103535486.072 5  25284420.758    25284423.660
  25284424.336        2329.563        1815.250          41.200          33.300



 105475034.370 8  82188359.208 8  20071224.641    20071227.590
  20071227.359        -400.658        -312.203          51.300          51.000



 127995464.667 5  99552040.935 6  23902254.805    23902253.703    23902253.590
  23902253.145        1025.392         797.526          34.700          39.000



 107094225.719 8  83295533.434 7  20062355.734    20062357.434    20062355.012
  20062357.723        2711.977        2109.314          49.400          47.300



 135190994.723 6 105343648.15842  25725996.016
  25725995.270        1852.703        1443.654          38.400          17.800



 104046717.951 8  80925159.051 8  19443591.789    19443594.043    19443591.086
  19443594.008       -1310.086       -1018.956          49.800          48.900



 129627947.166 6 100821745.656 5  24275152.070    24275153.117    24275151.156
  24275152.449        4120.263        3204.641          38.100          35.800



 126518317.028 7  98585715.48044  24075631.000
  24075631.074       -2323.752       -1810.719          43.000          26.800



 106586471.545 7  82900601.393 7  19953210.453    19953210.660    19953209.813
  19953212.324        2318.460        1803.248          44.900          43.500



 111148902.480 8  86609571.370 8  21150921.594    21150927.270
  21150926.816       -1884.714       -1468.606          53.100          48.100
  83000857.857 8  21150928.055       -1407.416          53.800


 127852774.862 6  99441066.507 6  23883974.742    23883976.801    23883974.098
  23883976.969       -1864.380       -1450.045          39.600          38.300



 130432493.242 5 101447503.638 5  24382979.977    24382980.301    24382977.035
  24382980.406        4422.403        3439.660          34.400          35.900



 109844771.167 8  85593343.391 7  20902762.102    20902764.152
  20902763.910         514.581         400.975          49.800          47.200



 132541896.847 6 103279510.554 6  25221905.172    25221911.246
  25221911.305       -3282.875       -2558.090          39.700          37.600
  98976193.230 7  25221910.754       -2451.502          43.200


 124582896.803 7  96897771.317 6  23371430.219    23371433.953    23371428.621
  23371433.738       -3985.712       -3099.979          42.100          38.200



 148435041.751 6                  28246250.359
                      -607.220                          40.000
 110844352.829 6  28246253.363        -453.443          41.300   113735942.572 6
  28246251.910        -465.273          40.300   112290156.304 7  28246252.488
      -459.359          46.500
 114216431.381 8                  21734659.047
                        42.980                          50.600
  85291484.014 8  21734662.523          32.095          52.500    87516477.949 8
  21734661.961          32.929          53.400    86403973.082 9  21734662.504
        32.520          58.700
 139624968.062 6                  26569750.180
                     -2316.900                          40.300
 104265403.816 6  26569753.555       -1730.145          40.300   106985366.903 6
  26569752.008       -1775.281          37.800   105625390.958 7  26569752.660
     -1752.706          44.600
 123588595.029 8                  23518124.641
                      -809.387                          51.800
  92290237.101 8  23518127.004        -604.412          53.300    94697807.753 8
  23518125.922        -620.181          53.100    93494026.531 9  23518126.848
      -612.297          59.300
 202677387.613 6                  38568242.766
                        93.008                          39.800



 107166968.450 7  83352114.541 6  20054831.844    20054835.828    20054831.637
  20054835.555       -2252.913       -1752.255          47.900          40.800



 18  1 21 21  5 30.0000000  0 26G14G26R24G21G12G05G29R08R18G23R17R09
                                G02R16G25R07R19G31G32R14E05E26E09E01
                                S20R15
 125121383.884 6  97497223.72743  23809815.414
  23809819.258       -2675.670       -2084.941          40.800          23.400



 121563937.275 7  94725176.097 7  23132847.031    23132852.680
  23132853.078        2952.903        2300.961          43.900          45.100
  90778293.789 7  23132851.035        2205.082          46.500


 122178537.461 6  95027761.568 4  22847997.180    22847999.020    22847996.547
  22847998.906       -4107.133       -3194.460          38.100          28.800



 124325963.143 7  96877387.29544  23658443.617
  23658446.242        3191.935        2487.229          42.800          25.400



 125624777.107 7  97889503.407 6  23905593.984    23905597.266
  23905597.313       -3201.573       -2494.738          45.600          39.200



 132800782.071 6 103481140.550 5  25271148.992    25271152.133
  25271152.629        2320.283        1808.015          40.900          35.700



 105487302.273 8  82197918.612 8  20073559.000    20073562.313
  20073562.148        -416.688        -324.694          51.100          50.700



 127965071.597 5  99528401.902 6  23896578.617    23896577.000    23896577.402
  23896576.684        1001.655         779.025          35.000          38.500



 107013171.698 8  83232491.446 7  20047170.398    20047172.586    20047170.262
  20047173.016        2692.271        2093.982          49.200          47.900



 135135632.973 6 105300509.13343  25715459.648
  25715460.352        1838.472        1432.596          38.000          18.600



 104086370.649 8  80956000.048 7  19451002.195    19451003.773    19451000.906
  19451003.902       -1332.684       -1036.535          49.100          47.900



 129504322.649 6 100725593.210 6  24252000.234    24252001.793    24252000.258
  24252001.813        4121.247        3205.478          37.800          37.200



 126588208.750 7  98640176.54644  24088931.453
  24088931.066       -2335.298       -1819.703          42.100          27.800



 106517166.024 7  82846697.103 7  19940236.156    19940237.332    19940235.281
  19940238.273        2302.442        1790.777          44.400          43.300



 111205610.467 8  86653759.398 7  21161712.836    21161718.223
  21161717.805       -1895.471       -1476.986          52.600          47.800
  83043204.720 8  21161719.102       -1415.451          53.800


 127909028.348 6  99484819.256 6  23894482.211    23894485.879    23894482.977
  23894485.902       -1885.157       -1466.251          39.800          37.900



 130299861.005 5 101344345.230 5  24358186.859    24358187.070    24358183.215
  24358185.938        4419.817        3437.631          35.000          35.700



 109829619.068 8  85581536.560 8  20899878.750    20899881.133
  20899881.051         496.179         386.628          52.000          48.300



 132640381.223 6 103356251.605 6  25240645.469    25240652.379
  25240651.625       -3282.724       -2557.975          38.500          37.400
  99049736.732 7  25240652.188       -2451.388          42.800


 124702566.388 7  96990847.623 6  23393880.242    23393882.801    23393878.527
  23393882.984       -3992.062       -3104.901          42.600          38.200



 148453465.966 6                  28249755.875
                      -620.608                          38.100
 110858111.166 6  28249758.742        -463.441          40.800   113750059.813 6
  28249757.758        -475.534          40.600   112304094.096 7  28249758.363
      -469.492          46.100
 114215352.812 8                  21734453.703
                        29.393                          50.700
  85290678.595 8  21734457.133          21.945          53.000    87515651.520 8
  21734456.758          22.516          52.900    86403157.159 9  21734457.215
        22.234          58.700
 139694562.241 6                  26582993.492
                     -2322.525                          37.900
 104317373.465 6  26582996.891       -1734.345          39.400   107038692.320 6
  26582995.293       -1779.601          38.400   105678038.499 7  26582996.168
     -1756.979          44.700
 123613033.260 8                  23522775.180
                      -819.505                          51.000
  92308486.420 8  23522777.301        -611.967          53.500    94716533.134 8
  23522776.363        -627.931          53.000    93512513.881 9  23522777.246
      -619.951          59.300
 202674596.382 6                  38567707.828
                        93.144                          40.600



 107234835.933 7  83404900.359 6  20067532.594    20067536.262    20067532.152
  20067536.219       -2270.971       -1766.319          47.200          40.900



 18  1 21 21  6  0.0000000  0 26G14G26R24G21G12G05G29R08R18G23R17R09
                                G02R16G25R07R19G31G32R14E05E26E09E01
                                S20R15
 125201788.821 6  97559876.90943  23825116.531
  23825120.383       -2684.343       -2091.701          40.900          22.800



 121475417.445 7  94656199.589 7  23116001.156    23116007.738
  23116008.324        2948.573        2297.587          43.000          44.700
  90712191.313 7  23116006.633        2201.857          47.400


 122301841.324 6  95123664.518 4  22871055.063    22871057.969    22871055.133
  22871057.391       -4112.929       -3198.934          38.800          27.200



 124230294.961 6  96802840.66944  23640238.359
  23640241.605        3186.127        2482.697          41.000          26.000



 125720877.341 7  97964386.677 6  23923881.094    23923883.645
  23923883.609       -3204.992       -2497.410          45.500          39.300



 132731319.541 6 103427013.933 5  25257930.359    25257933.965
  25257934.188        2310.886        1800.688          41.100          33.600



 105500050.387 8  82207852.215 8  20075984.938    20075988.070
  20075987.898        -432.662        -337.140          50.600          50.800



 127935393.474 5  99505318.923 6  23891037.570    23891036.086    23891035.652
  23891035.582         977.702         760.438          34.400          39.100



 106932711.206 8  83169911.075 7  20032098.695    20032101.188    20032097.738
  20032101.105        2672.461        2078.581          49.300          47.800



 135080698.609 6 105257703.15343  25705006.266
  25705006.395        1824.278        1421.525          38.100          19.300



 104126700.276 8  80987367.539 8  19458538.938    19458540.824    19458538.000
  19458540.844       -1355.182       -1054.029          49.600          48.200



 129380668.384 6 100629417.740 6  24228844.094    24228845.336    24228843.414
  24228845.965        4122.287        3206.203          38.000          37.600



 126658446.464 7  98694907.25744  24102297.352
  24102297.285       -2346.798       -1828.670          43.100          27.000



 106448342.853 7  82793167.969 7  19927353.375    19927352.926    19927351.914
  19927354.309        2286.319        1778.239          44.300          43.300



 111262640.428 8  86698198.321 7  21172565.125    21172570.520
  21172570.266       -1906.169       -1485.324          52.600          47.500
  83085792.021 8  21172571.563       -1423.439          53.600


 127965904.300 6  99529056.079 6  23905108.164    23905110.633    23905108.223
  23905110.453       -1905.874       -1482.347          38.900          37.600



 130167309.478 6 101241249.627 5  24333406.531    24333406.703    24333404.879
  24333407.043        4417.056        3435.487          36.200          35.800



 109815019.337 8  85570160.134 7  20897100.641    20897102.781
  20897102.465         477.739         372.268          50.800          47.900



 132738860.637 6 103432988.812 6  25259385.727    25259392.383
  25259392.332       -3282.525       -2557.813          37.600          36.500
  99123276.542 6  25259391.313       -2451.235          41.800


 124822425.115 7  97084071.066 6  23416365.609    23416369.145    23416364.363
  23416368.648       -3998.318       -3109.779          42.500          38.200



 148472292.463 6                  28253338.133
                      -634.023                          39.400
 110872169.898 6  28253342.043        -473.456          41.700   113764485.325 6
  28253340.027        -485.817          40.200   112318336.217 7  28253340.949
      -479.635          46.500
 114214681.862 8                  21734326.086
                        15.818                          50.600
  85290177.563 8  21734329.480          11.810          52.600    87515137.417 8
  21734328.824          12.121          52.700    86402649.595 9  21734329.516
        11.965          58.700
 139764323.332 6                  26596268.453
                     -2328.001                          39.100
 104369467.726 6  26596272.535       -1738.444          40.200   107092145.549 6
  26596270.613       -1783.790          38.900   105730812.248 7  26596271.438
     -1761.117          45.000
 123637775.068 8                  23527483.320
                      -829.608                          51.200
  92326962.431 8  23527485.602        -619.508          52.900    94735491.132 8
  23527484.430        -635.674          53.100    93531230.888 9  23527485.469
      -627.593          59.200
 202671801.878 6                  38567185.609
                        93.202                          40.600



 107303245.578 7  83458107.830 6  20080334.109    20080338.566    20080333.668
  20080337.883       -2289.037       -1780.358          47.500          40.400



 18  1 21 21  6 30.0000000  0 26G14G26R24G21G12G05G29R08R18G23R17R09
                                G02R16G25R07R19G31G32R14E05E26E09E01
                                S20R15
 125282453.103 6  97622732.16343  23840465.875
  23840469.836       -2692.951       -2098.401          40.200          23.000



 121387027.877 7  94587324.617 7  23099181.719    23099187.926
  23099188.449        2944.242        2294.210          43.400          45.100
  90646186.140 7  23099186.875        2198.622          47.900


 122425315.521 6  95219700.052 4  22894146.594    22894147.230    22894145.254
  22894147.473       -4118.492       -3203.294          38.200          27.200



 124134801.782 7  96728430.41344  23622066.227
  23622069.617        3180.310        2478.157          42.100          26.400



 125817080.934 7  98039350.469 6  23942187.563    23942191.133
  23942191.672       -3208.430       -2500.072          44.600          39.500



 132662141.380 6 103373108.873 5  25244766.984    25244769.188
  25244769.797        2301.315        1793.229          39.900          34.300



 105513277.567 8  82218159.111 8  20078501.813    20078505.367
  20078505.293        -448.593        -349.550          50.900          50.700



 127906432.103 5  99482793.431 6  23885627.703    23885627.684    23885627.309
  23885627.422         953.897         741.873          34.700          39.300



 106852846.179 8  83107793.844 7  20017136.891    20017138.867    20017136.637
  20017139.492        2652.582        2063.107          49.900          47.400



 135026193.174 6 105215231.41143  25694633.914
  25694635.027        1809.929        1410.358          38.300          20.600



 104167704.127 8  81019259.420 8  19466201.391    19466202.504    19466199.984
  19466202.895       -1377.618       -1071.484          49.600          48.500



 129256986.563 6 100533220.710 5  24205681.375    24205683.359    24205682.926
  24205684.227        4123.152        3206.913          38.400          35.800



 126729027.927 7  98749905.79244  24115728.609
  24115728.047       -2358.220       -1837.586          43.500          27.900



 106380005.153 7  82740016.430 7  19914559.695    19914560.621    19914559.172
  19914561.711        2270.108        1765.626          44.900          43.300



 111319991.882 8  86742887.760 7  21183478.969    21183484.125
  21183483.648       -1916.861       -1493.659          52.500          46.900
  83128619.403 8  21183485.180       -1431.424          53.200


 128023399.842 6  99573774.862 6  23915848.930    23915851.898    23915848.871
  23915851.855       -1926.437       -1498.374          39.000          38.600



 130034841.517 6 101138218.941 5  24308642.797    24308643.348    24308641.730
  24308643.449        4414.228        3433.313          36.100          35.900



 109800973.028 8  85559214.951 8  20894427.602    20894430.160
  20894429.699         459.299         357.898          51.200          48.200



 132837332.362 6 103509719.984 6  25278124.672    25278130.883
  25278130.750       -3282.196       -2557.550          38.900          37.400
  99196810.578 7  25278129.434       -2450.982          42.400


 124942471.410 7  97177440.411 6  23438885.375    23438889.523    23438885.070
  23438888.969       -4004.517       -3114.610          42.300          39.200



 148491520.513 6                  28256996.711
                      -647.344                          38.300
 110886528.515 7  28257000.102        -483.408          42.000   113779218.508 6
  28256998.273        -496.023          40.200   112332882.113 7  28257000.156
      -489.711          46.400
 114214418.182 8                  21734275.672
                         2.250                          51.000
  85289980.664 8  21734279.277           1.678          52.500    87514935.380 8
  21734278.527           1.728          52.600    86402450.126 9  21734279.258
         1.700          58.800
 139834249.475 6                  26609574.328
                     -2333.505                          38.200
 104421685.272 6  26609578.637       -1742.560          38.900   107145725.294 6
  26609575.918       -1788.018          37.400   105783710.890 7  26609577.793
     -1765.286          43.400
 123662820.819 8                  23532249.320
                      -839.745                          51.700
  92345665.424 8  23532251.746        -627.081          53.400    94754682.026 8
  23532250.527        -643.440          53.200    93550177.830 9  23532251.531
      -635.262          59.300
 202669004.027 6                  38566651.813
                        93.244                          38.700



 107372196.745 7  83511736.503 6  20093237.273    20093241.254    20093236.832
  20093240.656       -2307.062       -1794.378          47.700          40.200



 18  1 21 21  7  0.0000000  0 26G14G26R24G21G12G05G29R08R18G23R17R09
                                G02R16G25R07R19G31G32R14E05E26E09E01
                                S20R15
 125363374.082 6  97685787.44443  23855864.648
  23855869.176       -2701.477       -2105.057          38.600          21.700



 121298769.842 7  94518552.124 7  23082387.039    23082392.965
  23082393.102        2939.790        2290.749          44.500          45.000
  90580279.186 8  23082391.820        2195.297          48.200


 122548956.761 6  95315865.450 4  22917267.750    22917268.488    22917266.762
  22917268.613       -4124.000       -3207.564          38.100          26.300



 124039485.345 7  96654157.89044  23603928.008
  23603930.992        3174.346        2473.516          42.600          25.600



 125913387.067 7  98114394.182 6  23960514.609    23960517.598
  23960517.430       -3211.835       -2502.736          46.000          38.700



 132593250.692 6 103319427.896 5  25231655.930    25231660.289
  25231660.992        2291.712        1785.743          39.700          34.900



 105526982.827 8  82228838.543 8  20081109.797    20081112.707
  20081112.758        -464.539        -361.980          49.900          50.700



 127878188.982 5  99460826.539 6  23880354.273    23880353.402    23880352.590
  23880352.945         929.798         723.204          33.400          39.200



 106773578.792 8  83046141.435 7  20002287.461    20002289.680    20002286.855
  20002289.922        2632.594        2047.568          49.200          47.500



 134972118.327 6 105173095.22043  25684344.961
  25684345.344        1795.525        1399.103          38.800          21.100



 104209379.822 8  81051673.853 8  19473989.398    19473990.680    19473987.992
  19473990.820       -1399.937       -1088.844          49.900          48.600



 129133279.484 6 100437004.142 6  24182517.297    24182517.242    24182515.914
  24182517.789        4123.969        3207.536          38.900          38.500



 126799951.236 7  98805170.70744  24129224.680
  24129224.523       -2369.603       -1846.441          43.000          27.300



 106312156.233 7  82687245.025 7  19901858.539    19901859.523    19901857.430
  19901860.684        2253.719        1752.901          44.800          43.600



 111377664.219 8  86787827.221 7  21194453.516    21194458.586
  21194457.957       -1927.557       -1501.986          51.600          47.700
  83171686.395 8  21194459.020       -1439.411          53.300


 128081511.851 6  99618973.077 6  23926704.617    23926708.043    23926703.738
  23926708.148       -1946.914       -1514.334          37.600          39.300



 129902459.691 6 101035255.345 5  24283894.414    24283896.238    24283893.699
  24283896.410        4411.286        3431.017          36.200          35.200



 109787481.118 8  85548701.771 8  20891860.227    20891862.766
  20891862.379         440.804         343.485          50.200          48.100



 132935793.424 6 103586442.893 6  25296861.602    25296868.059
  25296867.051       -3281.819       -2557.271          37.700          37.600
  99270336.700 7  25296866.676       -2450.717          42.700


 125062702.807 6  97270953.693 6  23461441.305    23461444.727    23461439.707
  23461444.523       -4010.694       -3119.424          41.700          39.300



 148511149.480 6                  28260732.422
                      -660.755                          38.000
 110901186.532 7  28260735.629        -493.424          42.600   113794258.908 6
  28260734.973        -506.288          41.200   112347731.325 7  28260735.277
      -499.854          47.400
 114214561.387 8                  21734303.047
                       -11.327                          50.200
  85290087.605 8  21734306.598          -8.459          52.800    87515045.112 8
  21734305.707          -8.680          53.000    86402558.466 9  21734306.477
        -8.573          58.800
 139904338.729 6                  26622912.336
                     -2338.888                          38.200
 104474024.626 6  26622915.910       -1746.575          37.500   107199430.016 5
  26622913.848       -1792.140          35.900   105836732.932 7  26622915.305
     -1769.362          42.300
 123688170.790 8                  23537073.156
                      -849.910                          51.000
  92364595.589 8  23537075.488        -634.674          53.300    94774106.020 8
  23537074.551        -651.230          53.300    93569354.913 9  23537075.355
      -642.954          59.300
 202666201.382 6                  38566111.656
                        93.512                          39.300



 107441688.026 7  83565785.279 6  20106240.789    20106245.305    20106241.520
  20106245.219       -2325.038       -1808.390          46.900          40.800



 18  1 21 21  7 30.0000000  0 26G14G26R24G21G12G05G29R08R18G23R17R09
                                G02R16G25R07R19G31G32R14E05E26E09E01
                                S20R15
 125444548.601 6  97749040.27243  23871311.070
  23871315.406       -2709.854       -2111.566          40.100          22.500



 121210644.513 7  94449883.062 7  23065617.336    23065623.738
  23065624.035        2935.373        2287.306          45.300          45.700
  90514471.337 8  23065621.996        2192.000          48.000


 122672761.698 6  95412158.171 4  22940419.203    22940421.703    22940418.688
  22940421.008       -4129.385       -3211.746          38.600          26.600



 123944348.587 6  96580025.35144  23585823.766
  23585827.184        3168.326        2468.825          41.600          24.300



 126009794.677 7  98189516.970 6  23978860.000    23978863.422
  23978863.832       -3215.213       -2505.355          45.000          39.900



 132524650.069 6 103265972.843 5  25218602.383    25218605.637
  25218605.730        2281.996        1778.171          40.500          32.800



 105541165.013 8  82239889.596 8  20083808.531    20083811.910
  20083812.078        -480.417        -374.346          51.200          50.800



 127850665.542 5  99439419.442 6  23875214.344    23875213.238    23875212.895
  23875213.301         905.845         704.538          33.900          38.800



 106694911.124 8  82984955.478 8  19987550.555    19987552.648    19987550.066
  19987552.945        2612.553        2031.990          49.600          48.000



 134918476.475 6 105131296.30543  25674136.445
  25674137.445        1781.096        1387.881          40.400          20.600



 104251724.884 8  81084608.902 8  19481902.672    19481904.289    19481901.383
  19481904.332       -1422.229       -1106.184          49.800          48.800



 129009549.428 6 100340769.577 6  24159346.820    24159346.363    24159345.203
  24159345.980        4124.688        3208.094          39.900          36.700



 126871214.468 7  98860700.50044  24142786.086
  24142786.078       -2380.903       -1855.244          43.300          27.500



 106244799.039 7  82634856.114 7  19889248.078    19889249.449    19889247.906
  19889250.738        2237.311        1740.128          44.800          43.400



 111435656.890 8  86833016.304 7  21205489.359    21205494.770
  21205494.199       -1938.217       -1510.298          52.000          47.600
  83214992.607 8  21205495.203       -1447.374          53.000


 128140237.750 6  99664648.754 6  23937675.125    23937678.574    23937674.715
  23937678.016       -1967.308       -1530.154          38.800          39.900



 129770166.853 5 100932360.962 5  24259163.789    24259166.289    24259162.723
  24259165.117        4408.291        3428.664          35.900          35.800



 109774544.451 8  85538621.252 8  20889398.719    20889401.137
  20889400.969         422.283         329.049          51.400          48.700



 133034241.145 6 103663155.358 6  25315595.023    25315601.383
  25315601.527       -3281.358       -2556.904          39.400          37.900
  99343852.803 7  25315600.801       -2450.373          42.000


 125183117.627 6  97364609.640 6  23484030.672    23484034.496    23484029.543
  23484034.117       -4016.762       -3124.163          41.900          38.700



 148531178.714 6                  28264543.805
                      -674.103                          38.400
 110916143.381 6  28264546.652        -503.384          41.500   113809605.948 6
  28264545.195        -516.521          40.000   112362883.273 7  28264546.926
      -509.956          46.800
 114215111.042 8                  21734407.617
                       -24.857                          50.400
  85290498.067 8  21734411.230         -18.562          52.200    87515466.287 8
  21734410.434         -19.049          53.000    86402974.278 9  21734411.215
       -18.802          58.800
 139974589.215 6                  26636280.063
                     -2344.266                          36.900
 104526484.417 6  26636283.859       -1750.591          38.500   107253258.330 6
  26636282.219       -1796.258          37.100   105889876.977 7  26636283.539
     -1773.421          43.100
 123713825.245 8                  23541955.102
                      -860.060                          51.200
  92383753.132 8  23541957.426        -642.254          53.400    94793763.323 8
  23541956.582        -659.008          53.100    93588762.333 9  23541957.352
      -650.634          59.300
 202663396.272 6                  38565580.516
                        93.663                          39.200



 107511718.531 7  83620253.424 6  20119346.422    20119350.871    20119346.332
  20119350.707       -2343.022       -1822.349          47.600          40.500



 18  1 21 21  8  0.0000000  0 26G14G26R24G21G12G05G29R08R18G23R17R09
                                G02R16G25R07R19G31G32R14E05E26E09E01
                                S20R15
 125525973.421 6  97812488.14043  23886807.336
  23886810.422       -2718.149       -2118.048          40.200          22.800



 121122652.865 7  94381318.157 7  23048873.445    23048878.813
  23048879.176        2930.909        2283.827          43.900          45.200
  90448763.293 7  23048877.016        2188.665          47.500


 122796726.815 6  95508575.489 4  22963602.133    22963602.582    22963601.617
  22963602.824       -4134.745       -3215.900          38.400          25.700



 123849393.380 6  96506034.30444  23567754.094
  23567758.242        3162.222        2464.068          41.700          26.900



 126106303.388 7  98264718.551 6  23997224.523    23997228.395
  23997228.059       -3218.587       -2507.990          45.100          39.600



 132456342.248 6 103212746.033 5  25205603.305    25205607.258
  25205606.504        2272.203        1770.557          37.900          31.700



 105555822.699 8  82251311.172 8  20086598.102    20086601.270
  20086601.168        -496.225        -386.670          49.600          50.200



 127823863.082 5  99418573.086 6  23870208.367    23870207.852    23870207.035
  23870208.012         881.809         685.848          34.100          38.500



 106616844.751 8  82924237.202 8  19972926.227    19972928.219    19972925.504
  19972928.602        2592.506        2016.419          49.600          48.000



 134865268.586 6 105089835.60743  25664011.258
  25664012.023        1766.587        1376.542          40.800          19.900



 104294736.415 8  81118062.320 8  19489940.172    19489942.242    19489939.352
  19489942.133       -1444.437       -1123.463          49.900          48.200



 128885798.310 6 100244518.758 5  24136172.414    24136171.965    24136170.680
  24136171.363        4125.356        3208.629          40.300          35.700



 126942815.357 7  98916493.40844  24156410.531
  24156410.742       -2392.088       -1863.968          43.000          27.600



 106177936.145 7  82582851.632 7  19876732.352    19876732.453    19876730.891
  19876733.813        2220.791        1727.282          44.100          44.100



 111493968.994 8  86878454.301 8  21216585.508    21216591.102
  21216590.754       -1948.868       -1518.604          52.100          48.200
  83258537.346 8  21216591.289       -1455.321          53.500


 128199573.699 6  99710798.904 6  23948760.297    23948762.996    23948759.418
  23948762.879       -1987.648       -1545.964          38.900          39.100



 129637965.051 6 100829537.415 5  24234449.570    24234452.605    24234448.855
  24234451.563        4405.237        3426.285          36.800          35.700



 109762163.307 8  85528973.609 8  20887042.164    20887044.879
  20887044.953         403.741         314.602          52.100          48.400



 133132672.244 6 103739854.914 6  25334328.188    25334332.469
  25334332.324       -3280.718       -2556.401          41.300          38.100
  99417356.551 6  25334331.418       -2449.889          41.800


 125303713.426 6  97458406.380 6  23506654.523    23506657.988    23506653.160
  23506657.469       -4022.747       -3128.830          41.900          38.300



 148551607.155 6                  28268431.688
                      -687.359                          39.400
 110931398.402 6  28268433.582        -513.287          41.400   113825258.910 6
  28268433.254        -526.678          41.200   112378337.257 7  28268434.137
      -519.978          46.800
 114216066.476 8                  21734589.453
                       -38.370                          50.500
  85291211.548 8  21734593.148         -28.649          52.000    87516198.378 8
  21734592.164         -29.405          52.600    86403697.067 9  21734593.012
       -29.029          58.800
 140044998.867 6                  26649678.563
                     -2349.540                          38.300
 104579063.019 6  26649681.523       -1754.531          36.500   107307208.530 6
  26649681.383       -1800.296          37.100   105943141.377 7  26649681.898
     -1777.413          42.100
 123739784.202 8                  23546895.023
                      -870.187                          51.200
  92403138.059 8  23546897.418        -649.816          53.300    94813653.945 8
  23546896.293        -666.766          53.000    93608400.106 9  23546897.059
      -658.289          59.300
 202660589.639 6                  38565050.688
                        93.333                          39.800



 107582286.628 7  83675139.703 6  20132552.633    20132556.246    20132552.191
  20132556.359       -2360.902       -1836.260          47.300          40.400



 18  1 21 21  8 30.0000000  0 26G14G26R24G21G12G05G29R08R18G23R17R09
                                G02R16G25R07R19G31G32R14E05E26E09E01
                                S20R15
 125607645.938 6  97876129.03743  23902348.648
  23902351.863       -2726.393       -2124.462          40.500          23.800



 121034796.392 7  94312858.566 7  23032154.555    23032160.578
  23032160.781        2926.346        2280.278          44.300          45.100
  90383156.174 7  23032158.680        2185.261          47.400


 122920849.166 6  95605115.094 4  22986814.203    22986813.805    22986811.926
  22986814.047       -4139.860       -3219.895          38.400          25.500



 123754622.333 7  96432186.75244  23549720.523
  23549722.941        3156.063        2459.279          42.800          26.500



 126202912.392 7  98339998.260 6  24015609.461    24015612.758
  24015612.801       -3221.948       -2510.603          44.400          38.400



 132388330.269 6 103159749.693 5  25192661.383    25192663.953
  25192663.496        2262.252        1762.797          37.800          32.100



 105570955.218 8  82263102.741 8  20089477.773    20089480.746
  20089480.617        -512.066        -399.009          50.300          50.700



 127797783.229 5  99398288.752 6  23865338.656    23865337.555    23865337.207
  23865337.563         857.665         667.078          33.800          38.400



 106539382.067 8  82863988.462 8  19958414.523    19958416.645    19958414.270
  19958417.078        2572.343        2000.719          50.100          48.000



 134812496.665 6 105048714.61243  25653968.578
  25653969.977        1752.028        1365.198          39.800          19.600



 104338412.000 8  81152032.228 8  19498102.070    19498103.941    19498101.133
  19498103.953       -1466.492       -1140.622          49.900          48.400



 128762028.688 6 100148253.468 6  24112993.781    24112993.527    24112992.164
  24112993.281        4125.924        3209.049          38.700          37.000



 127014752.169 7  98972548.06844  24170099.711
  24170100.012       -2403.282       -1872.688          42.400          27.600



 106111571.308 7  82531234.538 7  19864308.500    19864309.359    19864307.859
  19864310.520        2204.122        1714.325          44.400          43.900



 111552600.162 8  86924140.907 7  21227742.844    21227748.445
  21227748.121       -1959.495       -1526.884          52.000          47.600
  83302320.350 8  21227748.598       -1463.261          52.700


 128259517.189 6  99757421.607 6  23959957.625    23959960.750    23959957.215
  23959960.230       -2007.880       -1561.682          38.200          38.600



 129505857.158 6 100726786.890 6  24209754.398    24209756.473    24209752.746
  24209756.000        4402.070        3423.813          36.200          36.400



 109750338.995 8  85519759.857 8  20884792.180    20884794.848
  20884794.305         385.165         300.124          50.200          48.200



 133231084.320 6 103816539.602 6  25353054.008    25353059.516
  25353059.543       -3280.042       -2555.875          39.800          38.600
  99490846.043 6  25353057.934       -2449.373          41.300


 125424488.486 7  97552342.507 6  23529311.578    23529314.828    23529309.980
  23529314.629       -4028.723       -3133.463          42.100          37.400



 148572434.416 6                  28272394.969
                      -700.660                          39.100
 110946951.217 7  28272397.543        -523.222          42.000   113841217.460 6
  28272397.402        -536.874          41.500   112394092.940 7  28272397.535
      -530.047          47.300
 114217427.459 8                  21734848.453
                       -51.895                          49.500
  85292227.874 8  21734852.141         -38.755          53.200    87517241.213 8
  21734851.344         -39.764          53.100    86404726.645 9  21734851.973
       -39.257          58.800
 140115565.942 6                  26663106.961
                     -2354.756                          37.800
 104631759.238 6  26663109.934       -1758.423          38.100   107361279.424 6
  26663109.137       -1804.292          36.800   105996524.938 7  26663110.195
     -1781.358          43.000
 123766048.126 8                  23551892.883
                      -880.377                          51.200
  92422750.722 8  23551895.266        -657.424          53.600    94833778.247 8
  23551894.281        -674.577          53.100    93628268.590 9  23551895.012
      -665.999          59.300
 202657783.077 6                  38564513.828
                        93.315                          40.100



 107653392.131 7  83730443.966 6  20145859.078    20145862.953    20145858.871
  20145862.793       -2378.836       -1850.201          47.400          40.200



 18  1 21 21  9  0.0000000  0 26G14G26R24G21G12G05G29R08R18G23R17R09
                                G02R16G25R07R19G31G32R14E05E26E09E01
                                S20R15
 125689563.005 6  97939960.46443  23917937.125
  23917939.867       -2734.492       -2130.758          40.300          23.800



 120947076.073 7  94244505.075 7  23015462.336    23015467.883
  23015467.918        2921.777        2276.708          44.500          45.400
  90317650.743 8  23015465.992        2181.843          48.000


 123045124.858 6  95701773.949 4  23010054.406    23010055.840    23010052.832
  23010055.262       -4144.971       -3223.889          37.900          26.500



 123660037.889 6  96358484.58944  23531721.414
  23531724.848        3149.776        2454.372          41.800          26.700



 126299620.939 7  98415355.554 6  24034011.945    24034015.605
  24034015.145       -3225.223       -2513.166          43.700          38.600



 132320617.241 6 103106986.305 5  25179776.727    25179780.152
  25179779.195        2252.237        1754.985          39.200          33.700



 105586561.246 8  82275263.279 8  20092447.391    20092450.543
  20092450.277        -527.834        -411.292          49.800          50.500



 127772426.763 5  99378567.065 6  23860602.195    23860602.898    23860601.684
  23860602.719         833.517         648.295          34.100          39.200



 106462524.798 8  82804210.586 8  19944017.055    19944018.633    19944016.215
  19944018.914        2552.118        1984.972          49.200          48.000



 134760162.225 6 105007934.52443  25644011.383
  25644010.723        1737.397        1353.819          40.700          19.900



 104382748.891 8  81186516.456 8  19506387.008    19506389.266    19506386.188
  19506389.539       -1488.534       -1157.728          48.800          48.500



 128638242.688 6 100051975.425 6  24089813.195    24089812.313    24089811.461
  24089812.805        4126.432        3209.448          38.300          36.400



 127087022.476 6  99028862.60644  24183852.383
  24183852.656       -2414.359       -1881.320          41.800          27.700



 106045707.101 7  82480006.821 7  19851978.602    19851978.332    19851977.023
  19851979.895        2187.354        1701.296          44.400          44.200



 111611549.607 8  86970075.524 7  21238960.352    21238966.082
  21238966.000       -1970.122       -1535.158          49.800          47.600
  83346341.026 8  21238966.359       -1471.197          53.000


 128320064.810 6  99804514.231 6  23971268.828    23971271.406    23971267.832
  23971271.617       -2027.953       -1577.311          39.100          38.900



 129373845.558 5 100624111.242 6  24185075.125    24185077.176    24185073.707
  24185077.793        4398.777        3421.271          35.700          36.500



 109739071.984 8  85510980.358 8  20882647.930    20882650.336
  20882650.309         366.559         285.628          49.500          48.400



 133329474.183 6 103893207.045 6  25371776.734    25371782.863
  25371782.668       -3279.247       -2555.260          39.500          37.900
  99564318.975 6  25371781.590       -2448.792          41.500


 125545440.599 6  97646416.338 6  23552002.172    23552004.809    23552000.340
  23552004.699       -4034.556       -3138.012          41.400          38.100



 148593659.506 6                  28276433.867
                      -713.950                          39.000
 110962801.124 7  28276436.965        -533.143          42.700   113857480.831 6
  28276436.121        -547.050          41.100   112410149.580 7  28276436.398
      -540.097          47.100
 114219193.340 8                  21735184.625
                       -65.382                          48.700
  85293546.559 8  21735188.266         -48.828          52.700    87518594.293 8
  21735187.281         -50.093          53.100    86406062.528 9  21735188.090
       -49.458          58.800
 140186288.202 6                  26676565.289
                     -2359.871                          37.900
 104684571.232 6  26676569.086       -1762.241          40.200   107415469.175 6
  26676566.930       -1808.222          39.300   106050025.814 7  26676568.660
     -1785.236          45.000
 123792617.071 8                  23556949.000
                      -890.568                          50.300
  92442591.158 8  23556951.250        -665.035          53.500    94854136.264 8
  23556950.313        -682.385          53.100    93648367.816 9  23556950.941
      -673.710          59.400
 202654977.653 6                  38563976.781
                        93.434                          39.700



 107725033.474 7  83786164.993 6  20159265.945    20159269.590    20159265.504
  20159269.723       -2396.677       -1864.080          47.100          39.700



 18  1 21 21  9 30.0000000  0 26G14G26R24G21G12G05G29R08R18G23R17R09
                                G02R16G25R07R19G31G32R14E05E26E09E01
                                S20R15
 125771721.708 6  98003980.20943  23933571.234
  23933574.027       -2742.488       -2137.004          39.800          22.300



 120859493.115 7  94176258.612 7  22998795.492    22998801.160
  22998801.535        2917.217        2273.154          44.400          45.400
  90252247.885 8  22998800.547        2178.437          48.300


 123169550.708 6  95798549.627 4  23033322.352    23033322.680    23033321.246
  23033322.336       -4149.874       -3227.696          38.100          26.600



 123565642.309 7  96284929.62344  23513758.938
  23513761.695        3143.471        2449.448          42.900          28.300



 126396427.909 7  98490789.510 6  24052434.367    24052437.715
  24052437.359       -3228.464       -2515.684          45.100          39.200



 132253205.700 6 103054457.832 5  25166948.031    25166951.191
  25166950.789        2242.178        1747.152          37.900          33.100



 105602639.670 8  82287791.928 8  20095506.813    20095510.605
  20095510.465        -543.529        -423.532          51.000          50.800



 127747795.430 5  99359409.297 6  23856003.992    23856003.508    23856002.191
  23856002.734         809.332         629.532          34.600          37.400



 106386274.824 8  82744905.039 8  19929732.125    19929734.785    19929731.168
  19929734.688        2531.875        1969.246          49.500          48.200



 134708266.878 6 104967496.57742  25634136.070
  25634134.949        1722.794        1342.439          39.800          17.400



 104427744.393 8  81221512.970 8  19514795.734    19514796.863    19514794.328
  19514797.348       -1510.402       -1174.755          49.600          48.200



 128514442.508 6  99955686.412 6  24066630.000    24066628.383    24066628.031
  24066628.395        4126.879        3209.803          39.400          37.100



 127159624.651 7  99085435.71644  24197668.539
  24197667.941       -2425.393       -1889.922          43.900          26.200



 105980346.545 7  82429170.831 7  19839742.164    19839744.086    19839741.758
  19839744.930        2170.579        1688.231          44.800          44.200



 111670816.640 8  87016257.618 8  21250238.430    21250244.270
  21250243.895       -1980.649       -1543.362          51.600          48.000
  83390598.864 8  21250244.254       -1479.057          52.400


 128381213.361 6  99852074.239 6  23982690.664    23982694.461    23982692.016
  23982693.891       -2047.914       -1592.830          39.900          38.700



 129241932.910 6 100521512.626 6  24160414.281    24160418.223    24160414.391
  24160417.668        4395.466        3418.675          37.100          36.300



 109728363.080 8  85502635.763 8  20880610.305    20880612.965
  20880612.777         347.985         271.152          50.600          48.400



 133427839.158 6 103969855.026 6  25390495.375    25390500.938
  25390501.156       -3278.374       -2554.577          40.500          37.600
  99637773.279 6  25390500.313       -2448.137          41.700


 125666567.589 6  97740626.182 6  23574724.648    23574728.188    23574723.402
  23574727.582       -4040.369       -3142.481          41.700          37.400



 148615281.645 6                  28280548.844
                      -727.123                          38.600
 110978947.502 7  28280552.223        -542.972          44.000   113874048.452 6
  28280550.207        -557.143          41.300   112426506.586 8  28280551.289
      -550.064          48.100
 114221363.631 8                  21735597.750
                       -78.844                          51.000
  85295167.236 8  21735601.074         -58.880          52.800    87520257.252 8
  21735600.137         -60.415          52.900    86407704.348 9  21735600.961
       -59.647          58.800
 140257163.643 5                  26690051.328
                     -2364.948                          31.800
 104737497.645 5  26690055.074       -1766.022          35.600   107469776.229 6
  26690055.262       -1812.099          37.000   106103642.540 6  26690055.438
     -1789.061          41.700
 123819491.234 8                  23562062.969
                      -900.714                          51.000
  92462659.517 8  23562065.234        -672.611          53.700    94874728.144 8
  23562064.250        -690.157          53.300    93668697.933 9  23562064.922
      -681.383          59.300
 202652170.900 6                  38563441.156
                        93.658                          39.900



 107797209.191 7  83842301.656 6  20172772.648    20172775.762    20172772.207
  20172775.918       -2414.411       -1877.875          47.500          40.200



 18  1 21 21 10  0.0000000  0 27G14G26R24G21G12G05G29R08R18G23R17R09
                                G02R16G25R07R19G31G16G32R14E05E26E09
                                E01S20R15
 125854118.615 6  98068185.54843  23949251.781
  23949253.047       -2750.381       -2143.130          40.800          22.000



 120772048.506 7  94108119.979 7  22982155.383    22982161.043
  22982161.387        2912.587        2269.547          43.000          45.000
  90186948.366 8  22982159.988        2174.979          48.700


 123294123.149 6  95895439.299 4  23056617.430    23056619.258    23056617.266
  23056619.266       -4154.707       -3231.474          38.000          27.500



 123471437.759 7  96211523.47644  23495831.391
  23495834.992        3137.051        2444.454          43.100          27.300



 126493332.613 7  98566299.651 6  24070874.523    24070877.980
  24070878.238       -3231.735       -2518.233          46.000          39.600



 132186098.343 6 103002166.454 5  25154178.211    25154181.141
  25154181.207        2231.980        1739.212          39.500          34.500



 105619188.801 8  82300687.352 8  20098655.828    20098659.617
  20098659.328        -559.229        -435.761          50.700          50.800



 127723889.916 5  99340816.158 6  23851538.453    23851539.453    23851537.121
  23851539.285         785.186         610.677          34.400          38.200



 106310633.714 8  82686073.083 8  19915562.180    19915564.355    19915561.223
  19915564.742        2511.490        1953.385          49.100          48.700



 134656812.023 6 104927401.83942  25624345.563
  25624342.891        1708.039        1330.963          40.100          17.800



 104473395.704 8  81257019.557 8  19523326.992    19523328.672    19523326.172
  19523328.621       -1532.256       -1191.757          49.600          48.400



 128390630.111 6  99859387.879 5  24043443.781    24043442.070    24043441.695
  24043441.887        4127.242        3210.079          39.400          35.800



 127232556.295 7  99142265.57644  24211547.094
  24211546.625       -2436.342       -1898.453          43.900          25.900



 105915492.423 7  82378728.736 7  19827602.125    19827602.289    19827600.664
  19827603.578        2153.614        1675.030          44.200          44.300



 111730400.479 8  87062686.576 8  21261576.953    21261582.367
  21261582.363       -1991.243       -1551.617          52.100          48.200
  83435093.275 8  21261582.723       -1486.967          52.600


 128442959.239 6  99900098.865 6  23994227.211    23994229.148    23994226.215
  23994229.105       -2067.791       -1608.294          40.300          38.200



 129110121.969 6 100418993.028 6  24135775.180    24135777.461    24135773.645
  24135776.891        4392.056        3416.057          37.100          36.000



 109718212.696 8  85494726.354 8  20878678.680    20878681.145
  20878680.844         329.319         256.607          51.100          48.200



 133826728.765 5                  25466378.547
                      3381.646                          31.200



 133526176.120 6 104046481.217 6  25409207.656    25409213.738
  25409213.363       -3277.429       -2553.845          41.400          38.000
  99711206.743 7  25409213.164       -2447.435          42.200


 125787867.295 6  97834970.398 6  23597480.594    23597483.367    23597479.348
  23597482.402       -4046.094       -3146.944          41.100          37.200



 148637299.760 6                  28284738.734
                      -740.310                          38.700
 110995389.607 7  28284742.414        -552.831          43.500   113890919.492 6
  28284740.914        -567.254          41.900   112443163.153 8  28284741.430
      -560.040          48.300
 114223937.610 8                  21736087.430
                       -92.308                          50.500
  85297089.364 8  21736090.941         -68.929          52.400    87522229.529 8
  21736090.098         -70.732          52.700    86409651.551 9  21736090.879
       -69.827          58.800
 140328190.059 5                  26703567.719
                     -2369.991                          35.300
 104790536.872 6  26703571.508       -1769.801          36.900   107524199.064 5
  26703569.957       -1815.965          34.100   106157373.571 6  26703571.148
     -1792.879          41.000
 123846670.608 8                  23567234.969
                      -910.906                          51.700
  92482955.792 8  23567237.277        -680.221          53.400    94895553.889 8
  23567236.434        -697.968          53.100    93689258.945 9  23567236.984
      -689.093          59.400
 202649361.969 6                  38562909.109
                        93.667                          40.400



 107869917.442 7  83898852.508 6  20186379.000    20186383.254    20186378.441
  20186382.699       -2432.202       -1891.716          47.500          40.500



 18  1 21 21 10 30.0000000  0 27G14G26R24G21G12G05G29R08R18G23R17R09
                                G02R16G25R07R19G31G16G32R14E05E26E09
                                E01S20R15
 125936750.912 6  98132574.33443  23964974.961
  23964977.699       -2758.206       -2149.265          39.000          20.900



 120684743.833 7  94040090.365 7  22965541.727    22965547.359
  22965547.809        2907.893        2265.897          43.000          45.300
  90121753.338 8  22965546.355        2171.475          49.400


 123418839.277 6  95992440.714 4  23079939.734    23079941.625    23079938.863
  23079941.164       -4159.505       -3235.141          38.100          26.400



 123377427.124 7  96138268.45344  23477943.141
  23477945.555        3130.514        2439.363          43.700          27.600



 126590334.875 7  98641885.815 6  24089333.492    24089336.902
  24089336.859       -3234.976       -2520.760          46.000          38.700



 132119298.564 6 102950114.653 5  25141465.773    25141469.992
  25141470.141        2221.713        1731.196          38.700          34.900



 105636208.135 8  82313949.179 8  20101895.086    20101897.980
  20101898.047        -574.879        -447.961          50.200          50.700



 127700712.058 5  99322788.901 6  23847210.047    23847210.809    23847209.066
  23847210.379         760.831         591.804          35.000          38.500



 106235603.957 8  82627716.629 7  19901506.594    19901509.516    19901506.223
  19901509.457        2491.112        1937.524          49.400          47.600



 134605799.693 6 104887651.99842  25614637.961
  25614635.781        1693.270        1319.434          40.700          17.800



 104519700.232 8  81293034.191 8  19531979.844    19531981.324    19531978.672
  19531981.625       -1553.987       -1208.640          49.600          48.200



 128266808.249 6  99763082.017 6  24020255.117    24020254.027    24020253.500
  24020254.613        4127.578        3210.287          38.700          36.800



 127305815.439 7  99199350.61544  24225487.156
  24225487.520       -2447.241       -1906.943          43.300          26.400



 105851148.181 7  82328683.204 7  19815556.789    19815557.363    19815555.797
  19815558.371        2136.563        1661.796          45.100          44.300



 111790300.763 8  87109362.116 7  21272975.641    21272981.383
  21272981.121       -2001.753       -1559.809          50.700          47.900
  83479823.995 8  21272981.539       -1494.816          53.000


 128505300.068 6  99948586.129 6  24005869.617    24005874.941    24005870.027
  24005874.621       -2087.614       -1623.699          37.500          37.500



 128978415.377 6 100316554.630 6  24111154.703    24111156.355    24111153.051
  24111156.039        4388.492        3413.283          36.300          37.300



 109708621.809 8  85487252.921 7  20876853.688    20876855.633
  20876855.461         310.661         242.077          49.700          47.800



 133725280.253 5                  25447072.164
                      3381.605                          33.800



 133624482.585 6 104123083.657 6  25427914.891    25427920.883
  25427921.008       -3276.345       -2552.993          40.000          38.600
  99784617.389 7  25427920.457       -2446.613          42.800


 125909337.930 6  97929447.525 6  23620268.547    23620270.863    23620265.777
  23620269.801       -4051.793       -3151.371          40.800          36.300



 148659713.565 6                  28289003.422
                      -753.460                          38.500
 111012127.175 7  28289005.918        -562.652          42.100   113908093.686 6
  28289005.262        -577.326          41.200   112460119.040 7  28289006.539
      -569.992          47.500
 114226915.094 8                  21736654.086
                      -105.736                          50.000
  85299312.815 8  21736657.484         -78.959          52.300    87524510.981 8
  21736656.734         -81.018          52.800    86411904.002 9  21736657.520
       -79.990          58.800
 140399365.771 6                  26717113.234
                     -2374.907                          36.200
 104843687.551 6  26717115.590       -1773.467          37.000   107578736.301 5
  26717114.559       -1819.730          35.300   106211217.529 6  26717115.711
     -1796.595          41.600
 123874155.748 8                  23572465.117
                      -921.093                          51.700
  92503480.399 8  23572467.434        -687.833          53.400    94916613.919 8
  23572466.637        -705.770          52.900    93710051.265 9  23572467.195
      -696.803          59.300
 202646553.716 6                  38562361.906
                        93.684                          39.500



 107943157.580 7  83955817.032 6  20200085.305    20200088.547    20200084.395
  20200088.375       -2449.911       -1905.484          47.200          40.300



 18  1 21 21 11  0.0000000  0 27G14G26R24G21G12G05G29R08R18G23R17R09
                                G02R16G25R07R19G31G16G32R14E05E26E09
                                E01S20R15
 126019615.810 6  98197144.36143  23980743.469
  23980745.859       -2765.875       -2155.215          38.600          21.700



 120597580.192 7  93972170.658 7  22948954.656    22948960.875
  22948961.344        2903.176        2262.212          43.700          46.000
  90056663.613 8  22948959.832        2167.959          48.900


 123543695.835 6  96089551.386 4  23103289.375    23103290.762    23103288.387
  23103290.531       -4164.058       -3238.728          37.500          26.200



 123283612.733 7  96065166.33444  23460090.289
  23460093.344        3123.958        2434.246          42.400          27.600



 126687433.316 7  98717546.895 6  24107810.594    24107814.176
  24107814.453       -3238.162       -2523.241          45.300          38.600



 132052809.346 6 102898304.891 5  25128814.883    25128817.219
  25128817.125        2211.306        1723.091          40.100          35.500



 105653696.458 8  82327576.446 8  20105222.828    20105225.922
  20105225.938        -590.475        -460.106          51.100          50.500



 127678262.609 5  99305328.253 6  23843017.820    23843018.039    23843016.957
  23843017.887         736.545         572.852          35.100          38.100



 106161186.967 8  82569836.750 7  19887565.633    19887567.688    19887565.262
  19887568.180        2470.657        1921.623          48.600          47.900



 134555231.745 6 104848248.39543  25605015.266
  25605013.371        1678.427        1307.864          40.600          18.300



 104566655.173 8  81329554.714 8  19540755.094    19540756.344    19540753.570
  19540756.715       -1575.576       -1225.455          49.800          48.300



 128142979.149 6  99666770.438 6  23997065.539    23997064.656    23997064.156
  23997064.859        4127.757        3210.468          37.600          37.400



 127379399.902 7  99256689.15244  24239490.344
  24239490.148       -2458.025       -1915.352          43.400          25.900



 105787316.639 7  82279036.467 7  19803607.742    19803608.289    19803606.398
  19803609.273        2119.439        1648.438          44.500          43.700



 111850516.719 8  87156283.628 7  21284434.367    21284440.078
  21284440.070       -2012.253       -1567.985          50.300          47.500
  83524790.441 8  21284440.547       -1502.655          52.600


 128568232.091 6  99997533.215 6  24017628.953    24017631.008    24017626.902
  24017630.875       -2107.175       -1638.940          38.800          37.200



 128846815.767 5 100214199.423 6  24086552.367    24086555.219    24086551.891
  24086555.340        4384.920        3410.549          35.900          38.200



 109699591.153 8  85480216.053 8  20875135.680    20875137.219
  20875136.969         292.008         227.538          50.000          48.300



 133623832.399 5                  25427767.602
                      3381.589                          33.800



 133722755.624 6 104199660.028 6  25446615.750    25446622.188
  25446622.223       -3275.216       -2552.116          39.400          38.800
  99858003.068 7  25446622.141       -2445.771          42.800


 126030977.237 6  98024055.872 6  23643087.500    23643090.348    23643086.371
  23643089.477       -4057.338       -3155.696          40.900          36.000



 148682521.988 6                  28293343.930
                      -766.641                          38.300
 111029159.446 6  28293346.602        -572.491          41.800   113925570.276 6
  28293346.086        -587.428          41.400   112477373.463 7  28293346.551
      -579.959          47.000
 114230295.415 8                  21737297.328
                      -119.166                          49.600
  85301837.080 8  21737300.742         -88.982          52.400    87527101.099 8
  21737299.898         -91.309          52.600    86414461.196 9  21737300.727
       -90.144          58.800
 140470688.981 5                  26730685.281
                     -2379.782                          34.800
 104896948.337 6  26730687.254       -1777.102          36.900   107633386.522 5
  26730686.270       -1823.470          35.200   106265173.036 6  26730688.133
     -1800.290          41.600
 123901946.707 8                  23577753.484
                      -931.291                          51.200
  92524233.379 8  23577755.754        -695.449          53.300    94937908.283 8
  23577754.953        -713.586          53.400    93731074.939 9  23577755.605
      -704.517          59.300
 202643746.317 6                  38561836.656
                        93.541                          40.600



 108016928.514 7  84013194.406 6  20213890.234    20213893.980    20213889.559
  20213893.801       -2467.580       -1919.210          47.200          40.200



 18  1 21 21 11 30.0000000  0 27G14G26R24G21G12G05G29R08R18G23R17R09
                                G02R16G25R07R19G31G16G32R14E05E26E09
                                E01S20R15
 126102710.110 6  98261893.14643  23996555.672
  23996558.473       -2773.521       -2161.181          39.300          21.100



 120510558.681 7  93904361.701 7  22932395.609    22932401.449
  22932401.719        2898.383        2258.477          44.200          45.500
  89991680.032 8  22932399.738        2164.375          48.800


 123668688.881 6  96186768.153 4  23126663.445    23126664.508    23126662.691
  23126664.281       -4168.638       -3242.284          37.600          25.200



 123189996.586 7  95992218.69044  23442275.508
  23442278.961        3117.296        2429.065          43.900          27.400



 126784627.204 7  98793282.366 6  24126305.664    24126309.398
  24126309.680       -3241.332       -2525.715          45.600          39.100



 131986632.865 6 102846738.854 5  25116222.594    25116224.914
  25116224.805        2200.789        1714.895          39.200          35.200



 105671652.437 8  82341568.127 8  20108639.742    20108643.105
  20108643.000        -606.079        -472.277          50.500          50.300



 127656542.690 5  99288434.998 6  23838960.742    23838963.113    23838960.582
  23838962.281         712.196         553.925          35.000          38.100



 106087384.835 8  82512435.105 7  19873740.344    19873742.469    19873739.738
  19873742.387        2450.104        1905.643          49.600          47.600



 134505109.296 6 104809191.90243  25595476.273
  25595475.395        1663.543        1296.287          39.500          18.300



 104614257.876 8  81366579.033 8  19549651.055    19549652.340    19549649.414
  19549652.496       -1597.192       -1242.263          50.200          48.000



 128019144.947 6  99570454.897 6  23973875.234    23973874.578    23973874.320
  23973874.914        4127.843        3210.552          39.100          36.700



 127453307.775 7  99314279.69644  24253554.344
  24253554.039       -2468.790       -1923.731          43.400          26.300



 105724000.654 7  82229790.683 7  19791754.305    19791755.469    19791753.898
  19791756.762        2102.164        1635.034          44.700          44.300



 111911047.655 8  87203450.583 7  21295952.773    21295959.227
  21295958.863       -2022.790       -1576.196          52.000          47.500
  83569992.111 8  21295959.633       -1510.528          52.600


 128631752.113 6 100046937.695 6  24029492.898    24029496.328    24029493.426
  24029496.031       -2126.817       -1654.197          38.800          36.900



 128715325.542 6 100111929.264 6  24061972.469    24061974.520    24061969.762
  24061974.250        4381.174        3407.625          36.500          37.600



 109691121.061 8  85473615.967 7  20873523.414    20873525.281
  20873524.781         273.270         212.940          51.200          47.600



 133522385.992 5                  25408462.680
                      3381.516                          34.000



 133820992.251 6 104276208.037 6  25465309.719    25465315.582
  25465315.773       -3273.954       -2551.145          40.900          39.200
  99931361.609 7  25465315.340       -2444.842          42.100


 126152783.250 6  98118793.868 5  23665936.758    23665940.820    23665936.688
  23665940.168       -4062.884       -3160.012          40.800          35.900



 148705724.217 6                  28297759.625
                      -779.779                          39.500
 111046485.780 6  28297762.180        -582.299          41.600   113943348.600 6
  28297761.102        -597.489          40.400   112494925.797 7  28297762.102
      -589.899          47.000
 114234077.999 8                  21738016.906
                      -132.577                          50.000
  85304661.747 8  21738020.590         -99.009          52.400    87529999.447 8
  21738019.559        -101.585          53.000    86417322.705 9  21738020.586
      -100.301          58.800
 140542157.501 5                  26744285.438
                     -2384.601                          35.400
 104950317.655 6  26744288.262       -1780.711          39.500   107688148.102 6
  26744287.137       -1827.164          36.300   106319238.482 7  26744288.207
     -1803.938          43.900
 123930043.612 8                  23583100.094
                      -941.522                          51.700
  92545214.818 8  23583102.465        -703.084          53.300    94959437.072 8
  23583101.668        -721.425          53.500    93752330.051 9  23583102.313
      -712.258          59.200
 202640937.166 6                  38561298.703
                        93.793                          40.700



 108091228.719 7  84070983.458 6  20227793.672    20227798.207    20227793.816
  20227798.059       -2485.227       -1932.947          46.400          39.600



 18  1 21 21 12  0.0000000  0 28G14G26R24G21G12G05G29R08R18G23R17R09
                                G02R16G25R07R19G31G16G32R14E05E26E09
                                E24E01S20R15
 126186030.595 6  98326818.16843  24012411.703
  24012414.258       -2780.972       -2167.000          38.800          21.500



 120423680.417 7  93836664.359 7  22915862.539    22915868.867
  22915869.102        2893.641        2254.785          43.200          45.100
  89926803.410 8  22915867.473        2160.834          48.200


 123793815.422 6  96284088.789 4  23150062.453    23150063.539    23150061.113
  23150063.664       -4172.990       -3245.635          37.400          26.600



 123096581.446 7  95919427.68044  23424499.164
  23424502.547        3110.592        2423.837          43.500          28.700



 126881916.136 7  98869091.881 6  24144819.898    24144823.258
  24144822.887       -3244.494       -2528.173          46.200          38.400



 131920771.934 6 102795418.628 5  25103687.781    25103692.316
  25103692.379        2190.249        1706.678          40.100          35.900



 105690074.459 8  82355922.948 8  20112145.398    20112148.023
  20112148.148        -621.568        -484.344          52.000          50.000



 127635553.386 5  99272109.943 6  23835041.469    23835042.797    23835040.371
  23835042.945         687.816         534.998          34.800          38.400



 106014199.023 8  82455512.829 8  19860030.148    19860031.742    19860029.191
  19860032.508        2429.585        1889.677          49.000          48.300



 134455433.836 6 104770483.80043  25586023.984
  25586022.855        1648.628        1284.632          41.100          19.300



 104662505.289 8  81404104.790 8  19558666.773    19558668.070    19558665.602
  19558668.582       -1618.592       -1258.884          50.100          48.500



 127895307.865 6  99474137.128 6  23950685.234    23950684.145    23950683.500
  23950683.602        4127.906        3210.617          39.500          37.000



 127527536.646 7  99372120.37144  24267678.656
  24267679.758       -2479.463       -1932.050          43.200          24.700



 105661203.140 7  82180948.177 7  19779998.617    19779999.199    19779997.273
  19779999.977        2084.857        1621.568          45.200          44.100



 111971892.745 8  87250862.333 7  21307531.398    21307536.762
  21307536.422       -2033.221       -1584.332          51.100          47.300
  83615428.363 8  21307537.426       -1518.310          53.200


 128695856.612 6 100096796.758 5  24041469.977    24041471.203    24041468.746
  24041470.711       -2146.239       -1669.290          40.100          35.600



 128583947.041 6 100009746.056 6  24037411.203    24037414.141    24037410.371
  24037414.727        4377.478        3404.680          37.400          37.900



 109683212.089 8  85467453.132 8  20872018.664    20872020.402
  20872020.102         254.568         198.361          50.800          48.300



 133420941.482 5 103964366.81742  25389159.461
  25389161.258        3381.492        2634.908          33.700          16.300



 133919189.601 6 104352725.448 6  25483995.734    25484002.152
  25484002.301       -3272.574       -2550.055          40.200          38.400
 100004690.762 6  25484001.574       -2443.793          41.000


 126274753.517 6  98213659.628 5  23688818.305    23688821.582    23688818.352
  23688820.953       -4068.290       -3164.205          41.800          35.500



 148729319.211 6                  28302248.836
                      -792.826                          38.300
 111064105.411 7  28302251.742        -592.040          42.600   113961427.899 6
  28302251.086        -607.484          41.700   112512775.257 7  28302252.180
      -599.762          47.600
 114238262.133 8                  21738813.273
                      -145.923                          50.400
  85307786.263 8  21738816.672        -108.966          52.300    87533205.476 8
  21738815.734        -111.812          52.400    86420487.975 9  21738816.738
      -110.386          58.800
 140613769.299 5                  26757912.586
                     -2389.375                          34.400
 105003793.883 6  26757915.016       -1784.260          36.000   107743019.351 5
  26757915.109       -1830.803          35.600   106373412.223 6  26757915.488
     -1807.538          41.300
 139748113.991 6                  26593182.297
                      2846.677                          40.200
 104357341.525 6  26593195.668        2125.769          39.600   107079713.437 5
  26593192.949        2181.223          35.700   105718515.592 7  26593195.191
      2153.497          43.300
 123958446.484 8                  23588505.070
                      -951.687                          51.000
  92566424.751 8  23588507.539        -710.678          53.300    94981200.302 8
  23588506.883        -729.216          53.300    93773816.630 9  23588507.441
      -719.947          59.200
 202638126.061 6                  38560766.125
                        93.691                          40.400



 108166056.923 7  84129183.150 6  20241796.922    20241801.422    20241797.066
  20241801.480       -2502.796       -1946.609          47.000          39.800



 18  1 21 21 12 30.0000000  0 28G14G26R24G21G12G05G29R08R18G23R17R09
                                G02R16G25R07R19G31G16G32R14E05E26E09
                                E24E01S20R15
 126269574.447 6  98391917.22343  24028309.539
  24028311.652       -2788.333       -2172.719          39.600          21.500



 120336946.935 7  93769079.833 7  22899358.031    22899363.910
  22899363.820        2888.780        2251.004          43.200          44.100
  89862034.910 8  22899362.309        2157.205          48.000


 123919072.494 6  96381510.950 4  23173487.016    23173487.727    23173485.676
  23173488.555       -4177.275       -3248.981          37.300          26.000



 123003369.544 7  95846795.04744  23406762.281
  23406765.199        3103.740        2418.494          43.500          29.100



 126979299.281 7  98944974.837 6  24163351.156    24163354.016
  24163354.188       -3247.612       -2530.612          45.500          38.900



 131855230.543 6 102744347.416 6  25091216.305    25091220.586
  25091220.328        2179.512        1698.341          40.600          36.200



 105708961.801 8  82370640.353 8  20115739.289    20115742.547
  20115742.594        -637.065        -496.418          51.900          50.500



 127615296.130 5  99256354.306 6  23831257.992    23831259.762    23831257.480
  23831260.113         663.377         515.998          35.100          38.700



 105941631.537 8  82399071.464 7  19846436.047    19846437.438    19846435.207
  19846438.027        2408.932        1873.610          49.000          47.600



 134406207.366 6 104732125.53043  25576656.461
  25576655.703        1633.632        1272.968          40.500          19.600



 104711394.955 8  81442130.099 8  19567803.234    19567804.922    19567801.945
  19567805.133       -1639.960       -1275.525          49.900          48.700



 127771470.598 6  99377819.287 6  23927493.547    23927493.832    23927493.102
  23927494.379        4127.894        3210.582          39.000          37.700



 127602084.752 7  99430209.82644  24281866.000
  24281865.664       -2490.064       -1940.306          43.700          25.300



 105598927.426 7  82132511.519 7  19768340.523    19768341.043    19768339.531
  19768341.984        2067.422        1607.987          44.800          43.900



 112033051.583 8  87298518.568 7  21319169.664    21319174.938
  21319174.598       -2043.667       -1592.465          51.600          47.200
  83661098.922 8  21319175.719       -1526.114          52.700


 128760542.931 6 100147108.324 6  24053554.094    24053555.586    24053552.277
  24053554.824       -2165.524       -1684.290          39.900          36.800



 128452683.592 6  99907652.246 6  24012874.195    24012876.090    24012872.895
  24012876.215        4373.579        3401.686          36.400          37.900



 109675865.274 8  85461728.333 8  20870620.477    20870622.883
  20870622.824         235.846         183.776          50.700          48.100



 133319500.58415                  25369854.055
                      3381.682                          31.200



 134017345.131 6 104429210.251 6  25502673.586    25502681.125
  25502680.320       -3271.153       -2548.945          40.500          38.800
 100077988.685 6  25502679.652       -2442.735          41.800


 126396886.311 6  98308651.782 6  23711731.148    23711734.109    23711729.902
  23711733.328       -4073.711       -3168.439          41.600          36.100



 148753306.448 6                  28306814.305
                      -805.872                          39.500
 111082017.946 7  28306816.762        -601.795          42.100   113979807.707 7
  28306816.012        -617.494          42.300   112530921.424 7  28306816.746
      -609.637          47.700
 114242847.543 8                  21739685.766
                      -159.296                          50.900
  85311210.444 8  21739689.332        -118.960          52.700    87536718.979 8
  21739688.488        -122.061          53.000    86423956.812 9  21739689.348
      -120.508          58.700
 140685522.603 6                  26771567.383
                     -2394.073                          36.100
 105057375.928 5  26771569.586       -1787.776          35.800   107797999.197 5
  26771568.039       -1834.411          32.100   106427693.170 6  26771569.883
     -1811.101          39.800
 139662700.487 6                  26576928.820
                      2847.542                          40.000
 104293558.696 6  26576940.938        2126.412          37.500   107014266.696 6
  26576939.719        2181.882          36.900   105653900.801 7  26576941.332
      2154.147          42.800
 123987155.785 8                  23593968.367
                      -961.922                          51.700
  92587863.499 8  23593970.500        -718.316          52.900    95003198.326 8
  23593970.031        -737.058          53.100    93795535.015 9  23593970.527
      -727.684          59.200
 202635311.708 6                  38560232.156
                        93.823                          40.900



 108241411.828 7  84187792.510 6  20255899.000    20255903.691    20255898.793
  20255903.414       -2520.305       -1960.227          46.700          40.500



 18  1 21 21 13  0.0000000  0 28G14G26R24G21G12G05G29R08R18G23R17R09
                                G02R16G25R07R19G31G16G32R14E05E26E09
                                E24E01S20R15
 126353338.695 6  98457188.03243  24044250.500
  24044251.809       -2795.604       -2178.395          38.900          20.400



 120250359.350 7  93701609.020 7  22882881.531    22882886.867
  22882886.902        2883.900        2247.192          43.900          43.100
  89797375.367 8  22882885.504        2153.560          48.600


 124044456.486 6  96479031.847 4  23196933.516    23196934.883    23196933.234
  23196935.832       -4181.458       -3252.289          37.200          26.500



 122910363.421 7  95774322.75744  23389063.227
  23389066.555        3096.844        2413.125          43.400          28.600



 127076776.024 7  99020930.707 6  24181899.984    24181904.211
  24181903.977       -3250.738       -2533.037          44.900          39.000



 131790010.940 6 102693526.980 6  25078804.711    25078808.887
  25078809.211        2168.777        1689.942          39.600          36.500



 105728313.167 8  82385719.332 8  20119422.141    20119425.090
  20119424.633        -652.514        -508.452          51.700          50.400



 127595771.379 5  99241168.448 6  23827613.664    23827614.414    23827611.039
  23827614.406         639.054         496.981          33.700          39.100



 105869683.948 8  82343112.229 7  19832957.883    19832958.945    19832956.336
  19832959.301        2388.234        1857.518          49.100          47.800



 134357431.394 6 104694118.30143  25567373.945
  25567374.645        1618.578        1261.239          40.700          21.500



 104760923.936 8  81480652.654 8  19577058.867    19577060.559    19577057.930
  19577060.898       -1661.240       -1292.086          50.200          48.600



 127647635.389 6  99281502.972 6  23904303.086    23904303.117    23904301.820
  23904302.797        4127.772        3210.507          38.900          37.900



 127676949.851 7  99488546.26144  24296111.000
  24296112.246       -2500.619       -1948.529          42.500          24.100



 105537176.212 7  82084482.786 7  19756780.227    19756780.262    19756779.117
  19756781.773        2049.881        1594.360          44.900          44.000



 112094523.486 8  87346418.748 7  21330867.344    21330872.594
  21330872.406       -2054.094       -1600.588          51.000          47.200
  83707003.260 8  21330873.473       -1533.899          52.700


 128825807.232 6 100197869.503 6  24065746.000    24065748.164    24065745.121
  24065746.102       -2184.767       -1699.282          38.400          36.000



 128321537.492 6  99805649.757 6  23988358.711    23988360.215    23988356.824
  23988359.688        4369.613        3398.609          37.000          37.300



 109669081.202 8  85456442.036 8  20869329.352    20869331.852
  20869331.590         217.066         169.149          50.400          49.300



 133218061.945 5                  25350551.852
                      3381.218                          33.800



 134115455.981 6 104505660.231 6  25521343.500    25521350.391
  25521350.234       -3269.610       -2547.750          40.400          38.100
 100151253.276 6  25521349.625       -2441.587          41.300


 126519179.398 6  98403768.641 6  23734672.164    23734675.590    23734671.508
  23734674.953       -4078.998       -3172.585          41.600          36.700



 148777684.890 6                  28311453.461
                      -818.919                          38.700
 111100222.673 6  28311454.824        -611.535          40.300   113998487.307 6
  28311454.824        -627.487          41.900   112549363.595 7  28311455.473
      -619.516          46.400
 114247833.580 8                  21740634.664
                      -172.659                          51.200
  85314933.786 8  21740638.215        -128.933          52.400    87540539.449 8
  21740637.230        -132.293          52.900    86427728.726 9  21740638.117
      -130.620          58.800
 140757415.346 5                  26785247.711
                     -2398.645                          33.900
 105111061.993 6  26785251.176       -1791.202          37.700   107853085.786 5
  26785249.582       -1837.924          34.900   106482079.493 7  26785250.742
     -1814.556          42.300
 139577261.796 7                  26560670.516
                      2848.349                          42.000
 104229757.041 6  26560682.742        2127.018          39.700   106948800.682 6
  26560681.383        2182.497          39.400   105589266.970 7  26560683.133
      2154.753          45.100
 124016171.592 8                  23599489.641
                      -972.137                          51.400
  92609531.136 8  23599492.031        -725.947          53.100    95025431.205 8
  23599491.516        -744.881          53.200    93817485.274 9  23599492.070
      -735.416          59.200
 202632492.194 6                  38559691.266
                        93.899                          40.400



 108317291.492 7  84246810.032 6  20270098.492    20270102.723    20270097.934
  20270102.715       -2537.756       -1973.815          46.700          41.000



 18  1 21 21 13 30.0000000  0 28G14G26R24G21G12G05G29R08R18G23R17R09
                                G02R16G25R07R19G31G16G32R14E05E26E09
                                E24E01S20R15
 126437320.293 6  98522628.19143  24060229.578
  24060233.551       -2802.870       -2184.047          38.400          21.100



 120163918.921 7  93634252.836 7  22866431.898    22866437.457
  22866437.688        2878.940        2243.331          43.700          42.700
  89732825.702 8  22866436.934        2149.853          48.200


 124169964.207 6  96576622.907 3  23220403.938    23220404.523    23220403.066
  23220405.941       -4185.529       -3255.399          37.500          23.900



 122817565.082 7  95702012.37344  23371404.633
  23371407.188        3089.882        2407.708          44.100          28.200



 127174345.432 7  99096958.802 6  24200467.016    24200471.055
  24200470.184       -3253.810       -2535.436          45.600          37.900



 131725115.999 6 102642959.509 5  25066455.398    25066459.512
  25066460.203        2157.902        1681.476          39.500          35.500



 105748127.393 8  82401158.990 8  20123192.781    20123195.422
  20123195.145        -667.936        -520.465          53.200          49.800



 127576980.523 5  99226553.328 6  23824102.766    23824104.734    23824102.371
  23824104.793         614.541         477.972          32.800          38.000



 105798357.990 8  82287636.497 7  19819596.438    19819597.340    19819595.008
  19819598.102        2367.479        1841.365          49.600          43.300



 134309107.164 6 104656463.04043  25558177.914
  25558178.875        1603.519        1249.475          41.700          21.100



 104811089.395 8  81519670.221 7  19586433.172    19586434.629    19586432.234
  19586435.113       -1682.424       -1308.548          50.900          47.000



 127523804.578 6  99185190.151 5  23881114.250    23881113.336    23881112.633
  23881113.473        4127.569        3210.329          40.000          33.700



 127752129.919 7  99547128.13544  24310418.922
  24310418.438       -2511.060       -1956.674          43.300          26.100



 105475952.626 7  82036864.443 6  19745320.258    19745319.742    19745317.973
  19745320.637        2032.219        1580.620          44.500          40.200



 112156307.716 8  87394562.294 7  21342624.625    21342629.941
  21342629.094       -2064.509       -1608.704          51.500          47.000
  83753140.823 8  21342630.332       -1541.675          53.000


 128891646.446 6 100249077.770 6  24078045.617    24078047.125    24078044.855
  24078046.738       -2203.882       -1714.124          40.500          36.200



 128190511.442 6  99703740.614 6  23963864.688    23963864.699    23963862.215
  23963865.410        4365.528        3395.431          37.200          36.400



 109662860.021 8  85451594.364 8  20868145.781    20868148.090
  20868148.051         198.284         154.505          50.900          48.000



 133116627.682 5                  25331249.359
                      3381.051                          34.600



 134213519.313 6 104582073.176 6  25540004.656    25540011.316
  25540011.066       -3268.021       -2546.495          40.700          38.300
 100224482.367 6  25540010.809       -2440.407          41.400


 126641630.821 6  98499008.565 5  23757642.742    23757647.492    23757642.789
  23757646.359       -4084.250       -3176.611          40.800          31.000



 148802453.761 6                  28316166.195
                      -831.934                          38.200
 111118718.914 6  28316168.387        -621.249          40.900   114017466.052 6
  28316167.168        -637.453          39.400   112568101.085 7  28316168.656
      -629.349          45.900
 114253219.615 8                  21741659.430
                      -185.965                          50.400
  85318955.835 8  21741663.000        -138.873          53.000    87544666.423 8
  21741662.297        -142.493          52.900    86431803.232 9  21741662.965
      -140.682          58.800
 140829445.755 6                  26798954.758
                     -2403.258                          37.100
 105164850.856 5  26798957.598       -1794.645          35.800   107908277.840 5
  26798956.285       -1841.457          33.900   106536569.956 6  26798957.512
     -1818.048          40.400
 139491798.606 7                  26544407.313
                      2849.154                          42.000
 104165937.141 6  26544419.891        2127.622          40.400   106883315.900 6
  26544418.391        2183.116          39.300   105524614.625 7  26544419.887
      2155.368          45.500
 124045494.041 8                  23605069.531
                      -982.370                          51.500
  92631427.761 8  23605072.027        -733.589          52.800    95047899.048 8
  23605071.324        -752.725          53.200    93839667.505 9  23605072.023
      -743.151          59.200
 202629670.768 6                  38559160.516
                        94.093                          39.900



 108393695.260 7  84306235.167 6  20284396.477    20284400.336    20284396.152
  20284400.828       -2555.237       -1987.406          46.400          37.100



 18  1 21 21 14  0.0000000  0 28G14G26R24G21G12G05G29R08R18G23R17R09
                                G02R16G25R07R19G31G16G32R14E05E26E09
                                E24E01S20R15
 126521516.262 6  98588235.40143  24076252.352
  24076255.203       -2809.937       -2189.567          37.300          19.900



 120077626.753 7  93567012.180 7  22850011.148    22850016.426
  22850016.746        2874.008        2239.486          44.200          43.500
  89668386.752 8  22850015.816        2146.176          49.100


 124295592.462 6  96674337.770 3  23243897.148    23243898.754    23243895.926
  23243899.934       -4189.567       -3258.520          36.900          22.800



 122724977.044 7  95629865.85344  23353785.320
  23353788.281        3082.855        2402.229          42.600          28.700



 127272006.535 7  99173058.330 6  24219051.008    24219054.738
  24219054.742       -3256.864       -2537.813          44.400          38.000



 131660548.549 6 102592647.187 5  25054169.664    25054172.848
  25054172.871        2146.911        1672.917          40.000          35.800



 105768403.046 8  82416958.213 8  20127050.969    20127053.980
  20127053.684        -683.286        -532.434          52.200          49.800



 127558924.457 5  99212509.708 6  23820729.398    23820733.297    23820729.121
  23820733.078         589.939         458.871          33.000          38.200



 105727655.526 8  82232645.702 7  19806351.031    19806352.797    19806350.191
  19806353.141        2346.664        1825.196          49.300          43.200



 134261236.139 6 104619160.92643  25549068.859
  25549069.656        1588.357        1237.688          41.800          20.600



 104861888.333 8  81559180.490 7  19595926.539    19595927.430    19595925.016
  19595927.965       -1703.485       -1324.924          50.300          46.900



 127399980.415 6  99088882.470 5  23857926.289    23857925.953    23857925.141
  23857925.320        4127.303        3210.137          39.400          33.400



 127827622.708 7  99605953.68443  24324784.109
  24324784.191       -2521.453       -1964.773          43.100          22.600



 105415259.546 7  81989658.707 6  19733957.563    19733957.039    19733956.336
  19733958.715        2014.505        1566.829          45.100          39.900



 112218403.548 8  87442948.649 7  21354440.930    21354446.191
  21354445.840       -2074.866       -1616.776          52.000          46.900
  83799511.083 8  21354447.195       -1549.409          52.800


 128958056.924 6 100300730.362 6  24090451.039    24090453.184    24090450.980
  24090453.270       -2222.788       -1728.832          40.400          37.200



 128059607.963 6  99601926.858 6  23939392.695    23939395.238    23939391.746
  23939395.180        4361.462        3392.216          37.600          36.200



 109657202.393 8  85447185.817 8  20867069.008    20867071.594
  20867071.543         179.486         139.855          50.300          48.700



 133015198.344 5                  25311948.531
                      3380.891                          33.100



 134311532.410 6 104658447.013 6  25558656.188    25558662.453
  25558662.230       -3266.305       -2545.178          41.200          37.600
 100297673.924 6  25558661.445       -2439.122          40.800


 126764238.266 6  98594369.937 5  23780645.711    23780648.207    23780643.645
  23780647.957       -4089.379       -3180.656          41.800          31.900



 148827612.145 6                  28320953.656
                      -844.909                          39.200
 111137506.037 6  28320955.617        -630.930          40.800   114036743.271 6
  28320955.477        -647.394          41.000   112587133.259 7  28320956.098
      -639.162          46.100
 114259005.029 8                  21742760.461
                      -199.280                          51.000
  85323276.120 8  21742763.992        -148.818          52.800    87549099.402 8
  21742763.102        -152.697          52.700    86436179.862 9  21742763.836
      -150.754          58.900
 140901611.745 5                  26812687.914
                     -2407.712                          33.600
 105218741.025 6  26812690.316       -1797.958          36.700   107963573.873 5
  26812690.035       -1844.858          35.300   106591163.053 6  26812690.723
     -1821.412          41.500
 139406311.567 6                  26528139.523
                      2849.929                          39.800
 104102099.406 6  26528151.977        2128.196          39.600   106817812.845 6
  26528150.148        2183.714          38.300   105459944.230 7  26528152.449
      2155.952          44.700
 124075123.213 8                  23610707.883
                      -992.588                          50.900
  92653553.435 8  23610710.016        -741.221          53.600    95070601.916 8
  23610709.500        -760.557          53.100    93862081.776 9  23610710.164
      -750.884          59.200
 202626847.394 6                  38558626.172
                        94.336                          38.900



 108470621.607 7  84366066.762 6  20298792.414    20298797.238    20298791.973
  20298796.977       -2572.611       -2000.923          47.500          36.300



 18  1 21 21 14 30.0000000  0 28G14G26R24G21G12G05G29R08R18G23R17R09
                                G02R16G25R07R19G31G16G32R14E05E26E09
                                E24E01S20R15
 126605923.334 6  98654007.09443  24092313.781
  24092317.938       -2816.910       -2194.997          37.300          21.100



 119991484.042 7  93499887.990 7  22833618.758    22833624.109
  22833624.410        2869.003        2235.585          44.300          43.400
  89604059.416 8  22833623.484        2142.437          48.800


 124421337.868 6  96772141.756 3  23267411.828    23267415.520    23267411.781
  23267415.645       -4193.399       -3261.521          37.400          22.700



 122632601.645 7  95557885.03744  23336207.648
  23336210.188        3075.693        2396.644          42.900          28.900



 127369758.915 7  99249229.016 6  24237652.461    24237656.469
  24237656.246       -3259.890       -2540.171          44.900          38.500



 131596311.403 6 102542592.342 6  25041945.773    25041949.000
  25041949.188        2135.887        1664.327          39.900          36.000



 105789138.795 8  82433115.932 8  20130996.844    20130999.648
  20130999.375        -698.611        -544.375          53.000          49.800



 127541603.814 5  99199038.090 6  23817496.484    23817497.836    23817494.918
  23817498.035         565.456         439.826          33.700          38.700



 105657577.875 8  82178140.872 7  19793222.914    19793224.672    19793221.957
  19793225.230        2325.809        1808.962          48.700          43.200



 134213819.910 6 104582213.22943  25540045.977
  25540046.762        1573.175        1225.853          40.800          20.400



 104913317.849 8  81599181.228 7  19605537.258    19605538.578    19605535.852
  19605538.719       -1724.500       -1341.276          50.400          46.900



 127276165.426 6  98992581.855 5  23834739.016    23834738.938    23834738.570
  23834739.219        4126.955        3209.886          39.900          33.200



 127903426.057 7  99665021.23644  24339208.570
  24339209.484       -2531.790       -1972.829          43.200          24.400



 105355099.616 7  81942867.656 6  19722695.258    19722696.273    19722695.086
  19722697.238        1996.650        1552.963          45.000          40.300



 112280810.178 8  87491577.182 7  21366316.617    21366321.852
  21366321.652       -2085.237       -1624.857          52.800          46.600
  83846113.424 8  21366322.832       -1557.157          52.900


 129025035.256 6 100352824.648 5  24102961.891    24102965.094    24102962.418
  24102964.809       -2241.745       -1743.604          39.700          35.100



 127928829.381 6  99500210.148 6  23914945.039    23914946.934    23914942.918
  23914946.859        4357.177        3388.935          37.100          36.500



 109652108.865 8  85443216.828 8  20866099.945    20866102.176
  20866101.980         160.658         125.188          50.700          48.700



 132913774.140 5                  25292647.453
                      3380.693                          34.300



 134409492.287 6 104734779.362 6  25577297.578    25577303.914
  25577303.281       -3264.475       -2543.765          40.700          37.500
 100370825.762 6  25577303.375       -2437.748          41.300


 126886999.596 6  98689850.944 5  23803674.148    23803678.012    23803673.609
  23803677.613       -4094.502       -3184.625          41.800          31.700



 148853158.881 6                  28325814.969
                      -857.843                          39.000
 111156583.124 6  28325817.074        -640.595          40.800   114056318.028 6
  28325817.309        -657.304          41.100   112606459.178 7  28325817.695
      -648.952          46.300
 114265189.067 8                  21743937.094
                      -212.579                          50.500
  85327894.075 8  21743940.887        -158.743          52.600    87553837.824 8
  21743939.902        -162.885          52.900    86440858.054 9  21743940.590
      -160.815          58.900
 140973911.340 5                  26826446.227
                     -2412.214                          34.800
 105272730.896 6  26826447.684       -1801.328          38.700   108018972.170 6
  26826447.355       -1848.318          37.500   106645857.137 7  26826448.684
     -1824.820          43.600
 139320801.473 6                  26511867.367
                      2850.660                          38.700
 104038244.507 6  26511879.230        2128.740          37.800   106752292.135 6
  26511878.199        2184.277          36.800   105395256.422 7  26511880.230
      2156.509          43.100
 124105059.161 8                  23616404.500
                     -1002.837                          50.800
  92675908.192 8  23616406.777        -748.874          53.400    95093539.843 8
  23616406.215        -768.406          53.100    93884728.118 9  23616406.789
      -758.638          59.300
 202624024.920 6                  38558082.672
                        94.007                          39.900



 108548069.170 7  84426303.741 6  20313286.023    20313290.035    20313285.348
  20313289.621       -2589.979       -2014.420          47.000          36.500



 18  1 21 21 15  0.0000000  0 28G14G26R24G21G12G05G29R08R18G23R17R09
                                G02R16G25R07R19G31G16G32R14E05E26E09
                                E24E01S20R15
 126690538.670 6  98719941.06843  24108416.383
  24108419.387       -2823.833       -2200.382          37.100          20.900



 119905492.380 7  93432881.512 7  22817254.484    22817261.238
  22817261.332        2863.964        2231.656          44.600          44.300
  89539844.882 8  22817260.285        2138.668          48.900


 124547197.323 6                  23290947.844    23290951.473    23290947.680
                     -4197.127                          36.400



 122540441.169 7  95486071.69244  23318669.305
  23318671.922        3068.535        2391.073          42.800          29.400



 127467601.550 7  99325469.992 6  24256271.648    24256275.840
  24256275.293       -3262.849       -2542.475          45.700          38.400



 131532406.919 6 102492796.624 5  25029784.398    25029788.500
  25029788.586        2124.763        1655.653          40.400          35.300



 105810333.724 8  82449631.461 8  20135030.258    20135032.793
  20135032.688        -713.860        -556.257          52.600          49.200



 127525019.801 5  99186139.442 6  23814399.844    23814402.246    23814399.098
  23814402.227         541.018         420.754          33.200          38.500



 105588127.085 8  82124123.607 7  19780212.281    19780213.711    19780210.734
  19780214.387        2304.943        1792.731          48.800          43.300



 134166860.157 6 104545621.19043  25531108.992
  25531111.113        1557.949        1213.995          39.000          18.600



 104965375.375 8  81639670.431 7  19615265.766    19615266.098    19615263.773
  19615266.516       -1745.318       -1357.472          50.700          46.500



 127152362.083 6  98896290.403 5  23811553.844    23811555.219    23811553.516
  23811555.523        4126.572        3209.547          38.600          35.100



 127979538.263 7  99724329.45744  24353692.117
  24353692.309       -2542.001       -1980.778          43.900          24.900



 105295476.244 7  81896493.920 6  19711533.477    19711534.258    19711532.602
  19711535.738        1978.823        1539.087          44.900          40.200



 112343527.301 8  87540447.651 7  21378251.266    21378257.031
  21378256.520       -2095.544       -1632.885          52.400          47.100
  83892947.625 8  21378257.641       -1564.851          52.800


 129092578.249 6 100405358.054 6  24115580.047    24115583.270    24115579.988
  24115582.621       -2260.507       -1758.148          40.200          36.100



 127798179.051 6  99398593.322 5  23890521.234    23890523.258    23890519.465
  23890523.441        4352.981        3385.619          38.300          35.600



 109647580.285 8  85439688.051 8  20865238.227    20865240.500
  20865240.324         141.878         110.557          50.800          48.200



 132812356.537 6 103490144.92642  25273349.109
  25273350.648        3380.495        2634.164          36.000          15.600



 134507396.613 6 104811068.365 6  25595928.063    25595933.680
  25595933.879       -3262.542       -2542.234          40.200          36.600
 100443936.113 6  25595933.094       -2436.313          40.100


 127009912.953 7  98785450.202 5  23826733.719    23826736.098    23826732.828
  23826736.359       -4099.471       -3188.504          42.300          32.300



 148879093.473 6                  28330750.055
                      -870.710                          38.400
 111175949.848 6  28330752.230        -650.206          39.600   114076189.977 6
  28330751.949        -667.171          41.300   112626078.518 7  28330752.766
      -658.692          45.700
 114271771.479 8                  21745189.578
                      -225.808                          50.700
  85332809.516 8  21745193.453        -168.620          52.900    87558881.496 8
  21745192.516        -173.022          52.800    86445837.611 9  21745193.246
      -170.818          58.900
 141046342.677 5                  26840228.945
                     -2416.450                          34.900
 105326819.195 6  26840231.516       -1804.493          36.600   108074471.460 6
  26840231.703       -1851.565          37.000   106700650.928 7  26840231.688
     -1828.021          42.700
 139235269.389 6                  26495591.047
                      2851.459                          39.800
 103974373.116 6  26495603.379        2129.338          38.700   106686754.582 6
  26495602.582        2184.883          37.800   105330551.956 7  26495604.289
      2157.108          43.800
 124135302.330 8                  23622159.602
                     -1013.022                          51.700
  92698492.366 8  23622161.629        -756.476          53.100    95116713.175 8
  23622161.066        -776.210          53.300    93907606.873 9  23622161.824
      -766.343          59.200
 202621203.805 6                  38557556.516
                        94.021                          39.200



 108626036.051 7  84486944.660 6  20327876.094    20327880.465    20327875.887
  20327880.223       -2607.261       -2027.874          47.000          36.700



 18  1 21 21 15 30.0000000  0 27G14G26R24G21G12G05G29R08R18G23R17R09
                                G02R16G25R07R19G31G16G32R14E05E26E24
                                E01S20R15
 126775359.477 6  98786035.14943  24124556.859
  24124560.043       -2830.648       -2205.683          37.100          19.000



 119819652.914 7  93365993.626 7  22800920.547    22800925.938
  22800926.504        2858.854        2227.675          44.500          43.000
  89475743.995 8  22800925.398        2134.857          48.000


 124673167.933 6  96968008.592 3  23314505.906    23314507.430    23314504.684
  23314508.375       -4200.780       -3267.281          37.300          22.700



 122448498.298 7  95414427.90744  23301173.398
  23301176.160        3061.208        2385.354          43.400          29.800



 127565533.642 7  99401780.681 6  24274907.172    24274911.563
  24274911.406       -3265.869       -2544.833          43.600          37.700



 131468838.053 6 102443262.464 6  25017688.180    25017691.270
  25017691.313        2113.551        1646.920          40.900          36.000



 105831986.400 8  82466503.679 8  20139150.508    20139153.418
  20139153.367        -729.124        -568.145          52.800          49.900



 127509173.467 5  99173814.507 6  23811439.359    23811442.223    23811440.023
  23811442.750         516.301         401.583          34.300          37.900



 105519304.569 8  82070594.976 7  19767320.227    19767321.848    19767319.152
  19767322.570        2283.899        1776.371          49.300          44.100



 134120358.197 6 104509385.90442  25522260.125
  25522260.773        1542.703        1202.112          39.100          17.800



 105018057.919 8  81680645.747 7  19625110.109    19625111.441    19625109.289
  19625111.934       -1766.132       -1373.662          50.100          47.000



 127028572.997 6  98800010.004 5  23788373.070    23788372.848    23788371.688
  23788372.871        4126.054        3209.135          40.200          33.800



 128055956.974 7  99783876.49843  24368234.492
  24368234.289       -2552.208       -1988.736          44.100          23.400



 105236392.081 7  81850539.584 6  19700472.766    19700472.766    19700471.188
  19700474.477        1960.752        1525.026          43.800          40.600



 112406554.108 8  87589559.438 7  21390245.125    21390250.379
  21390250.141       -2105.876       -1640.942          52.100          47.200
  83940013.082 8  21390251.027       -1572.563          53.200


 129160682.820 6 100458328.292 5  24128303.484    24128305.250    24128302.137
  24128304.996       -2279.154       -1772.696          39.700          35.300



 127667659.190 6  99297077.890 6  23866121.859    23866123.816    23866120.324
  23866124.031        4348.530        3382.190          37.800          36.400



 109643617.031 8  85436599.797 8  20864483.953    20864485.813
  20864485.758         123.000          95.846          50.800          48.400



 132710945.706 5 103411123.53442  25254051.938
  25254052.918        3380.218        2633.930          35.800          14.800



 134605242.499 6 104887311.899 5  25614546.289    25614553.574
  25614553.676       -3260.557       -2540.700          37.500          35.300
 100517002.797 6  25614553.066       -2434.837          40.000


 127132976.110 7  98881165.971 5  23849819.922    23849823.305    23849819.031
  23849822.879       -4104.535       -3192.388          42.100          31.500



 148905414.832 6                  28335758.086
                      -883.592                          37.300
 111195605.432 6  28335761.191        -659.815          39.600   114096358.275 6
  28335760.863        -677.035          40.200   112645990.461 7  28335761.117
      -668.431          45.100
 114278751.543 8                  21746517.961
                      -239.068                          50.500
  85338021.911 8  21746521.766        -178.524          52.600    87564229.861 8
  21746520.828        -183.175          53.100    86451117.994 9  21746521.555
      -180.853          58.900
 139149716.123 6                  26479310.367
                      2852.079                          38.500
 103910485.954 6  26479323.102        2129.798          37.900   106621200.757 6
  26479321.789        2185.355          37.400   105265831.463 7  26479323.590
      2157.576          42.900
 124165852.801 8                  23627973.195
                     -1023.306                          51.500
  92721306.026 8  23627975.297        -764.159          52.700    95140121.970 8
  23627974.688        -784.093          53.000    93930718.100 9  23627975.457
      -774.121          59.200
 202618381.340 6                  38557004.297
                        94.046                          39.200



 108704521.106 7  84547988.556 6  20342563.438    20342567.992    20342563.465
  20342567.660       -2624.535       -2041.301          47.500          36.500



 18  1 21 21 16  0.0000000  0 27G14G26R24G21G12G05G29R08R18G23R17R09
                                G02R16G25R07R19G31G16G32R14E05E26E24
                                E01S20R15
 126860382.346 6  98852286.67843  24140736.625
  24140739.328       -2837.343       -2210.920          37.000          18.600



 119733966.719 7  93299225.172 7  22784614.750    22784620.012
  22784620.414        2853.722        2223.680          45.300          43.000
  89411757.556 7  22784619.254        2131.022          47.400


 124799246.252 6  97066074.496 3  23338083.516    23338084.625    23338081.473
  23338086.746       -4204.335       -3270.040          36.600          22.500



 122356775.185 7  95342955.36644  23283718.953
  23283721.656        3053.864        2379.627          43.000          28.800



 127663554.620 7  99478160.657 6  24293560.430    24293564.527
  24293563.898       -3268.795       -2547.111          43.700          37.100



 131405608.069 6 102393992.400 5  25005656.063    25005658.703
  25005658.340        2102.116        1638.006          39.200          34.300



 105854095.753 8  82483731.749 8  20143357.883    20143360.746
  20143360.457        -744.341        -580.003          53.400          50.200



 127494064.915 5  99162063.437 6  23808618.305    23808620.707    23808619.203
  23808621.402         491.760         382.452          33.300          38.100



 105451111.828 8  82017556.196 7  19754544.352    19754547.094    19754544.098
  19754547.426        2262.915        1760.057          49.400          43.600



 134074315.572 6 104473508.51542  25513498.711
  25513499.051        1527.349        1190.158          38.300          17.800



 105071362.396 8  81722104.784 7  19635071.703    19635072.473    19635069.828
  19635072.832       -1786.837       -1389.761          50.300          46.500



 126904800.340 6  98703742.389 5  23765193.789    23765194.609    23765193.578
  23765194.762        4125.433        3208.682          40.400          34.600



 128132680.026 7  99843660.70744  24382834.594
  24382834.398       -2562.314       -1996.613          44.600          24.300



 105177850.057 7  81805006.884 6  19689512.961    19689514.820    19689512.672
  19689515.727        1942.594        1510.916          43.700          40.600



 112469889.719 8  87638911.848 7  21402297.641    21402302.984
  21402302.516       -2116.168       -1648.966          52.900          46.700
  83987309.144 8  21402303.344       -1580.259          52.800


 129229344.949 6 100511732.187 6  24141129.836    24141132.395    24141128.723
  24141131.719       -2297.711       -1787.077          38.900          36.600



 127537272.383 6  99195665.968 6  23841746.398    23841749.598    23841746.039
  23841749.703        4344.079        3378.717          37.900          37.000



 109640219.389 8  85433952.275 7  20863837.344    20863839.465
  20863839.332         104.117          81.125          50.800          47.600



 132609542.842 6 103332108.39242  25234754.672
  25234756.387        3379.940        2633.713          36.500          14.800



 134703026.997 6 104963507.577 5  25633154.625    25633161.012
  25633160.879       -3258.457       -2539.066          38.100          34.800
 100590023.675 6  25633160.797       -2433.269          39.900


 127256186.846 7  98976996.546 5  23872934.211    23872936.789    23872932.965
  23872936.352       -4109.392       -3196.212          42.400          31.500



 148932121.966 6                  28340840.859
                      -896.449                          38.900
 111215549.083 6  28340843.500        -669.426          39.800   114116822.185 6
  28340844.348        -686.885          41.200   112666194.235 7  28340843.512
      -678.161          45.800
 114286128.417 8                  21747921.523
                      -252.304                          50.900
  85343530.625 8  21747925.473        -188.410          53.100    87569882.281 8
  21747924.395        -193.322          52.900    86456698.554 9  21747925.168
      -190.866          59.000
 139064142.254 6                  26463026.391
                      2852.771                          40.900
 103846583.361 6  26463038.895        2130.322          37.300   106555631.179 6
  26463038.098        2185.888          36.800   105201095.375 7  26463039.855
      2158.108          42.800
 124196710.475 8                  23633845.336
                     -1033.562                          51.000
  92744349.088 8  23633847.484        -771.818          53.200    95163766.167 8
  23633846.828        -791.951          52.900    93954061.730 9  23633847.676
      -781.880          59.200
 202615556.907 6                  38556470.344
                        94.028                          39.000



 108783522.675 7  84609434.223 6  20357347.516    20357351.957    20357347.543
  20357351.977       -2641.742       -2054.689          46.600          36.700



 18  1 21 21 16 30.0000000  0 28G14G26R24G21G12G05G29R08R18G23R17R09
                                G02R16G25R07R19G31G16R01G32R14E05E26
                                E24E01S20R15
 126945604.200 6  98918693.31043  24156954.016
  24156956.844       -2843.919       -2216.033          37.000          18.600



 119648435.086 7  93232577.143 7  22768338.000    22768344.016
  22768343.871        2848.552        2219.647          44.100          42.900
  89347886.535 7  22768342.824        2127.161          47.800


 124925428.839 6  97164205.505 3  23361678.648    23361683.051    23361679.773
  23361683.176       -4207.729       -3272.706          37.200          22.100



 122265274.091 7  95271655.82044  23266307.297
  23266309.512        3046.441        2373.858          44.300          29.000



 127761664.036 7  99554609.539 6  24312230.172    24312233.531
  24312233.430       -3271.715       -2549.379          44.100          37.900



 131342719.956 6 102344988.686 5  24993688.227    24993691.285
  24993691.059        2090.738        1629.145          39.200          34.000



 105876660.236 8  82501314.467 8  20147651.641    20147654.461
  20147654.516        -759.472        -591.796          52.600          50.300



 127479695.342 5  99150887.067 6  23805936.516    23805938.891    23805934.832
  23805938.293         467.036         363.263          32.900          38.700



 105383550.520 8  81965008.520 7  19741888.523    19741890.383    19741888.152
  19741890.863        2241.825        1743.661          49.100          43.100



 134028733.627 6 104437990.13542  25504824.391
  25504824.922        1511.949        1178.119          37.500          17.800



 105125285.810 8  81764045.234 7  19645148.148    19645149.602    19645146.742
  19645149.723       -1807.410       -1405.767          49.500          46.300



 126781046.522 6  98607489.396 5  23742017.703    23742019.473    23742017.258
  23742019.145        4124.795        3208.168          39.400          34.600



 128209705.285 7  99903680.38944  24397491.961
  24397491.832       -2572.373       -2004.439          43.700          24.800



 105119853.060 7  81759898.107 6  19678656.406    19678657.918    19678655.883
  19678658.797        1924.401        1496.774          44.200          40.600



 112533533.454 8  87688504.353 7  21414408.633    21414414.145
  21414413.773       -2126.419       -1656.945          52.300          47.200
  84034835.287 8  21414414.191       -1587.908          52.500


 129298561.128 6 100565567.008 6  24154060.250    24154062.504    24154059.020
  24154062.395       -2316.098       -1801.441          39.900          37.900



 127407021.211 6  99094359.552 6  23817397.688    23817400.504    23817396.035
  23817400.289        4339.494        3375.136          37.600          36.400



 109637387.773 8  85431745.819 8  20863298.688    20863300.492
  20863300.160          85.275          66.447          49.800          48.000



 132508148.398 6 103253099.75542  25215460.266
  25215461.848        3379.649        2633.495          37.500          15.600



 131882709.898 5                  24671391.797    24671395.707    24671390.020
                      2769.751                          32.200



 134800747.588 6 105039653.445 5  25651750.172    25651757.215
  25651756.707       -3256.295       -2537.360          37.600          35.500
 100662996.801 6  25651756.332       -2431.647          40.700


 127379543.012 7  99072940.221 5  23896075.055    23896078.535    23896074.633
  23896077.832       -4114.204       -3199.934          42.300          30.800



 148959213.834 6                  28345996.367
                      -909.279                          39.200
 111235780.009 6  28345998.566        -679.005          39.800   114137580.884 6
  28345998.238        -696.719          40.100   112686689.049 7  28345998.816
      -687.862          45.400
 114293901.468 8                  21749400.781
                      -265.482                          50.200
  85349335.180 8  21749404.637        -198.251          52.900    87575838.258 8
  21749403.512        -203.424          52.800    86462578.824 9  21749404.344
      -200.841          58.900
 138978548.591 6                  26446738.656
                      2853.449                          41.000
 103782665.965 6  26446752.051        2130.823          38.300   106490046.351 6
  26446750.457        2186.415          37.400   105136344.270 7  26446751.984
      2158.616          42.800
 124227875.483 8                  23639775.867
                     -1043.798                          51.000
  92767621.642 8  23639778.004        -779.456          53.400    95187645.834 8
  23639777.207        -799.788          52.400    93977637.846 9  23639778.090
      -789.628          59.200
 202612728.574 6                  38555931.359
                        94.124                          38.800



 108863040.128 7  84671281.102 6  20372228.828    20372233.270    20372228.387
  20372233.129       -2658.869       -2068.002          46.700          36.400



 18  1 21 21 17  0.0000000  0 28G14G26R24G21G12G05G29R08R18G23R17R09
                                G02R16G25R07R19G31G16R01G32R14E05E26
                                E24E01S20R15
 127031022.037 6  98985252.59543  24173208.648
  24173211.363       -2850.391       -2221.081          36.600          19.000



 119563059.168 7  93166050.452 7  22752092.000    22752097.320
  22752097.453        2843.328        2215.585          43.000          43.000
  89284131.791 8  22752096.758        2123.266          48.000


 125051712.783 6  97262432.84113  23385295.945    23385297.102    23385294.723
  23385298.164       -4211.099                          37.100          23.800



 122173997.383 7  95200531.12644  23248937.727
  23248939.938        3038.946        2368.005          43.700          27.700



 127859860.604 7  99631126.304 6  24330916.164    24330920.199
  24330920.090       -3274.620       -2551.647          45.000          37.400



 131280176.124 6 102296253.223 5  24981785.938    24981789.660
  24981789.020        2079.172        1620.133          39.200          35.200



 105899678.336 8  82519250.653 8  20152032.102    20152034.977
  20152034.793        -774.569        -603.565          52.600          50.000



 127466065.104 5  99140285.821 6  23803390.227    23803392.625    23803389.715
  23803392.355         442.422         344.087          32.600          39.000



 105316621.885 8  81912952.925 7  19729350.242    19729351.605    19729349.402
  19729352.250        2220.720        1727.227          48.900          43.000



 133983613.911 6 104402831.90842  25496237.664
  25496238.832        1496.553        1166.139          38.400          16.900



 105179825.345 8  81806464.858 7  19655340.023    19655341.301    19655338.734
  19655341.750       -1827.910       -1421.690          50.200          46.700



 126657314.066 6  98511253.038 5  23718847.883    23718847.891    23718847.555
  23718848.180        4124.033        3207.600          40.500          33.400



 128287030.584 7  99963933.88343  24412205.969
  24412206.570       -2582.342       -2012.211          44.100          23.500



 105062404.011 7  81715215.503 6  19667901.141    19667902.469    19667900.500
  19667903.695        1906.090        1482.531          44.100          39.800



 112597484.574 8  87738336.376 7  21426577.883    21426583.441
  21426583.160       -2136.638       -1664.914          52.000          47.400
  84082590.974 8  21426583.578       -1595.541          52.800


 129368327.833 6 100619829.982 6  24167092.008    24167094.980    24167092.184
  24167095.355       -2334.434       -1815.648          38.600          36.900



 127276908.025 6  98993160.440 5  23793074.078    23793076.395    23793073.012
  23793076.504        4334.819        3371.536          37.100          35.600



 109635122.412 8  85429980.591 7  20862867.523    20862869.516
  20862869.027          66.371          51.715          51.200          47.900



 132406763.134 6 103174098.22543  25196167.164
  25196169.531        3379.328        2633.242          39.100          18.600



 131799848.722 6 102511025.523 3  24655889.359    24655892.313    24655888.871
  24655895.543        2754.770        2142.592          36.700          22.300



 134898401.321 6 105115747.249 6  25670333.047    25670339.148
  25670339.496       -3254.020       -2535.589          38.300          36.200
 100735920.015 6  25670338.941       -2429.946          40.300


 127503042.271 7  99168995.208 5  23919244.227    23919246.145    23919242.863
  23919245.344       -4118.946       -3203.649          42.900          30.400



 148986689.410 6                  28351225.016
                      -922.032                          39.400
 111256297.482 6  28351227.152        -688.538          40.500   114158633.602 6
  28351227.480        -706.487          40.500   112707474.143 7  28351227.598
      -697.508          45.500
 114302070.020 8                  21750955.180
                      -278.665                          50.800
  85355435.074 8  21750959.199        -208.094          53.300    87582097.281 8
  21750958.027        -213.522          52.900    86468758.286 9  21750958.891
      -210.813          58.900
 138892935.951 6                  26430446.555
                      2854.028                          39.600
 103718734.410 6  26430459.676        2131.253          38.900   106424447.029 6
  26430458.691        2186.853          39.200   105071578.827 7  26430460.238
      2159.052          44.100
 124259347.886 8                  23645764.672
                     -1054.040                          51.400
  92791123.757 8  23645766.758        -787.110          53.100    95211761.048 8
  23645766.055        -807.641          53.000    94001446.504 9  23645767.125
      -797.375          59.100
 202609895.420 6                  38555388.703
                        94.154                          38.800



 108943070.548 7  84733526.980 6  20387205.031    20387209.328    20387204.473
  20387209.055       -2675.994       -2081.329          46.400          36.700



 18  1 21 21 17 30.0000000  0 28G14G26R24G21G12G05G29R08R18G23R17R09
                                G02R16G25R07R19G31G16R01G32R14E05E26
                                E24E01S20R15
 127116632.928 6  99051962.34042  24189499.039
  24189502.363       -2856.762       -2226.053          37.000          17.400



 119477840.787 7  93099646.525 7  22735875.523    22735880.938
  22735880.859        2838.054        2211.472          45.000          44.000
  89220494.696 8  22735880.520        2119.324          48.500


 125178095.388 6  97360731.943 3  23408930.438    23408932.320    23408928.746
  23408932.918       -4214.304       -3277.809          36.900          22.800



 122082947.868 7  95129583.44944  23231611.906
  23231613.766        3031.309        2362.065          44.600          29.600



 127958143.613 7  99707710.426 6  24349619.000    24349622.941
  24349622.969       -3277.479       -2553.880          44.400          38.600



 131217979.157 6 102247788.074 5  24969950.367    24969954.020
  24969953.680        2067.591        1611.107          39.000          33.800



 105923149.395 8  82537539.785 8  20156498.258    20156501.328
  20156501.426        -789.671        -615.321          52.700          49.900



 127453175.388 5  99130260.474 6  23800982.922    23800984.699    23800982.879
  23800985.664         417.726         324.853          32.900          39.100



 105250327.908 8  81861390.960 7  19716931.242    19716933.410    19716930.402
  19716933.656        2199.582        1710.790          49.000          43.600



 133938957.840 6 104368034.92543  25487740.133
  25487740.613        1481.012        1154.036          38.300          18.300



 105234978.412 8  81849361.693 7  19665646.703    19665648.594    19665645.766
  19665648.680       -1848.320       -1437.569          49.500          46.700



 126533605.918 6  98415035.588 5  23695681.945    23695681.477    23695681.031
  23695681.863        4123.185        3206.901          40.500          32.900



 128364654.027 7 100024419.68444  24426977.742
  24426977.316       -2592.247       -2019.940          43.700          25.000



 105005506.103 7  81670961.589 6  19657250.516    19657251.422    19657249.406
  19657252.758        1887.695        1468.219          44.300          40.300



 112661742.838 8  87788407.740 7  21438805.883    21438811.133
  21438811.039       -2146.889       -1672.898          52.800          47.400
  84130576.021 8  21438811.516       -1603.194          53.000


 129438642.146 6 100674518.872 5  24180228.344    24180230.746    24180227.699
  24180230.777       -2352.612       -1829.818          38.900          35.600



 127146936.057 6  98892071.154 6  23768776.984    23768779.656    23768776.742
  23768780.238        4330.086        3367.847          36.700          36.300



 109633424.250 8  85428657.345 7  20862544.078    20862546.328
  20862545.984          47.440          36.964          50.700          47.900



 132305388.040 6 103095104.74342  25176876.305
  25176878.453        3379.004        2632.990          39.500          16.300



 131717441.855 6 102446926.332 4  24640472.930    24640476.828    24640472.441
  24640478.648        2739.521        2130.760          36.200          24.200



 134995986.135 6 105191787.344 6  25688903.789    25688909.457
  25688909.434       -3251.719       -2533.818          38.300          36.700
 100808791.760 6  25688908.414       -2428.232          41.000


 127626683.049 7  99265160.260 4  23942437.945    23942440.910    23942436.934
  23942439.719       -4123.641       -3207.262          42.600          29.300



 149014548.300 6                  28356526.063
                      -934.811                          39.300
 111277101.193 6  28356529.078        -698.074          40.200   114179979.992 6
  28356527.953        -716.289          39.300   112728549.194 7  28356528.484
      -707.178          45.400
 114310633.827 8                  21752584.773
                      -291.814                          50.800
  85361830.131 8  21752588.625        -217.915          53.300    87588659.161 8
  21752587.641        -223.592          52.800    86475236.750 9  21752588.496
      -220.753          58.900
 138807305.545 6                  26414151.883
                      2854.645                          39.700
 103654789.684 6  26414165.688        2131.714          41.900   106358834.197 6
  26414164.281        2187.325          39.200   105006800.045 7  26414165.699
      2159.521          46.000
 124291128.275 8                  23651812.352
                     -1064.325                          51.100
  92814855.852 8  23651814.441        -794.788          53.200    95236112.245 8
  23651813.645        -815.524          53.300    94025488.151 9  23651814.703
      -805.152          59.100
 202607060.295 6                  38554865.469
                        94.634                          39.000



 109023614.418 7  84796172.202 6  20402277.508    20402280.797    20402277.184
  20402281.328       -2693.027       -2094.584          46.600          36.200



 18  1 21 21 18  0.0000000  0 28G14G26R24G21G12G05G29R08R18G23R17R09
                                G02R16G25R07R19G31G16R01G32R14E05E26
                                E24E01S20R15
 127202433.996 6  99118820.28843  24205826.578
  24205829.746       -2863.060       -2230.971          37.100          19.000



 119392780.789 7  93033366.015 7  22719688.984    22719695.113
  22719695.137        2832.779        2207.361          44.500          44.500
  89156975.878 8  22719694.445        2115.386          48.800


 125304572.871 6  97459103.293 3  23432582.742    23432584.379    23432581.285
  23432585.324       -4217.383       -3280.215          36.700          21.900



 121992127.284 7  95058814.19844  23214329.625
  23214332.012        3023.642        2356.077          45.000          29.000



 128056512.277 7  99784361.318 6  24368337.938    24368341.301
  24368340.973       -3280.375       -2556.133          43.400          37.200



 131156132.009 6 102199595.515 5  24958182.219    24958184.266
  24958183.711        2055.886        1601.986          40.000          34.300



 105947071.618 8  82556180.478 8  20161050.469    20161053.711
  20161053.660        -804.667        -627.011          52.900          49.500



 127441026.546 5  99120811.368 6  23798716.117    23798717.047    23798714.902
  23798717.020         392.970         305.688          34.900          39.200



 105184669.983 8  81810323.700 7  19704631.563    19704633.359    19704630.367
  19704633.594        2178.356        1694.280          48.800          43.500



 133894766.461 6 104333600.06842  25479331.211
  25479331.500        1465.518        1141.953          39.700          16.900



 105290741.418 8  81892732.931 7  19676067.836    19676069.383    19676066.664
  19676069.605       -1868.575       -1453.341          49.600          47.000



 126409924.200 6  98318838.655 5  23672520.188    23672520.406    23672519.039
  23672519.961        4122.227        3206.212          41.100          34.400



 128442573.442 7 100085136.09844  24441805.148
  24441805.285       -2602.045       -2027.571          44.700          25.500



 104949161.838 7  81627138.271 6  19646702.219    19646703.629    19646702.398
  19646704.977        1869.180        1453.787          44.700          40.400



 112726307.171 8  87838717.601 7  21451092.039    21451097.754
  21451097.266       -2157.080       -1680.841          52.500          47.700
  84178789.633 8  21451097.859       -1610.804          52.900


 129509500.083 6 100729630.600 6  24193466.250    24193468.156    24193465.371
  24193467.875       -2370.662       -1843.845          39.800          36.800



 127017107.618 6  98791093.552 6  23744507.672    23744511.008    23744505.902
  23744510.793        4325.256        3364.085          36.900          37.700



 109632293.406 8  85427776.155 7  20862328.680    20862331.684
  20862330.980          28.555          22.256          51.900          47.600



 132204024.000 6 103016119.80442  25157587.313
  25157589.656        3378.617        2632.654          38.900          16.900



 131635493.201 5                  24625141.836    24625145.828    24625142.520
                      2724.203                          35.200



 135093498.848 5 105267771.241 6  25707457.922    25707466.359
  25707466.195       -3249.225       -2531.877          33.700          36.100
 100881609.666 6  25707465.117       -2426.375          39.200


 127750463.090 7  99361433.614 4  23965659.734    23965661.848    23965658.254
  23965660.883       -4128.213       -3210.826          42.000          29.100



 149042789.010 6                  28361900.906
                      -947.488                          41.200
 111298190.013 6  28361902.684        -707.541          40.900   114201619.004 6
  28361901.512        -726.003          40.200   112749913.115 7  28361902.809
      -716.773          45.700
 114319591.884 8                  21754289.461
                      -304.949                          50.800
  85368519.587 8  21754293.461        -227.723          52.400    87595523.137 8
  21754292.430        -233.667          52.800    86482013.469 9  21754293.293
      -230.694          58.800
 138721657.927 6                  26397853.516
                      2855.191                          39.600
 103590832.066 6  26397866.500        2132.121          39.900   106293208.096 6
  26397865.797        2187.740          38.600   104942008.182 7  26397867.145
      2159.934          45.000
 124323216.322 8                  23657918.508
                     -1074.556                          50.800
  92838817.693 8  23657920.566        -802.428          53.000    95260699.179 8
  23657919.629        -823.363          53.000    94049762.543 9  23657920.887
      -812.899          59.100
 202604224.669 6                  38554316.063
                        94.598                          39.900



 109104668.405 7  84859214.174 5  20417446.070    20417449.941    20417445.863
  20417450.391       -2710.004       -2107.779          46.600          35.900



 18  1 21 21 18 30.0000000  0 28G14G26R24G21G12G05G29R08R18G23R17R09
                                G02R16G25R07R19G31G16R01G32R14E05E26
                                E24E01S20R15
 127288421.898 6  99185823.81843  24222190.727
  24222192.980       -2869.259       -2235.793          38.100          19.300



 119307880.408 7  92967209.892 7  22703533.320    22703539.070
  22703539.008        2827.384        2203.156          44.900          45.200
  89093576.252 8  22703538.430        2111.359          48.500


 125431142.188 6  97557545.588 3  23456251.383    23456253.059    23456250.160
  23456254.004       -4220.438       -3282.564          37.200          23.000



 121901538.127 7  94988225.26244  23197090.273
  23197093.277        3015.848        2350.009          45.100          29.100



 128154966.375 7  99861078.769 6  24387073.438    24387076.496
  24387077.000       -3283.198       -2558.334          43.200          37.200



 131094637.607 6 102151677.818 5  24946479.633    24946482.313
  24946481.480        2044.063        1592.772          39.400          34.000



 105971443.746 8  82575171.752 8  20165688.180    20165690.840
  20165690.703        -819.683        -638.714          53.000          49.300



 127429618.857 5  99111938.768 6  23796584.055    23796586.934    23796585.305
  23796586.680         368.334         286.417          34.500          38.700



 105119649.353 8  81759752.108 7  19692451.719    19692452.301    19692449.938
  19692453.000        2157.029        1677.683          48.600          43.200



 133851041.178 6 104299528.42943  25471010.211
  25471010.680        1449.968        1129.836          40.200          18.600



 105347111.453 8  81936576.282 7  19686601.797    19686602.828    19686600.508
  19686603.590       -1888.769       -1469.033          49.700          47.500



 126286271.270 6  98222664.167 5  23649363.930    23649364.059    23649362.898
  23649363.484        4121.228        3205.424          40.800          33.300



 128520786.334 7 100146081.21143  24456688.945
  24456688.688       -2611.828       -2035.192          43.800          23.400



 104893374.189 7  81583747.871 6  19636258.789    19636259.906    19636258.383
  19636261.199        1850.564        1439.335          44.800          40.200



 112791176.734 8  87889265.301 7  21463436.141    21463442.090
  21463441.809       -2167.268       -1688.775          51.200          47.400
  84227231.171 8  21463442.227       -1618.415          53.200


 129580897.891 6 100785162.264 5  24206802.727    24206805.254    24206802.668
  24206804.566       -2388.566       -1857.816          39.600          34.100



 126887425.140 6  98690229.405 6  23720265.453    23720267.480    23720262.629
  23720267.406        4320.332        3360.236          37.200          36.900



 109631729.949 8  85427337.097 8  20862221.445    20862224.277
  20862223.805           9.612           7.491          50.700          48.500



 132102671.576 6 102937143.90342  25138300.281
  25138302.922        3378.138        2632.287          38.400          15.600



 131554006.124 6                  24609899.977    24609902.168    24609898.551
                      2708.721                          38.500



 135190936.650 6 105343696.696 5  25726001.594    25726008.070
  25726007.887       -3246.697       -2529.881          36.000          33.000
 100954371.567 6  25726007.336       -2424.465          38.400


 127874379.750 6  99457813.257 4  23988904.117    23988908.332    23988904.398
  23988908.051       -4132.770       -3214.411          41.500          29.500



 149071410.568 6                  28367346.727
                      -960.230                          40.600
 111319563.256 6  28367349.551        -717.052          41.500   114223549.826 6
  28367347.957        -735.759          40.100   112771565.147 7  28367349.563
      -726.403          46.300
 114328943.356 8                  21756069.070
                      -318.073                          50.300
  85375502.834 8  21756072.852        -237.524          52.900    87602688.553 8
  21756071.914        -243.717          52.600    86489087.798 9  21756072.660
      -240.618          58.800
 138635993.805 6                  26381553.023
                      2855.679                          40.200
 103526862.091 6  26381565.391        2132.487          38.300   106227569.340 6
  26381565.484        2188.116          38.300   104877203.820 7  26381565.922
      2160.301          44.000
 124355612.033 8                  23664083.164
                     -1084.839                          50.600
  92863009.280 8  23664085.344        -810.107          53.200    95285521.851 8
  23664084.453        -831.236          52.700    94074269.673 9  23664085.680
      -820.675          59.000
 202601385.251 6                  38553767.875
                        94.910                          39.000



 109186231.612 7  84922652.208 5  20432709.641    20432713.441    20432708.613
  20432713.551       -2727.011       -2121.016          46.400          35.800



 18  1 21 21 19  0.0000000  0 28G14G26R24G21G12G05G29R08R18G23R17R09
                                G02R16G25R07R19G31G16R01G32R14E05E26
                                E24E01S20R15
 127374593.743 6  99252970.64443  24238588.563
  24238591.387       -2875.309       -2240.480          38.100          19.300



 119223141.009 7  92901179.213 7  22687407.258    22687413.691
  22687413.566        2822.040        2198.987          45.800          45.100
  89030296.846 8  22687412.465        2107.369          48.400


 125557800.583 6  97656058.643 3  23479937.703    23479939.715    23479937.188
  23479940.543       -4223.304       -3284.774          37.200          22.100



 121811182.807 7  94917818.51744  23179896.539
  23179898.750        3008.079        2343.954          44.200          28.500



 128253504.795 7  99937861.931 6  24405824.422    24405827.703
  24405827.988       -3285.953       -2560.481          42.600          37.700



 131033498.527 6 102104036.992 5  24934845.172    24934847.461
  24934847.953        2032.249        1583.578          39.100          34.500



 105996264.571 8  82594512.655 8  20170411.391    20170414.457
  20170414.145        -834.561        -650.306          51.100          49.800



 127418953.400 5  99103643.404 6  23794593.836    23794595.012    23794594.027
  23794595.320         343.611         267.197          35.700          38.300



 105055267.356 8  81709677.242 7  19680389.680    19680390.996    19680388.250
  19680391.770        2135.776        1661.150          48.900          43.400



 133807783.638 6 104265821.20343  25462778.508
  25462779.066        1434.409        1117.725          40.100          18.300



 105404085.585 8  81980889.497 7  19697247.984    19697249.699    19697247.398
  19697250.309       -1908.824       -1484.638          49.100          47.000



 126162649.770 6  98126514.092 5  23626215.023    23626213.301    23626212.117
  23626213.801        4120.206        3204.602          40.900          33.300



 128599290.842 7 100207253.55343  24471627.781
  24471627.152       -2621.463       -2042.693          43.000          22.500



 104838145.925 7  81540792.557 6  19625920.297    19625920.809    19625919.188
  19625921.832        1831.926        1424.831          44.400          39.700



 112856350.990 8  87940050.417 7  21475838.430    21475843.992
  21475843.988       -2177.368       -1696.648          51.400          47.400
  84275900.233 8  21475844.582       -1625.953          53.000


 129652832.475 6 100841111.339 5  24220241.039    24220243.559    24220239.809
  24220242.719       -2406.339       -1871.615          38.000          33.400



 126757891.361 6  98589480.925 6  23696049.375    23696052.176    23696049.953
  23696052.543        4315.390        3356.470          36.100          36.400



 109631734.695 8  85427340.787 7  20862222.734    20862225.371
  20862224.793          -9.303          -7.246          50.300          47.600



 132001331.853 6 102858177.90642  25119015.547
  25119018.695        3377.784        2632.020          38.300          16.300



 131472984.554 6 102256789.914 4  24594742.461    24594745.934    24594741.035
  24594746.934        2693.203        2094.678          37.600          25.500



 135288297.402 6 105419562.264 5  25744528.023    25744535.492
  25744535.172       -3244.064       -2527.845          37.100          35.100
 101027076.040 6  25744534.152       -2422.521          40.800


 127998431.075 6  99554297.629 5  24012175.766    24012178.723    24012174.754
  24012178.641       -4137.185       -3217.811          41.400          30.800



 149100412.008 6                  28372866.055
                      -972.808                          40.400
 111341220.153 7  28372868.813        -726.450          42.400   114245771.706 6
  28372867.594        -745.402          41.400   112793504.539 7  28372868.480
      -735.927          47.500
 114338687.711 8                  21757923.406
                      -331.117                          49.800
  85382779.467 8  21757927.301        -247.262          53.100    87610155.010 8
  21757926.223        -253.714          52.800    86496459.343 9  21757927.043
      -250.488          58.800
 138550314.154 6                  26365248.320
                      2856.265                          40.400
 103462880.490 6  26365261.461        2132.925          39.100   106161918.656 6
  26365260.805        2188.564          39.400   104812387.675 7  26365261.555
      2160.751          44.400
 124388315.638 8                  23670306.727
                     -1095.058                          51.000
  92887430.791 8  23670308.762        -817.737          53.200    95310580.443 8
  23670307.586        -839.064          52.800    94099009.723 9  23670309.012
      -828.404          59.100
 202598541.400 6                  38553233.281
                        95.055                          38.900



 109268302.054 7  84986484.775 5  20448068.695    20448072.055    20448067.551
  20448071.887       -2743.848       -2134.098          46.000          35.400



 18  1 21 21 19 30.0000000  0 28G14G26R24G21G12G05G29R08R18G23R17R09
                                G02R16G25R07R19G31G16R01G32R14E05E26
                                E24E01S20R15
 127460946.720 6  99320258.68843  24255021.063
  24255023.668       -2881.351       -2245.220          37.800          19.300



 119138564.124 7  92835275.161 7  22671313.352    22671318.453
  22671318.625        2816.584        2194.739          45.200          45.100
  88967138.784 7  22671317.523        2103.291          47.900


 125684545.107 6                  23503638.438    23503641.887    23503638.508
                     -4226.136                          36.900



 121721062.912 7  94847595.23844  23162746.758
  23162749.484        3000.170        2337.798          45.800          28.200



 128352127.068 7 100014710.418 6  24424591.938    24424594.906
  24424594.887       -3288.750       -2562.654          44.000          36.400



 130972717.631 6 102056675.304 5  24923279.828    24923281.457
  24923281.305        2020.211        1574.189          40.400          34.500



 106021532.543 8  82614201.986 8  20175219.961    20175222.598
  20175222.371        -849.460        -661.913          52.100          49.400



 127409030.677 5  99095925.708 6  23792741.836    23792741.238    23792740.504
  23792741.875         318.836         247.992          35.900          38.600



 104991525.744 8  81660100.461 7  19668448.758    19668450.500    19668447.328
  19668450.836        2114.391        1644.506          49.500          43.200



 133764995.339 6 104232479.71643  25454637.086
  25454636.633        1418.721        1105.487          40.900          19.600



 105461661.013 8  82025670.377 7  19708008.164    19708009.199    19708006.875
  19708009.617       -1928.837       -1500.210          49.600          46.500



 126039062.519 6  98030390.648 5  23603070.102    23603069.891    23603068.250
  23603069.664        4118.970        3203.662          41.300          33.700



 128678084.729 7 100268651.36843  24486621.539
  24486621.398       -2631.112       -2050.208          43.100          22.900



 104783480.192 7  81498274.744 6  19615687.266    19615687.465    19615685.453
  19615688.230        1813.092        1410.190          43.900          40.300



 112921829.365 8  87991072.509 7  21488298.609    21488304.121
  21488303.891       -2187.510       -1704.547          52.100          47.400
  84324796.405 8  21488304.602       -1633.533          52.900


 129725300.246 6 100897475.167 5  24233777.539    24233780.879    24233777.012
  24233780.367       -2424.132       -1885.439          38.000          35.300



 126628509.238 6  98488850.448 5  23671864.641    23671865.020    23671861.934
  23671865.832        4310.258        3352.423          37.100          35.600



 109632307.915 8  85427787.447 8  20862331.914    20862334.070
  20862333.789         -28.279         -22.041          52.100          48.100



 131900005.434 6 102779222.30942  25099733.461
  25099737.145        3377.288        2631.664          37.700          16.900



 131392432.201 6 102194135.132 3  24579672.836    24579676.805    24579672.582
  24579677.453        2677.454        2082.441          37.400          22.800



 135385578.231 5 105495365.533 5  25763040.133    25763046.492
  25763047.020       -3241.412       -2525.782          35.700          35.400
 101099720.820 6  25763045.824       -2420.534          41.100


 128122615.334 6  99650885.399 4  24035473.297    24035476.457    24035472.051
  24035475.727       -4141.567       -3221.236          40.700          29.100



 149129792.565 6                  28378456.961
                      -985.425                          40.000
 111363160.167 7  28378459.828        -735.872          42.300   114268284.069 6
  28378458.563        -755.067          41.700   112815730.723 7  28378459.574
      -745.469          47.600
 114348824.416 8                  21759852.359
                      -344.221                          50.700
  85390349.089 8  21759856.219        -257.046          53.000    87617922.098 8
  21759855.000        -263.748          52.900    86504127.701 9  21759855.926
      -260.400          58.800
 138464620.110 6                  26348940.727
                      2856.681                          40.100
 103398888.177 6  26348954.426        2133.239          39.300   106096256.983 6
  26348953.488        2188.886          38.500   104747560.681 7  26348954.574
      2161.067          44.300
 124421327.390 8                  23676588.695
                     -1105.355                          50.700
  92912082.410 8  23676590.762        -825.422          53.300    95335875.155 8
  23676589.496        -846.960          53.300    94123982.886 9  23676590.910
      -836.189          59.100
 202595695.167 6                  38552686.234
                        95.091                          39.700



 109350878.947 7  85050711.229 6  20463520.453    20463524.875    20463520.129
  20463524.699       -2760.688       -2147.212          46.400          36.100



 18  1 21 21 20  0.0000000  0 28G14G26R24G21G12G05G29R08R18G23R17R09
                                G02R16G25R07R19G31G16R01G32R14E05E26
                                E24E01S20R15
 127547477.413 6  99387685.15743  24271487.391
  24271489.719       -2887.192       -2249.748          38.500          18.300



 119054150.954 7  92769498.664 7  22655249.922    22655255.633
  22655255.484        2811.137        2190.497          45.600          44.600
  88904102.974 8  22655254.203        2099.221          48.300


 125811372.543 6  97853281.757 3  23527355.828    23527358.754    23527356.367
  23527359.816       -4228.862       -3289.113          37.500          22.100



 121631181.635 7  94777557.89344  23145643.406
  23145645.781        2992.191        2331.572          43.500          27.800



 128450832.079 6 100091623.399 6  24443374.484    24443377.973
  24443378.605       -3291.461       -2564.775          41.800          37.500



 130912297.116 6 102009594.404 5  24911781.781    24911784.609
  24911783.539        2008.175        1564.815          39.500          35.200



 106047246.505 8  82634238.849 8  20180113.070    20180115.969
  20180115.879        -864.274        -673.464          53.200          48.900



 127399851.206 6  99088786.135 6  23791026.867    23791027.434    23791026.941
  23791028.094         294.036         228.710          36.200          39.200



 104928425.750 8  81611022.693 7  19656628.578    19656629.703    19656627.266
  19656630.004        2093.016        1627.883          49.300          43.600



 133722677.377 6 104199504.68842  25446584.461
  25446584.246        1403.005        1093.248          41.500          17.800



 105519834.496 8  82070916.433 7  19718878.641    19718880.438    19718878.055
  19718880.727       -1948.714       -1515.672          49.300          46.200



 125915511.972 6  97934295.768 5  23579933.125    23579933.395    23579931.391
  23579932.438        4117.736        3202.700          41.400          34.200



 128757165.967 7 100330273.13044  24501670.500
  24501670.359       -2640.608       -2057.619          42.500          24.400



 104729379.595 7  81456196.516 6  19605558.094    19605559.867    19605558.156
  19605560.828        1794.252        1395.525          44.500          39.700



 112987611.087 8  88042330.983 7  21500816.570    21500822.266
  21500821.746       -2197.576       -1712.392          51.500          46.300
  84373919.101 8  21500822.809       -1641.044          53.000


 129798297.453 6 100954250.745 5  24247415.758    24247417.434    24247414.527
  24247416.469       -2441.704       -1899.114          38.300          33.500



 126499280.937 6  98388339.556 6  23647704.469    23647707.066    23647703.637
  23647707.570        4305.138        3348.449          37.000          36.100



 109633449.568 8  85428677.041 7  20862549.328    20862550.805
  20862550.582         -47.198         -36.782          52.000          47.600



 131798693.275 6 102700277.75743  25080455.867
  25080457.539        3376.840        2631.296          39.200          18.600



 131312353.007 6                  24564692.938    24564695.637    24564691.980
                      2661.655                          36.300



 135482776.698 6 105571104.565 5  25781536.711    25781543.059
  25781543.613       -3238.547       -2523.553          36.800          35.700
 101172304.039 6  25781542.359       -2418.401          41.300


 128246929.968 6  99747574.554 5  24058794.445    24058797.953    24058794.023
  24058797.648       -4145.865       -3224.572          41.800          30.500



 149159551.053 6                  28384119.445
                      -997.983                          41.400
 111385382.438 6  28384121.332        -745.249          40.000   114291086.015 6
  28384121.473        -764.692          41.600   112838242.831 7  28384122.102
      -754.970          46.300
 114359352.668 8                  21761855.789
                      -357.224                          50.100
  85398211.106 8  21761859.742        -266.765          53.300    87625989.205 8
  21761858.477        -273.714          52.300    86512092.263 9  21761859.402
      -270.243          58.800
 138378912.329 6                  26332630.953
                      2857.170                          39.400
 103334885.616 6  26332645.219        2133.595          39.600   106030584.769 6
  26332644.234        2189.260          39.300   104682723.293 7  26332644.578
      2161.430          44.800
 124454647.277 8                  23682929.266
                     -1115.604                          51.500
  92936964.133 8  23682931.125        -833.078          53.300    95361405.964 8
  23682929.859        -854.810          52.400    94149189.158 9  23682931.332
      -843.952          59.000
 202592847.846 6                  38552146.984
                        95.148                          39.500



 109433960.318 7  85115330.068 5  20479068.133    20479072.754    20479067.691
  20479072.168       -2777.472       -2160.243          46.600          35.800



 18  1 21 21 20 30.0000000  0 28G14G26R24G21G12G05G29R08R18G23R17R09
                                G02R16G25R07R19G31G16R01G32R14E05E26
                                E24E01S20R15
 127634182.810 6  99455247.77743  24287985.922
  24287988.785       -2893.004       -2254.294          38.400          19.300



 118969902.759 7  92703850.713 7  22639218.258    22639223.504
  22639223.660        2805.589        2186.178          46.100          44.900
  88841190.347 8  22639222.969        2095.081          48.900


 125938279.644 6                  23551088.859    23551089.141    23551087.754
                     -4231.474                          37.000



 121541541.073 7  94707708.09344  23128584.969
  23128587.367        2984.121        2325.284          44.400          28.700



 128549619.015 7 100168600.234 6  24462172.969    24462176.426
  24462176.270       -3294.223       -2566.924          43.000          37.300



 130852240.692 6 101962797.187 5  24900353.195    24900355.934
  24900355.750        1995.949        1555.284          39.900          35.400



 106073405.299 8  82654622.323 8  20185090.797    20185093.566
  20185093.621        -879.121        -685.024          52.200          49.700



 127391415.311 6  99082224.899 6  23789452.086    23789453.035    23789452.043
  23789453.625         269.221         209.373          36.100          38.400



 104865968.656 8  81562444.950 7  19644928.719    19644929.938    19644927.172
  19644930.020        2071.506        1611.165          49.500          43.300



 133680831.053 6 104166897.18643  25438620.844
  25438620.754        1387.259        1080.969          40.800          18.600



 105578603.183 8  82116625.408 7  19729861.250    19729862.469    19729860.078
  19729862.762       -1968.534       -1531.090          49.400          46.700



 125792000.628 6  97838231.385 5  23556803.578    23556802.730    23556801.492
  23556802.449        4116.356        3201.622          40.400          33.800



 128836532.338 7 100392117.05543  24516772.625
  24516773.324       -2650.121       -2065.030          42.000          22.800



 104675846.792 7  81414559.876 6  19595537.461    19595538.285    19595536.820
  19595539.195        1775.240        1380.739          44.900          40.200



 113053695.403 8  88093825.235 7  21513392.172    21513397.621
  21513396.965       -2207.676       -1720.266          52.000          47.000
  84423267.760 8  21513398.266       -1648.586          53.200


 129871820.280 6 101011435.226 5  24261149.617    24261152.328    24261148.504
  24261150.340       -2459.240       -1912.733          38.600          33.800



 126370208.943 6  98287950.250 6  23623577.969    23623578.547    23623575.848
  23623578.633        4299.825        3344.319          37.900          36.400



 109635160.112 8  85430009.912 7  20862874.477    20862876.793
  20862876.254         -66.195         -51.583          51.500          47.700



 131697396.376 6 102621345.21242  25061178.961
  25061180.660        3376.303        2630.847          39.000          17.800



 131232750.342 5 102069938.127 3  24549800.945    24549805.078    24549799.168
  24549805.727        2645.698        2057.711          34.700          23.500



 135579889.817 6 105646777.091 5  25800017.273    25800022.250
  25800023.270       -3235.696       -2521.317          37.500          35.400
 101244823.527 6  25800022.074       -2416.250          41.500


 128371373.128 6  99844363.703 5  24082139.805    24082142.680    24082139.148
  24082142.355       -4150.164       -3227.928          41.600          30.700



 149189686.412 6                  28389853.883
                     -1010.569                          38.800
 111407886.113 6  28389856.492        -754.648          39.400   114314176.752 6
  28389856.305        -774.333          41.100   112861040.035 7  28389856.770
      -764.485          46.000
 114370271.699 8                  21763933.711
                      -370.260                          51.000
  85406364.932 8  21763937.418        -276.493          52.300    87634355.739 8
  21763936.289        -283.701          52.800    86520352.443 9  21763937.215
      -280.100          58.900
 138293191.692 6                  26316319.508
                      2857.549                          39.700
 103270873.455 6  26316333.059        2133.883          40.700   105964902.719 6
  26316332.449        2189.551          40.000   104617876.194 7  26316332.574
      2161.717          45.500
 124488275.330 8                  23689328.438
                     -1125.919                          50.900
  92962075.983 8  23689330.602        -840.781          52.300    95387172.904 8
  23689329.383        -862.716          52.300    94174628.548 9  23689330.691
      -851.748          59.000
 202590002.080 6                  38551601.297
                        94.737                          39.400



 109517544.384 7  85180339.877 6  20494709.961    20494713.801    20494709.402
  20494713.645       -2794.243       -2173.296          46.300          36.400



 18  1 21 21 21  0.0000000  0 29G14G26R24G21G12G05G29R08R18G23R17R09
                                G02R16G25R07R19G31G16R01G20G32R14E05
                                E26E24E01S20R15
 127721059.899 6  99522944.13743  24304519.008
  24304521.832       -2898.618       -2258.656          40.000          19.000



 118885820.742 7  92638332.265 7  22623218.000    22623222.852
  22623223.242        2800.044        2181.850          45.700          44.700
  88778401.829 8  22623222.371        2090.942          50.300


 126065263.252 5  98050752.820 3  23574835.227    23574838.465    23574834.594
  23574839.176       -4234.069       -3293.126          35.100          22.500



 121452143.702 7  94638047.81544  23111572.820
  23111575.195        2975.988        2318.957          42.800          28.400



 128648487.300 7 100245640.434 6  24480987.469    24480990.402
  24480990.262       -3296.920       -2569.027          42.000          36.400



 130792550.513 6 101916285.372 6  24888994.617    24888997.824
  24888997.234        1983.765        1545.791          40.400          36.300



 106100007.270 8  82675351.142 8  20190153.008    20190155.898
  20190155.664        -893.875        -696.530          52.500          49.700



 127383723.343 6  99076242.267 6  23788015.602    23788016.129    23788015.559
  23788016.633         244.408         190.048          36.000          37.900



 104804155.597 8  81514368.145 7  19633348.547    19633349.871    19633347.000
  19633350.117        2050.070        1594.486          50.100          43.200



 133639457.732 6 104134658.20242  25430747.438
  25430747.871        1371.456        1068.668          39.900          17.800



 105637963.587 8  82162794.611 7  19740954.313    19740955.645    19740953.023
  19740955.691       -1988.190       -1546.385          49.600          46.800



 125668531.062 7  97742199.506 5  23533681.305    23533681.250    23533680.273
  23533681.078        4114.958        3200.499          42.200          33.800



 128916181.637 6 100454181.43843  24531929.367
  24531930.211       -2659.495       -2072.324          41.800          22.500



 104622884.892 7  81373367.300 6  19585622.844    19585623.508    19585622.672
  19585624.848        1756.189        1365.909          44.100          40.200



 113120081.491 8  88145554.652 7  21526024.906    21526030.559
  21526029.961       -2217.738       -1728.106          51.200          47.100
  84472841.776 8  21526031.379       -1656.097          53.000


 129945865.031 6 101069025.625 5  24274981.000    24274983.117    24274979.770
  24274982.734       -2476.538       -1926.220          37.200          32.200



 126241296.134 6  98187684.763 6  23599479.547    23599480.395    23599477.191
  23599480.184        4294.511        3340.166          39.300          36.700



 109637439.786 8  85431786.275 7  20863308.383    20863310.379
  20863310.059         -85.159         -66.353          50.200          47.400



 131596115.572 6 102542425.06842  25041904.820
  25041907.637        3375.735        2630.484          38.100          15.600



 131153628.318 6 102008394.714 3  24534999.945    24535002.566    24534999.574
  24535003.449        2629.603        2045.305          36.800          22.700



 134782240.491 5                  25648214.906
                      2986.130                          34.300



 135676914.805 6 105722381.054 5  25818479.508    25818486.645
  25818487.355       -3232.713       -2518.990          37.000          33.800
 101317277.294 6  25818484.930       -2414.028          40.200


 128495942.368 6  99941250.897 5  24105509.914    24105512.137    24105508.785
  24105511.266       -4154.313       -3231.124          41.200          30.700



 149220197.586 6                  28395660.109
                     -1023.075                          39.800
 111430670.420 6  28395663.297        -763.980          41.600   114337555.428 6
  28395662.172        -783.909          41.200   112884121.530 7  28395662.734
      -773.941          46.900
 114381580.667 8                  21766085.547
                      -383.256                          51.300
  85414809.943 8  21766089.219        -286.197          52.100    87643021.057 8
  21766088.328        -293.662          52.400    86528907.604 9  21766089.164
      -289.929          58.700
 138207459.039 6                  26300004.641
                      2857.917                          40.300
 103206852.284 6  26300018.219        2134.161          39.700   105899211.451 6
  26300017.844        2189.825          39.300   104553019.972 7  26300018.352
      2161.990          44.900
 124522211.466 8                  23695786.211
                     -1136.165                          51.600
  92987417.890 8  23695788.438        -848.432          53.000    95413175.907 8
  23695787.172        -870.569          53.100    94200301.006 9  23695788.457
      -859.502          59.100
 202587156.734 6                  38551068.234
                        94.620                          40.600



 109601629.683 7  85245739.559 5  20510445.242    20510450.008    20510445.152
  20510449.691       -2810.890       -2186.254          46.400          35.800



 18  1 21 21 21 30.0000000  0 29G14G26R24G21G12G05G29R08R18G23R17R09
                                G02R16G25R07R19G31G16R01G20G32R14E05
                                E26E24E01S20R15
 127808105.926 6  99590772.17143  24321082.766
  24321085.750       -2904.260       -2263.039          39.200          19.600



 118801906.677 7  92572944.674 7  22607249.672    22607255.668
  22607255.656        2794.430        2177.480          44.900          45.300
  88715738.721 8  22607254.789        2086.752          50.300


 126192320.802 6                  23598596.031    23598597.352    23598594.809
                     -4236.439                          37.600



 121362991.639 7  94568578.69144  23094608.102
  23094610.227        2967.751        2312.534          42.900          29.100



 128747436.315 6 100322743.570 6  24499816.344    24499819.082
  24499818.438       -3299.578       -2571.104          41.300          36.000



 130733229.580 6 101870061.304 6  24877706.359    24877709.590
  24877709.914        1971.382        1536.144          40.500          36.000



 106127051.705 8  82696424.733 8  20195299.336    20195302.879
  20195302.453        -908.582        -707.989          51.700          50.000



 127376775.780 5  99070838.584 6  23786717.766    23786719.020    23786717.723
  23786719.441         219.603         170.793          34.900          39.000



 104742988.621 8  81466793.810 7  19621889.500    19621891.305    19621888.426
  19621892.012        2028.472        1577.719          49.300          44.000



 133598558.817 6 104102788.93442  25422965.234
  25422965.063        1355.629        1056.305          40.500          17.800



 105697913.283 8  82209422.148 7  19752157.391    19752158.289    19752156.570
  19752158.867       -2007.804       -1561.619          49.600          46.500



 125545106.322 6  97646202.451 5  23510568.117    23510567.797    23510566.734
  23510568.371        4113.414        3199.319          41.300          33.900



 128996112.295 6 100516465.07043  24547139.453
  24547140.203       -2668.852       -2079.630          41.100          22.600



 104570496.842 7  81332621.023 6  19575815.492    19575816.531    19575815.203
  19575817.449        1736.980        1350.971          44.500          40.500



 113186769.040 8  88197518.960 7  21538715.398    21538720.320
  21538720.176       -2227.778       -1735.929          51.800          46.400
  84522640.914 8  21538721.473       -1663.600          53.500


 130020428.754 6 101127019.571 5  24288911.461    24288912.117    24288910.230
  24288912.105       -2493.776       -1939.607          38.300          32.600



 126112545.371 6  98087545.310 6  23575409.891    23575412.305    23575408.473
  23575411.293        4289.089        3335.937          38.400          36.100



 109640289.604 8  85434006.911 7  20863850.586    20863852.559
  20863852.227        -104.171         -81.177          51.300          47.800



 131494851.926 6 102463518.36042  25022635.289
  25022637.191        3375.171        2630.016          39.300          17.400



 131074990.807 6 101947232.244 3  24520287.719    24520291.641    24520288.641
  24520292.992        2613.467        2032.652          37.700          22.500



 134692632.822 5                  25631163.594
                      2987.583                          33.200



 135773850.194 6 105797914.999 5  25836927.195    25836932.672
  25836933.352       -3229.730       -2516.678          37.900          32.500
 101389663.986 6  25836931.688       -2411.778          37.300


 128620635.963 6 100038234.805 5  24128901.273    24128902.941    24128900.262
  24128903.055       -4158.383       -3234.300          41.400          30.300



 149251083.867 6                  28401537.422
                     -1035.573                          38.700
 111453734.833 6  28401540.598        -773.315          41.900   114361221.553 6
  28401539.660        -793.492          41.500   112907486.795 7  28401540.430
      -783.403          47.300
 114393279.302 8                  21768311.773
                      -396.219                          50.400
  85423545.939 8  21768315.504        -295.875          52.800    87651984.945 8
  21768314.520        -303.594          53.100    86537757.547 9  21768315.367
      -299.735          58.600
 138121715.570 6                  26283688.773
                      2858.280                          39.900
 103142823.084 6  26283702.348        2134.440          39.500   105833511.930 6
  26283701.457        2190.119          39.000   104488155.612 7  26283702.023
      2162.275          44.600
 124556456.232 8                  23702302.648
                     -1146.456                          51.300
  93012990.268 8  23702305.004        -856.119          53.200    95439415.389 8
  23702303.691        -878.452          52.900    94226206.931 9  23702304.969
      -867.283          59.100
 202584310.923 6                  38550526.813
                        94.693                          40.100



 109686214.409 7  85311527.671 6  20526274.320    20526278.254    20526274.230
  20526278.605       -2827.540       -2199.216          46.300          36.200



 18  1 21 21 22  0.0000000  0 29G14G26R24G21G12G05G29R08R18G23R17R09
                                G02R16G25R07R19G31G16R01G20G32R14E05
                                E26E24E01S20R15
 127895317.286 6  99658729.05143  24337678.344
  24337681.941       -2909.708       -2267.297          39.200          19.900



 118718161.415 7  92507688.635 7  22591313.430    22591319.230
  22591319.184        2788.754        2173.056          44.600          45.100
  88653201.684 8  22591318.434        2082.514          50.900


 126319448.947 5  98248449.76613  23622368.141    23622371.313    23622367.977
  23622371.789       -4238.739                          35.800          23.000



 121274087.165 7  94499302.49444  23077690.531
  23077692.012        2959.474        2306.078          43.100          28.200



 128846465.279 6 100399908.941 6  24518661.320    24518663.824
  24518664.293       -3302.224       -2573.165          41.700          36.400



 130674280.214 6 101824126.743 6  24866488.406    24866491.867
  24866491.934        1958.943        1526.453          40.400          36.300



 106154536.193 8  82717841.222 8  20200529.539    20200532.254
  20200532.445        -923.246        -719.412          52.400          50.200



 127370572.843 5  99066014.114 6  23785559.820    23785559.535    23785558.957
  23785560.504         194.816         151.493          35.600          37.600



 104682468.294 8  81419722.461 7  19610551.750    19610553.934    19610550.910
  19610554.520        2006.870        1560.915          49.000          43.600



 133558135.283 6 104071290.05543  25415272.922
  25415272.984        1339.792        1043.992          41.200          18.600



 105758448.488 8  82256505.084 7  19763469.742    19763471.316    19763468.922
  19763471.527       -2027.251       -1576.753          49.300          46.600



 125421728.444 6  97550241.892 5  23487462.844    23487463.895    23487462.750
  23487464.309        4111.811        3198.054          41.200          34.700



 129076321.447 7 100578965.71343  24562404.078
  24562404.113       -2678.140       -2086.861          42.200          22.300



 104518684.937 7  81292322.888 6  19566116.648    19566117.488    19566115.422
  19566118.102        1717.746        1336.021          44.300          41.200



 113253756.825 8  88249717.230 7  21551462.438    21551467.703
  21551467.355       -2237.765       -1743.709          51.200          46.900
  84572664.247 8  21551468.711       -1671.057          53.200


 130095507.184 6 101185413.976 5  24302936.969    24302937.676    24302936.441
  24302937.629       -2510.889       -1952.917          39.200          34.600



 125983958.720 6  97987533.483 6  23551372.617    23551372.695    23551370.965
  23551372.863        4283.548        3331.639          39.600          36.100



 109643708.632 8  85436671.082 7  20864501.414    20864503.496
  20864503.164        -123.144         -95.956          50.500          47.300



 131393605.734 6 102384625.25143  25003369.523
  25003371.500        3374.595        2629.567          38.900          19.000



 130996840.937 6 101886448.971 4  24505671.773    24505672.988    24505669.055
  24505673.895        2597.113        2019.961          38.600          25.900



 134602984.699 5 104885482.85142  25614103.656
  25614106.617        2988.874        2328.991          33.700          16.300



 135870692.469 6 105873376.565 6  25855354.922    25855361.266
  25855361.688       -3226.548       -2514.190          36.200          36.200
 101461981.328 7  25855360.375       -2409.454          42.600


 128745451.254 6 100135313.390 5  24152315.781    24152319.641    24152315.477
  24152318.398       -4162.478       -3237.500          41.300          30.500



 149282343.678 6                  28407486.109
                     -1048.048                          39.400
 111477078.211 6  28407488.988        -782.628          41.300   114385173.867 6
  28407487.301        -803.055          39.800   112931134.648 7  28407488.797
      -792.843          46.400
 114405366.345 8                  21770611.961
                      -409.170                          51.400
  85432571.984 8  21770615.234        -305.544          52.400    87661246.452 8
  21770614.766        -313.522          53.000    86546901.320 9  21770615.367
      -309.531          58.600
 138035961.790 6                  26267370.320
                      2858.593                          39.100
 103078786.117 6  26267383.844        2134.667          39.300   105767804.434 6
  26267382.391        2190.348          38.700   104423283.378 7  26267383.469
      2162.511          44.200
 124591009.131 8                  23708877.867
                     -1156.736                          51.000
  93038792.747 8  23708880.402        -863.795          53.100    95465890.975 8
  23708879.137        -886.329          52.400    94252345.965 9  23708880.316
      -875.059          59.100
 202581463.507 6                  38549978.781
                        94.518                          40.400



 109771297.975 7  85377703.741 5  20542196.750    20542200.727    20542196.074
  20542200.617       -2844.125       -2212.086          46.800          35.800



 18  1 21 21 22 30.0000000  0 29G14G26R24G21G12G05G29R08R18G23R17R09
                                G02R16G25R07R19G31G16R01G20G32R14E05
                                E26E24E01S20R15
 127982691.437 6  99726812.75943  24354306.953
  24354308.766       -2915.077       -2271.474          40.400          19.900



 118634586.386 7  92442565.256 7  22575409.539    22575415.020
  22575415.523        2783.083        2168.638          44.700          45.200
  88590791.776 8  22575414.535        2078.274          50.800


 126446644.915 6  98347380.93013  23646155.289    23646157.012    23646154.535
  23646158.191       -4240.928                          36.400          22.300



 121185432.227 7  94430220.73144  23060819.859
  23060821.934        2951.131        2299.584          43.600          28.300



 128945573.115 6 100477135.800 6  24537520.867    24537524.207
  24537523.902       -3304.851       -2575.212          41.300          36.100



 130615704.702 6 101778483.505 6  24855341.500    24855345.453
  24855345.816        1946.416        1516.687          40.300          38.100



 106182459.968 8  82739600.008 8  20205843.578    20205846.355
  20205846.324        -937.848        -730.785          51.700          49.500



 127365114.831 5  99061768.958 6  23784539.719    23784540.535    23784540.027
  23784541.109         169.915         132.179          35.500          37.300



 104622596.100 8  81373155.231 7  19599335.516    19599337.844    19599334.793
  19599338.074        1985.302        1544.111          49.300          43.500



 133518188.369 6 104040162.59443  25407671.406
  25407671.336        1323.877        1031.605          41.000          18.600



 105819566.343 8  82304041.208 7  19774891.352    19774892.672    19774890.180
  19774892.863       -2046.585       -1591.793          49.600          46.800



 125298400.365 7  97454320.034 5  23464367.789    23464367.660    23464366.523
  23464368.488        4110.103        3196.781          42.300          35.900



 129156807.219 6 100641681.86343  24577719.445
  24577719.582       -2687.285       -2093.997          40.500          22.200



 104467452.520 7  81252475.435 6  19556525.422    19556526.797    19556524.664
  19556527.465        1698.382        1320.962          45.100          40.500



 113321044.297 8  88302149.020 7  21564266.781    21564272.809
  21564272.129       -2247.726       -1751.477          50.700          47.300
  84622911.380 8  21564273.426       -1678.493          53.300


 130171096.735 6 101244205.866 5  24317056.102    24317057.973    24317055.457
  24317058.633       -2527.818       -1966.086          37.800          33.800



 125855538.950 6  97887651.428 6  23527365.875    23527366.410    23527363.871
  23527366.133        4277.942        3327.292          39.400          36.400



 109647697.436 8  85439779.226 8  20865259.984    20865262.672
  20865262.430        -142.148        -110.763          50.400          48.500



 131292378.114 6 102305746.65343  24984107.008
  24984107.969        3374.001        2629.083          40.400          18.300



 130919182.522 6 101826047.991 3  24491143.422    24491144.305    24491142.348
  24491146.828        2580.694        2007.172          38.900          22.800



 134513298.665 5 104815597.53042  25597036.352
  25597039.809        2990.142        2329.986          31.900          14.800



 135967439.104 6 105948763.481 6  25873765.008    25873771.254
  25873771.813       -3223.291       -2511.661          40.400          38.600
 101534227.105 7  25873770.500       -2407.012          43.400


 128870386.262 6 100232485.074 5  24175753.914    24175756.727    24175752.199
  24175756.203       -4166.411       -3240.516          40.500          31.200



 149313976.110 6                  28413505.375
                     -1060.436                          38.900
 111500699.870 6  28413508.152        -791.880          40.700   114409411.712 6
  28413507.309        -812.540          40.200   112955064.392 7  28413507.926
      -802.206          45.700
 114417841.176 8                  21772985.828
                      -422.050                          51.200
  85441887.613 8  21772988.961        -315.170          52.300    87670805.092 8
  21772988.586        -323.389          52.200    86556338.456 9  21772989.152
      -319.277          58.600
 137950198.720 6                  26251049.547
                      2858.912                          38.900
 103014742.262 6  26251064.344        2134.895          40.200   105702089.872 6
  26251063.266        2190.589          39.500   104358404.172 7  26251063.531
      2162.741          45.500
 124625870.426 8                  23715511.758
                     -1166.999                          50.900
  93064825.521 8  23715514.246        -871.459          53.000    95492602.864 8
  23715513.027        -894.190          52.800    94278718.298 9  23715514.168
      -882.829          59.100
 202578612.180 6                  38549437.422
                        95.226                          40.800



 109856876.601 7  85444264.886 6  20558211.836    20558215.219    20558211.395
  20558215.738       -2860.620       -2224.927          46.700          36.500



 18  1 21 21 23  0.0000000  0 28G14G26R24G21G12G05G29R08R18G23R17R09
                                G02R16G25R07R19G31G16R01G20R14E05E26
                                E24E01S20R15
 128070225.420 6  99795021.03843  24370962.664
  24370966.129       -2920.369       -2275.606          38.400          19.600



 118551182.959 7  92377575.570 7  22559537.930    22559543.875
  22559543.844        2777.324        2164.148          44.200          45.000
  88528509.994 8  22559543.090        2073.980          50.700


 126573905.549 6  98446363.957 3  23669954.813    23669956.293    23669953.473
  23669956.887       -4243.021       -3300.159          36.800          22.300



 121097029.646 7  94361335.62544  23043997.352
  23043999.711        2942.658        2292.975          43.600          28.100



 129044759.101 6 100554423.569 6  24556395.766    24556398.375
  24556398.668       -3307.437       -2577.223          41.700          37.100



 130557506.773 6 101733134.510 5  24844267.227    24844270.211
  24844270.547        1933.786        1506.845          40.000          35.900



 106210821.495 8  82761699.896 8  20211240.406    20211243.199
  20211243.145        -952.427        -742.151          51.300          49.600



 127360401.992 5  99058103.415 6  23783661.391    23783661.094    23783660.527
  23783661.398         145.072         112.835          35.000          38.500



 104563373.052 8  81327092.854 7  19588241.273    19588242.938    19588240.078
  19588243.445        1963.624        1527.267          49.400          43.300



 133478719.445 6 104009407.57243  25400160.711
  25400160.074        1307.919        1019.169          41.100          18.600



 105881263.810 8  82352028.135 7  19786420.492    19786421.977    19786419.789
  19786422.422       -2065.915       -1606.823          49.300          47.000



 125175124.542 6  97358438.831 5  23441283.070    23441282.230    23441281.102
  23441282.484        4108.325        3195.376          41.400          35.500



 129237567.285 6 100704611.79143  24593087.484
  24593087.602       -2696.410       -2101.107          41.100          22.900



 104416801.804 7  81213080.417 6  19547043.539    19547045.012    19547042.898
  19547046.156        1678.953        1305.858          44.300          40.300



 113388630.706 8  88354813.735 7  21577128.281    21577133.758
  21577133.363       -2257.689       -1759.235          51.100          46.600
  84673381.732 8  21577134.602       -1685.934          52.600


 130247193.592 6 101303392.303 5  24331271.016    24331274.723    24331272.719
  24331275.254       -2544.699       -1979.229          39.000          34.800



 125727288.566 6  97787901.133 6  23503389.570    23503390.770    23503389.328
  23503391.086        4272.255        3322.871          39.000          36.200



 109652256.345 8  85443331.619 8  20866127.797    20866130.066
  20866130.012        -161.151        -125.570          50.200          48.500



 131191170.279 6 102226883.35642  24964847.570
  24964848.180        3373.262        2628.536          40.200          16.900



 130842019.629 6 101766032.401 3  24476706.297    24476711.160    24476706.980
  24476711.691        2564.076        1994.298          36.300          23.500



 134423577.307 5 104745684.79442  25579963.070
  25579966.176        2991.265        2330.904          32.500          14.800



 128995439.009 6 100329748.370 5  24199212.289    24199216.660    24199211.398
  24199215.598       -4170.280       -3243.588          38.600          30.600



 149345980.034 6                  28419596.008
                     -1072.764                          40.800
 111524598.930 6  28419598.172        -801.096          40.400   114433934.267 6
  28419597.281        -822.000          39.700   112979275.200 7  28419598.395
      -811.542          45.700
 114430703.074 8                  21775433.430
                      -434.952                          51.200
  85451492.273 8  21775436.531        -324.804          52.100    87680660.317 8
  21775436.109        -333.274          52.900    86566068.400 9  21775436.816
      -329.043          58.500
 137864427.207 6                  26234727.484
                      2859.201                          38.600
 102950692.081 6  26234742.016        2135.121          40.200   105636368.841 6
  26234740.980        2190.817          40.000   104293518.561 7  26234741.813
      2162.972          45.700
 124661040.101 8                  23722204.180
                     -1177.289                          50.900
  93091088.579 8  23722206.645        -879.144          53.200    95519551.048 8
  23722205.566        -902.079          52.900    94305323.917 9  23722206.660
      -890.613          59.100
 202575756.834 6                  38548903.094
                        95.124                          39.400



 109942949.887 7  85511210.760 5  20574319.789    20574322.742    20574318.527
  20574322.797       -2877.052       -2237.700          47.500          35.200



 18  1 21 21 23 30.0000000  0 28G14G26R24G21G12G05G29R08R18G23R17R09
                                G02R16G25R07R19G31G16R01G20R14E05E26
                                E24E01S20R15
 128157915.786 6  99863351.18343  24387649.297
  24387653.320       -2925.489       -2279.595          39.400          21.500



 118467952.493 7  92312720.676 7  22543700.031    22543705.484
  22543705.832        2771.557        2159.652          43.900          44.700
  88466357.382 8  22543705.141        2069.666          50.200


 126701227.934 6  98545387.89614  23693764.063    23693765.777    23693762.371
  23693765.551       -4245.093                          36.400          24.800



 121008881.303 7  94292648.59844  23027223.289
  23027225.766        2934.175        2286.370          44.900          29.800



 129144022.673 6 100631771.779 6  24575284.602    24575287.445
  24575287.754       -3310.018       -2579.226          41.200          36.300



 130499688.341 6 101688081.187 6  24833265.281    24833268.695
  24833268.461        1921.112        1496.964          40.800          37.200



 106239619.352 8  82784139.785 8  20216720.602    20216722.945
  20216723.082        -966.947        -753.462          51.600          49.900



 127356434.540 6  99055017.627 6  23782919.008    23782919.625    23782918.496
  23782919.941         120.221          93.488          36.100          39.100



 104504800.591 8  81281536.522 7  19577268.813    19577270.078    19577267.148
  19577270.422        1941.937        1510.392          48.700          47.500



 133439729.633 6 103979025.89243  25392740.359
  25392741.223        1291.926        1006.712          40.100          18.300



 105943537.723 8  82400463.399 8  19798057.344    19798059.316    19798056.758
  19798059.668       -2085.034       -1621.700          50.000          48.500



 125051903.878 6  97262600.559 6  23418206.047    23418207.230    23418206.070
  23418206.953        4106.451        3193.884          41.100          39.600



 129318599.619 6 100767753.85243  24608507.406
  24608508.195       -2705.442       -2108.145          41.400          23.600



 104366735.880 7  81174140.278 7  19537671.008    19537672.797    19537670.250
  19537673.547        1659.443        1290.671          44.100          44.500



 113456515.345 8  88407710.845 7  21590045.922    21590051.613
  21590051.102       -2267.622       -1766.977          50.900          47.200
  84724074.794 8  21590052.691       -1693.349          52.700


 130323794.352 6 101362970.663 6  24345581.039    24345584.430    24345580.980
  24345584.410       -2561.415       -1992.212          38.800          36.500



 125599210.403 6  97688284.775 6  23479448.023    23479448.195    23479445.551
  23479448.668        4266.422        3318.334          39.600          39.000



 109657385.388 8  85447328.277 8  20867104.055    20867106.395
  20867106.266        -180.157        -140.383          50.700          48.400



 131089982.476 6 102148035.75342  24945592.070
  24945593.145        3372.603        2628.003          39.700          17.800



 130765355.737 6                  24462366.563    24462368.477    24462365.371
                      2547.387                          39.400



 134333823.277 5 104675746.59142  25562883.266
  25562886.762        2992.388        2331.795          31.200          14.800



 129120607.176 6 100427101.424 5  24222695.133    24222696.465    24222692.363
  24222696.617       -4174.125       -3246.562          38.900          34.900



 149378354.434 6                  28425756.766
                     -1085.109                          40.300
 111548774.594 6  28425758.355        -810.311          38.800   114458740.613 6
  28425757.184        -831.454          38.900   113003766.209 7  28425759.293
      -820.877          44.400
 114443951.247 8                  21777954.391
                      -447.833                          50.800
  85461385.398 8  21777957.801        -334.423          52.900    87690811.519 8
  21777957.098        -343.146          52.900    86576090.560 9  21777957.836
      -338.780          58.600
 137778648.327 6                  26218405.273
                      2859.396                          40.200
 102886636.424 6  26218419.160        2135.266          41.500   105570642.122 6
  26218417.004        2190.974          39.600   104228627.379 7  26218418.332
      2163.122          45.500
 124696518.193 8                  23728955.492
                     -1187.557                          50.900
  93117581.954 8  23728958.023        -886.814          53.100    95546735.550 8
  23728956.992        -909.949          53.200    94332162.858 9  23728958.035
      -898.383          59.100
 202572898.987 6                  38548353.281
                        95.386                          39.600



 110029516.233 7  85578540.119 6  20590518.609    20590522.574    20590518.637
  20590522.723       -2893.480       -2250.463          47.000          39.400



 18  1 21 21 24  0.0000000  0 28G14G26R24G21G12G05G29R08R18G23R17R09
                                G02R16G25R07R19G31G16R01G20R14E05E26
                                E24E01S20R15
 128245759.526 6  99931800.79243  24404365.906
  24404369.492       -2930.562       -2283.555          40.100          21.300



 118384896.166 7  92248001.464 7  22527895.133    22527899.953
  22527900.215        2765.726        2155.112          43.900          44.300
  88404334.805 8  22527899.754        2065.316          50.500


 126828609.098 5  98644461.703 4  23717584.523    23717586.340    23717583.301
  23717586.230       -4246.929       -3303.170          35.800          25.500



 120920989.434 7  94224161.45145  23010497.914
  23010500.230        2925.596        2279.688          44.100          30.200



 129243363.106 7 100709179.874 6  24594188.797    24594191.859
  24594191.770       -3312.572       -2581.222          42.400          37.700



 130442252.633 6 101643326.086 6  24822334.602    24822338.430
  24822338.531        1908.361        1487.036          39.500          36.700



 106268852.048 8  82806918.510 8  20222283.133    20222286.199
  20222286.043        -981.406        -764.738          51.300          49.600



 127353212.591 5  99052511.665 6  23782317.203    23782317.672    23782315.988
  23782318.074          95.381          74.212          35.500          38.600



 104446879.528 8  81236486.826 8  19566418.320    19566420.082    19566417.480
  19566420.168        1920.181        1493.470          49.400          48.000



 133401220.048 6 103949018.43543  25385412.406
  25385413.020        1275.907         994.230          39.700          19.600



 106006384.691 8  82449344.377 8  19809802.438    19809804.156    19809801.734
  19809804.383       -2104.078       -1636.504          50.100          48.600



 124928740.816 6  97166807.033 6  23395142.688    23395142.406    23395141.539
  23395142.559        4104.489        3192.388          41.300          39.500



 129399901.824 7 100831106.21044  24623979.422
  24623979.039       -2714.390       -2115.104          42.400          24.700



 104317257.133 7  81135656.768 7  19528408.641    19528410.090    19528407.414
  19528410.723        1639.789        1275.393          43.300          44.800



 113524697.284 8  88460839.599 7  21603020.930    21603026.230
  21603025.715       -2277.501       -1774.679          50.700          47.600
  84774989.864 8  21603027.188       -1700.734          53.300


 130400894.994 6 101422937.824 5  24359984.742    24359987.246    24359984.332
  24359987.566       -2577.986       -2005.110          39.200          35.800



 125471306.625 6  97588804.048 6  23455537.367    23455538.754    23455535.598
  23455538.059        4260.613        3313.808          40.100          37.900



 109663084.663 8  85451769.263 8  20868188.531    20868191.262
  20868191.023        -199.147        -155.175          50.600          48.600



 130988815.762 6 102069204.58242  24926340.305
  24926341.586        3371.870        2627.429          39.400          17.400



 130689194.168 6 101647167.046 4  24448118.227    24448120.508    24448117.035
  24448121.277        2530.577        1968.217          37.900          29.200



 134244039.377 5 104605785.12042  25545797.984
  25545801.809        2993.309        2332.447          32.400          13.900



 129245888.496 6 100524542.460 5  24246197.688    24246198.957    24246194.684
  24246198.930       -4177.822       -3249.415          39.000          35.500



 149411098.042 6                  28431987.602
                     -1097.380                          39.800
 111573226.002 6  28431990.281        -819.470          41.200   114483829.877 6
  28431989.156        -840.853          39.600   113028536.547 7  28431990.207
      -830.167          45.600
 114457584.716 8                  21780548.797
                      -460.654                          51.000
  85471566.233 8  21780552.254        -343.997          52.300    87701257.944 8
  21780551.457        -352.969          52.700    86586404.194 9  21780552.188
      -348.482          58.600
 137692862.643 6                  26202080.109
                      2859.655                          38.500
 102822575.723 6  26202094.691        2135.455          40.800   105504910.256 6
  26202093.098        2191.162          38.800   104163731.093 7  26202093.648
      2163.312          44.900
 124732304.589 8                  23735765.422
                     -1197.846                          51.100
  93144305.545 8  23735767.805        -894.496          53.100    95574156.281 8
  23735766.773        -917.829          52.700    94359235.017 9  23735767.789
      -906.160          59.100
 202570040.443 6                  38547809.469
                        95.408                          39.600



 110116573.082 7  85646250.995 6  20606810.141    20606814.363    20606810.520
  20606814.477       -2909.782       -2263.164          47.800          39.600



 18  1 21 21 24 30.0000000  0 28G14G26R24G21G12G05G29R08R18G23R17R09
                                G02R16G25R07R19G31G16R01G20R14E05E26
                                E24E01S20R15
 128333753.707 6 100000367.64843  24421111.023
  24421114.781       -2935.546       -2287.447          39.000          20.400



 118302015.439 7  92183419.082 7  22512123.742    22512128.664
  22512128.504        2759.845        2150.532          44.200          44.100
  88342443.362 8  22512128.281        2060.921          51.000


 126956046.255 5  98743579.443 4  23741415.633    23741416.418    23741414.762
  23741417.246       -4248.752       -3304.569          35.400          25.200



 120833356.129 7  94155875.77145  22993821.930
  22993824.492        2916.932        2272.943          45.100          31.200



 129342779.866 7 100786647.476 6  24613107.227    24613110.270
  24613110.066       -3315.092       -2583.185          43.000          37.500



 130385201.724 6 101598870.843 6  24811478.469    24811482.402
  24811482.480        1895.492        1477.008          39.600          36.600



 106298518.257 8  82830035.032 8  20227928.633    20227930.746
  20227930.961        -995.840        -775.976          51.400          49.500



 127350736.437 5  99050585.792 6  23781855.539    23781856.074    23781853.855
  23781856.039          70.532          54.862          35.200          39.000



 104389611.247 8  81191944.842 8  19555690.500    19555691.801    19555689.426
  19555691.836        1898.403        1476.539          49.800          48.200



 133363191.712 6 103919385.97643  25378175.742
  25378176.703        1259.837         981.705          40.300          19.900



 106069801.799 8  82498668.795 8  19821654.297    19821654.785    19821652.305
  19821654.992       -2123.038       -1651.248          50.100          48.300



 124805638.074 7  97071060.456 6  23372089.586    23372089.156    23372088.438
  23372089.332        4102.436        3190.791          42.000          39.700



 129481471.958 6 100894667.34543  24639500.961
  24639501.832       -2723.285       -2122.046          41.800          21.800



 104268368.255 7  81097632.085 7  19519257.070    19519257.309    19519255.492
  19519258.477        1620.116        1260.089          43.800          44.300



 113593175.934 8  88514199.567 7  21616051.781    21616056.973
  21616056.805       -2287.373       -1782.367          51.100          46.900
  84826126.505 8  21616058.043       -1708.098          52.800


 130478491.682 6 101483290.803 6  24374481.461    24374484.293    24374479.996
  24374483.301       -2594.516       -2017.938          39.700          36.300



 125343579.986 6  97489461.143 6  23431659.914    23431661.023    23431658.379
  23431660.699        4254.691        3309.177          40.000          38.600



 109669354.214 8  85456654.612 8  20869381.719    20869384.156
  20869383.844        -218.139        -169.975          51.400          48.300



 130887671.359 6 101990390.79242  24907093.563
  24907094.836        3371.100        2626.820          39.600          16.300



 130613539.070 6 101588324.257 5  24433965.914    24433967.691    24433965.074
  24433968.813        2513.653        1955.073          38.100          30.300



 134154227.871 5 104535802.07552  25528707.031
  25528711.148        2994.217                          33.000          13.900



 129371280.962 6 100622069.912 6  24269719.500    24269724.410    24269718.609
  24269723.547       -4181.498       -3252.246          39.200          36.600



 149444209.842 6                  28438288.188
                     -1109.627                          40.200
 111597952.356 6  28438290.105        -828.613          41.400   114509201.279 6
  28438290.902        -850.228          41.300   113053585.423 7  28438291.332
      -839.424          46.600
 114471602.880 8                  21783216.453
                      -473.448                          50.900
  85482034.345 8  21783220.156        -353.543          52.900    87711999.137 8
  21783219.027        -362.775          52.800    86597008.843 9  21783219.855
      -358.155          58.600
 137607071.444 6                  26185755.242
                      2859.793                          40.200
 102758510.817 6  26185768.500        2135.560          38.800   105439174.087 6
  26185768.453        2191.276          39.800   104098830.558 7  26185768.090
      2163.418          44.900
 124768399.422 8                  23742634.180
                     -1208.130                          51.300
  93171259.469 8  23742636.535        -902.173          52.300    95601813.350 8
  23742635.551        -925.705          53.100    94386540.512 9  23742636.453
      -913.937          59.100
 202567178.479 6                  38547262.250
                        95.656                          39.800



 110204119.332 7  85714342.505 6  20623193.805    20623198.070    20623193.480
  20623197.383       -2926.077       -2275.816          47.400          39.500



 18  1 21 21 25  0.0000000  0 28G14G26R24G21G12G05G29R08R18G23R17R09
                                G02R16G25R07R19G31G16R01G20R14E05E26
                                E24E01S20R15
 128421895.241 6 100069049.35843  24437882.945
  24437886.363       -2940.382       -2291.204          38.100          21.100



 118219311.821 7  92118974.699 7  22496385.516    22496390.609
  22496390.684        2753.931        2145.916          44.100          44.400
  88280684.172 8  22496390.461        2056.505          51.100


 127083536.379 5  98842738.478 4  23765257.586    23765259.398    23765256.953
  23765258.816       -4250.456       -3305.942          35.500          25.100



 120745984.030 7  94087793.62745  22977196.133
  22977198.477        2908.186        2266.112          44.200          30.400



 129442271.573 7 100864173.447 6  24632039.906    24632042.664
  24632043.035       -3317.562       -2585.121          42.500          36.300



 130328538.645 6 101554717.796 6  24800695.531    24800699.973
  24800699.844        1882.505        1466.893          39.500          37.500



 106328616.956 8  82853488.563 8  20233655.945    20233658.477
  20233658.320       -1010.221        -787.186          50.900          49.500



 127349006.400 5  99049240.228 6  23781532.063    23781532.699    23781530.145
  23781532.285          45.660          35.507          34.600          38.900



 104332996.892 8  81147911.466 7  19545084.633    19545085.555    19545083.559
  19545086.031        1876.584        1459.570          49.100          47.700



 133325646.187 6 103890129.75643  25371031.656
  25371031.680        1243.735         969.133          40.100          19.900



 106133785.992 8  82548434.282 8  19833610.359    19833612.531    19833610.125
  19833612.629       -2141.915       -1665.933          50.400          48.300



 124682598.595 6  96975363.100 6  23349048.438    23349047.863    23349047.055
  23349047.531        4100.296        3189.116          41.700          39.200



 129563307.872 7 100958435.59643  24655073.391
  24655074.355       -2732.078       -2128.893          42.300          23.800



 104220072.412 7  81060068.659 7  19510215.555    19510216.297    19510215.031
  19510217.531        1600.281        1244.663          44.200          44.400



 113661950.686 8  88567790.274 7  21629139.109    21629144.953
  21629144.430       -2297.253       -1790.071          50.400          47.000
  84877484.269 8  21629145.727       -1715.489          52.700


 130556580.859 6 101544026.837 5  24389068.461    24389071.137    24389067.934
  24389070.621       -2610.798       -2030.631          38.800          35.600



 125216033.323 6  97390258.145 6  23407816.414    23407817.660    23407815.113
  23407816.828        4248.641        3304.482          39.500          38.100



 109676194.360 8  85461984.588 8  20870682.992    20870686.000
  20870685.578        -237.185        -184.820          50.200          48.300



 130786550.172 6 101911595.08543  24887851.133
  24887852.656        3370.320        2626.241          40.100          19.300



 130538394.097 6 101529878.118 4  24419906.797    24419910.023    24419906.309
  24419911.375        2496.571        1941.807          37.500          24.500



 134064392.033 5                  25511612.570
                      2994.885                          33.700



 129496782.395 6 100719682.226 6  24293263.000    24293266.777    24293261.988
  24293266.613       -4185.117       -3255.094          38.600          36.400



 149477688.849 6                  28444658.617
                     -1121.885                          38.400
 111622952.902 6  28444661.301        -837.771          41.500   114534854.019 6
  28444660.926        -859.625          39.700   113078912.066 7  28444662.102
      -848.696          46.500
 114486005.046 8                  21785956.953
                      -486.235                          50.600
  85492789.217 8  21785960.645        -363.099          52.500    87723034.568 8
  21785959.707        -372.577          52.600    86607903.995 9  21785960.445
      -367.831          58.600
 137521275.636 6                  26169428.844
                      2859.939                          39.400
 102694442.491 6  26169442.426        2135.662          41.200   105373434.485 6
  26169441.629        2191.376          40.600   104033926.591 7  26169442.203
      2163.526          46.000
 124804802.833 8                  23749561.352
                     -1218.419                          51.200
  93198443.820 8  23749563.707        -909.860          53.300    95629706.861 8
  23749562.910        -933.591          52.900    94414079.443 9  23749563.820
      -921.722          59.100
 202564312.651 6                  38546718.703
                        95.638                          40.500



 110292152.928 7  85782813.078 6  20639668.055    20639671.785    20639667.379
  20639671.566       -2942.292       -2288.443          47.500          39.300



 18  1 21 21 25 30.0000000  0 28G14G26R24G21G12G05G29R08R18G23R17R09
                                G02R16G25R07R19G31G16R01G20R14E05E26
                                E24E01S20R15
 128510181.133 6 100137843.52243  24454682.984
  24454687.066       -2945.119       -2294.910          38.800          20.400



 118136786.408 7  92054669.196 7  22480681.625    22480686.699
  22480686.945        2747.973        2141.281          44.100          44.300
  88219058.065 8  22480686.605        2052.060          51.100


 127211076.460 5  98941936.273 3  23789109.219    23789109.391    23789107.996
  23789109.512       -4252.088       -3307.188          35.400          23.000



 120658875.158 7  94019916.60745  22960619.672
  22960622.301        2899.359        2259.247          44.300          30.500



 129541837.916 7 100941757.577 6  24650987.141    24650990.410
  24650990.289       -3320.040       -2587.033          42.200          37.700



 130272265.590 6 101510868.683 6  24789986.766    24789991.250
  24789991.027        1869.473        1456.731          39.900          36.200



 106359146.042 8  82877277.461 8  20239465.734    20239468.395
  20239468.375       -1024.526        -798.329          50.900          49.500



 127348021.856 5  99048474.465 6  23781345.852    23781349.273    23781345.105
  23781348.875          20.790          16.174          33.600          38.300



 104277037.489 8  81104387.507 8  19534601.141    19534602.570    19534600.418
  19534603.074        1854.765        1442.588          49.300          48.200



 133288584.209 6 103861250.30343  25363979.102
  25363979.828        1227.599         956.559          38.900          20.900



 106198333.748 8  82598638.091 8  19845672.891    19845674.902    19845672.188
  19845674.781       -2160.584       -1680.463          50.300          48.600



 124559624.820 6  96879716.794 6  23326018.063    23326018.832    23326018.324
  23326019.695        4098.065        3187.393          41.800          40.400



 129645406.798 7 101022408.77543  24670697.414
  24670697.375       -2740.822       -2135.699          42.600          23.600



 104172372.124 7  81022968.453 7  19501286.766    19501286.730    19501285.422
  19501288.047        1580.411        1229.213          44.100          44.500



 113731020.497 8  88621610.879 7  21642282.438    21642288.730
  21642288.301       -2307.044       -1797.695          50.600          47.600
  84929062.353 8  21642289.426       -1722.787          52.300


 130635158.623 6 101605142.897 6  24403746.898    24403749.742    24403746.957
  24403750.117       -2627.033       -2043.272          38.800          37.700



 125088668.760 6  97291196.829 6  23384007.188    23384008.305    23384005.770
  23384007.578        4242.519        3299.725          39.900          38.600



 109683604.828 8  85467758.977 8  20872093.367    20872095.703
  20872095.223        -256.177        -199.622          51.000          48.100



 130685452.948 6 101832818.06043  24868612.211
  24868614.266        3369.523        2625.573          40.400          19.900



 130463762.399 6 101471831.213 4  24405947.148    24405950.227    24405946.426
  24405950.289        2479.429        1928.477          39.500          28.900



 133974535.10115                  25494513.188
                      2995.460                          32.500



 129622390.488 6 100817377.376 5  24316826.297    24316830.641    24316826.109
  24316830.555       -4188.603       -3257.821          37.900          34.800



 149511533.561 6                  28451098.922
                     -1133.990                          38.300
 111648226.569 6  28451101.473        -846.810          40.800   114560786.947 6
  28451101.520        -868.890          41.000   113104515.360 7  28451102.148
      -857.851          46.200
 114500790.139 8                  21788770.438
                      -498.975                          50.800
  85503830.040 8  21788774.266        -372.616          53.000    87734363.407 8
  21788773.047        -382.337          52.200    86619088.829 9  21788773.859
      -377.473          58.700
 137435475.931 6                  26153101.484
                      2860.060                          39.600
 102630371.280 6  26153115.984        2135.758          41.700   105307691.817 6
  26153114.063        2191.475          39.200   103969019.655 7  26153115.031
      2163.617          45.600
 124841514.567 8                  23756547.469
                     -1228.670                          51.500
  93225858.411 8  23756549.648        -917.514          52.500    95657836.618 8
  23756548.852        -941.451          52.400    94441851.621 9  23756549.820
      -929.482          59.000
 202561445.058 6                  38546173.359
                        95.807                          39.700



 110380672.310 7  85851661.475 6  20656233.469    20656237.188    20656232.676
  20656237.270       -2958.412       -2300.978          47.200          40.300



 18  1 21 21 26  0.0000000  0 28G14G26R24G21G12G05G29R08R18G23R17R09
                                G02R16G25R07R19G31G16R01G20R14E05E26
                                E24E01S20R15
 128598608.375 6 100206747.80943  24471510.516
  24471514.293       -2949.837       -2298.553          37.000          19.000



 118054440.625 7  91990503.666 7  22465011.563    22465016.785
  22465017.043        2741.951        2136.585          44.500          44.800
  88157566.111 8  22465016.703        2047.559          51.700


 127338663.733 5  99041170.825 3  23812968.586    23812970.254    23812967.363
  23812968.969       -4253.626       -3308.388          35.600          22.700



 120572032.049 7  93952246.66745  22944094.000
  22944096.195        2890.479        2252.322          44.600          31.100



 129641477.400 7 101019398.744 6  24669947.594    24669950.582
  24669950.438       -3322.516       -2588.974          43.800          37.800



 130216385.291 6 101467325.594 6  24779353.820    24779358.168
  24779357.414        1856.277        1446.453          40.200          37.700



 106390104.249 8  82901400.738 8  20245356.758    20245359.246
  20245359.184       -1038.859        -809.493          50.200          49.300



 127347783.306 5  99048288.967 6  23781301.766    23781304.773    23781302.074
  23781304.465          -4.066          -3.216          34.800          38.500



 104221733.825 8  81061373.569 8  19524241.078    19524242.793    19524240.121
  19524243.070        1832.898        1425.571          49.800          48.900



 133252007.276 6 103832748.79443  25357018.297
  25357019.332        1211.382         943.934          39.400          19.600



 106263441.975 8  82649277.807 8  19857839.688    19857841.984    19857839.102
  19857841.930       -2179.275       -1694.987          50.000          48.200



 124436719.614 7  96784123.881 6  23303003.484    23303003.332    23303003.156
  23303003.754        4095.705        3185.538          42.600          39.900



 129727767.253 7 101086585.74744  24686369.891
  24686369.754       -2749.539       -2142.496          43.400          24.700



 104125269.892 7  80986333.373 7  19492468.047    19492469.250    19492467.641
  19492470.309        1560.395        1213.652          44.100          44.400



 113800384.741 8  88675660.925 7  21655482.391    21655488.293
  21655487.867       -2316.899       -1805.372          50.000          47.400
  84980860.309 8  21655488.695       -1730.151          52.900


 130714221.149 6 101666635.955 5  24418517.289    24418519.383    24418515.941
  24418519.172       -2643.154       -2055.823          37.300          35.800



 124961489.259 6  97192279.422 6  23360232.094    23360232.828    23360230.207
  23360232.492        4236.285        3294.891          40.300          38.000



 109691586.145 8  85473978.178 7  20873611.984    20873614.063
  20873614.098        -275.256        -214.490          50.500          47.900



 130584380.455 6 101754060.32343  24849379.156
  24849380.801        3368.675        2624.951          40.700          19.600



 130389647.857 6 101414186.584 4  24392080.164    24392084.574    24392079.324
  24392085.219        2462.121        1914.967          36.500          28.400



 133884657.893 5                  25477410.688
                      2996.188                          34.800



 129748103.232 6 100915153.973 6  24340409.703    24340413.754    24340410.336
  24340413.906       -4192.090       -3260.523          39.600          36.300



 149545743.080 6                  28457609.063
                     -1146.177                          38.400
 111673772.652 6  28457611.203        -855.915          40.100   114586999.452 6
  28457611.391        -878.243          40.500   113130394.654 7  28457612.035
      -867.075          45.900
 114515957.424 8                  21791656.602
                      -511.738                          51.100
  85515156.261 8  21791660.578        -382.141          53.100    87745985.093 8
  21791659.590        -392.108          52.500    86630562.787 9  21791660.184
      -387.132          58.700
 137349673.317 6                  26136774.109
                      2860.095                          40.300
 102566297.893 6  26136787.176        2135.781          40.000   105241946.950 6
  26136787.551        2191.499          40.600   103904110.520 7  26136787.152
      2163.648          45.500
 124878534.690 8                  23763592.234
                     -1238.974                          51.300
  93253503.297 8  23763594.457        -925.206          52.400    95686202.677 8
  23763593.566        -949.344          52.600    94469857.092 9  23763594.563
      -937.276          58.900
 202558576.627 6                  38545630.266
                        95.563                          41.200



 110469675.257 7  85920885.977 6  20672889.109    20672893.090    20672888.199
  20672893.113       -2974.557       -2313.544          47.000          39.600



 18  1 21 21 26 30.0000000  0 28G14G26R24G21G12G05G29R08R18G23R17R09
                                G02R16G25R07R19G31G16R01G20R14E05E26
                                E24E01S20R15
 128687173.721 6 100275759.75043  24488364.773
  24488367.965       -2954.416       -2302.135          38.100          19.600



 117972275.886 7  91926479.207 7  22449376.617    22449381.180
  22449381.695        2735.891        2131.862          44.100          45.000
  88096209.339 8  22449381.352        2043.034          51.500


 127466295.325 5  99140439.839 4  23836835.320    23836835.633    23836833.980
  23836836.109       -4255.068       -3309.492          35.300          25.300



 120485456.523 7  93884785.24245  22927619.383
  22927621.398        2881.506        2245.332          44.900          31.300



 129741190.352 7 101097097.123 6  24688922.219    24688925.336
  24688925.742       -3324.918       -2590.846          42.100          37.600



 130160899.775 6 101424090.152 6  24768795.859    24768799.137
  24768799.504        1843.103        1436.187          40.900          36.600



 106421490.270 8  82925857.382 8  20251329.219    20251331.707
  20251331.566       -1053.091        -820.592          50.900          49.300



 127348290.593 5  99048683.529 6  23781396.133    23781398.727    23781396.324
  23781398.234         -28.934         -22.526          33.100          37.700



 104167087.229 8  81018870.668 8  19514003.648    19514005.680    19514002.691
  19514005.848        1810.967        1408.527          49.800          48.900



 133215916.177 6 103804625.87143  25350150.000
  25350151.754        1195.185         931.322          38.800          19.300



 106329107.620 8  82700351.103 8  19870110.859    19870112.867    19870110.273
  19870112.898       -2197.803       -1709.404          50.600          48.000



 124313885.756 7  96688586.441 6  23279999.391    23279999.695    23279998.945
  23280000.188        4093.280        3183.658          42.200          40.400



 129810386.854 7 101150964.66944  24702091.656
  24702091.828       -2758.148       -2149.208          43.000          24.800



 104078768.380 7  80950165.524 7  19483763.383    19483763.969    19483762.039
  19483764.875        1540.330        1198.040          44.500          44.700



 113870042.607 8  88729939.762 8  21668737.555    21668743.516
  21668743.270       -2326.646       -1812.969          51.100          48.000
  85032877.532 8  21668744.039       -1737.431          52.500


 130793765.018 6 101728503.357 6  24433376.773    24433379.121    24433376.246
  24433378.703       -2659.149       -2068.244          37.800          36.900



 124834497.190 6  97093507.821 6  23336492.141    23336493.871    23336491.547
  23336493.578        4230.015        3290.000          40.000          37.900



 109700137.916 8  85480641.878 7  20875239.172    20875241.641
  20875241.184        -294.272        -229.305          51.200          47.900



 130483334.050 6 101675322.81043  24830150.742
  24830151.656        3367.754        2624.243          41.200          19.000



 130316054.045 6 101356946.941 5  24378314.805    24378318.605    24378313.379
  24378318.785        2444.700        1901.464          38.100          31.900



 133794764.418 5 104255709.69042  25460305.102
  25460308.730        2996.731        2335.130          33.700          15.600



 129873918.495 6 101013010.324 5  24364013.125    24364017.191    24364012.938
  24364016.328       -4195.503       -3263.189          40.300          35.600



 149580316.173 6                  28464188.375
                     -1158.276                          38.700
 111699590.172 6  28464190.586        -864.943          40.100   114613490.491 6
  28464189.930        -887.506          41.100   113156548.937 7  28464191.121
      -876.224          46.200
 114531506.082 8                  21794615.578
                      -524.448                          50.500
  85526767.285 8  21794619.344        -391.641          53.100    87757899.007 8
  21794618.359        -401.848          52.700    86642325.249 9  21794618.973
      -396.738          58.700
 137263868.753 6                  26120445.758
                      2860.134                          41.200
 102502223.051 6  26120459.477        2135.819          39.900   105176200.573 6
  26120458.398        2191.536          39.900   103839199.916 7  26120458.961
      2163.675          45.300
 124915863.235 8                  23770695.570
                     -1249.267                          51.000
  93281378.497 8  23770697.926        -932.891          52.700    95714805.056 8
  23770696.941        -957.229          52.800    94498095.885 9  23770697.926
      -945.066          58.900
 202555709.007 6                  38545080.594
                        95.617                          40.900



 110559160.742 7  85990485.754 6  20689634.406    20689638.762    20689634.434
  20689638.828       -2990.639       -2326.021          47.200          40.400



 18  1 21 21 27  0.0000000  0 28G14G26R24G21G12G05G29R08R18G23R17R09
                                G02R16G25R07R19G31G16R01G20R14E05E26
                                E24E01S20R15
 128775874.160 6 100344876.92943  24505243.633
  24505247.133       -2958.774       -2305.538          37.300          18.600



 117890293.603 7  91862596.915 7  22433775.070    22433780.477
  22433780.352        2729.825        2127.137          43.800          43.800
  88034988.806 8  22433780.070        2038.507          50.500


 127593968.375 6  99239741.106 4  23860711.758    23860711.184    23860710.535
  23860711.660       -4256.372       -3310.545          36.100          25.700



 120399150.729 7  93817533.99845  22911195.445
  22911197.969        2872.528        2238.325          45.300          31.400



 129840975.603 7 101174851.801 6  24707911.188    24707914.449
  24707914.891       -3327.324       -2592.717          43.600          37.200



 130105813.097 6 101381165.491 6  24758312.188    24758315.664
  24758316.184        1829.790        1425.809          40.700          37.400



 106453302.847 8  82950646.410 8  20257382.742    20257385.762
  20257385.688       -1067.248        -831.627          51.800          49.100



 127349543.880 5  99049658.268 6  23781631.703    23781632.531    23781631.074
  23781631.793         -53.794         -41.831          33.600          37.800



 104113098.448 8  80976879.398 8  19503889.820    19503891.668    19503888.391
  19503892.117        1789.023        1391.476          48.800          48.900



 133180312.263 6 103776882.54143  25343375.719
  25343376.406        1178.965         918.677          39.400          20.900



 106395327.463 8  82751855.425 7  19882485.906    19882487.199    19882484.383
  19882487.242       -2216.193       -1723.703          50.400          47.700



 124191125.945 7  96593106.590 6  23257009.695    23257010.844    23257010.074
  23257011.059        4090.811        3181.723          42.600          40.000



 129893263.525 7 101215543.86743  24717863.313
  24717862.488       -2766.642       -2155.810          43.200          22.600



 104032870.540 7  80914467.219 7  19475170.766    19475171.594    19475170.125
  19475173.023        1520.215        1182.382          44.000          44.800



 113939993.454 8  88784446.898 7  21682048.820    21682054.668
  21682054.824       -2336.373       -1820.549          50.800          47.600
  85085113.533 8  21682055.418       -1744.693          52.400


 130873785.895 6 101790741.819 6  24448324.094    24448327.813    24448323.684
  24448327.656       -2675.003       -2080.583          37.600          37.600



 124707694.938 6  96994883.822 6  23312787.953    23312788.340    23312785.832
  23312788.121        4223.674        3285.102          39.400          37.100



 109709260.485 8  85487750.369 7  20876975.359    20876977.477
  20876977.254        -313.249        -244.088          50.600          47.800



 130382314.301 6 101596606.21143  24810926.805
  24810928.730        3366.888        2623.519          40.800          20.100



 130242984.597 6 101300115.186 5  24364645.922    24364646.980    24364643.676
  24364648.684        2427.195        1887.803          39.600          32.200



 133704857.357 5 104185652.19142  25443196.461
  25443199.605        2997.083        2335.371          32.800          14.800



 129999834.209 6 101110944.757 5  24387634.906    24387638.242    24387635.070
  24387638.492       -4198.801       -3265.707          38.800          35.100



 149615251.689 6                  28470836.328
                     -1170.359                          38.100
 111725678.417 6  28470839.008        -873.969          41.200   114640259.285 6
  28470838.023        -896.771          40.600   113182977.454 7  28470839.125
      -885.370          46.100
 114547435.320 8                  21797646.711
                      -537.057                          51.400
  85538662.496 8  21797650.723        -401.048          52.400    87770104.535 8
  21797649.691        -411.511          52.700    86654375.621 9  21797650.227
      -406.280          58.800
 137178063.260 6                  26104117.578
                      2860.219                          39.800
 102438147.484 6  26104131.711        2135.881          41.400   105110453.516 6
  26104129.832        2191.601          40.100   103774288.606 7  26104131.051
      2163.737          46.300
 124953500.179 8                  23777857.617
                     -1259.508                          51.500
  93309483.996 8  23777859.914        -940.541          53.100    95743643.742 8
  23777859.070        -965.080          53.100    94526567.971 9  23777859.969
      -952.806          58.900
 202552841.947 6                  38544534.828
                        95.516                          40.600



 110649126.350 7  86060459.024 6  20706470.117    20706474.902    20706469.793
  20706474.543       -3006.527       -2338.414          46.600          39.400



 18  1 21 21 27 30.0000000  0 28G14G26R24G21G12G05G29R08R18G23R17R09
                                G02R16G25R07R19G31G16R01G20R14E05E26
                                E24E01S20R15
 128864706.947 6 100414097.26243  24522147.617
  24522151.141       -2963.184       -2308.976          37.500          19.300



 117808495.214 7  91798857.910 7  22418209.578    22418214.836
  22418214.754        2723.650        2122.325          44.700          44.300
  87973905.596 8  22418214.352        2033.897          51.000


 127721679.959 5  99339072.344 3  23884592.477    23884593.273    23884592.078
  23884594.570       -4257.598       -3311.498          34.700          22.100



 120313117.199 7  93750494.89445  22894823.984
  22894825.781        2863.374        2231.200          44.900          31.100



 129940831.717 7 101252661.751 6  24726912.188    24726916.004
  24726916.004       -3329.677       -2594.549          43.900          36.500



 130051127.384 6 101338553.275 6  24747906.492    24747910.277
  24747909.836        1816.386        1415.357          40.000          37.700



 106485540.358 8  82975766.548 8  20263517.078    20263520.414
  20263520.246       -1081.391        -842.647          50.400          49.700



 127351542.819 5  99051212.998 6  23782004.625    23782006.336    23782004.465
  23782005.551         -78.671         -61.184          33.700          36.900



 104059769.049 8  80935401.002 8  19493899.320    19493901.082    19493898.480
  19493901.734        1767.054        1374.358          49.200          49.300



 133145196.351 6 103749519.45743  25336692.328
  25336694.250        1162.656         905.976          37.800          18.300



 106462098.153 8  82803788.196 8  19894963.984    19894964.902    19894962.461
  19894965.199       -2234.510       -1737.956          50.300          48.000



 124068443.156 7  96497686.646 6  23234036.398    23234036.598    23234035.016
  23234036.410        4088.165        3179.663          42.500          40.200



 129976395.434 7 101280321.97144  24733682.781
  24733682.648       -2775.162       -2162.460          43.400          25.800



 103987578.795 7  80879240.300 7  19466693.242    19466693.164    19466691.547
  19466694.535        1499.939        1166.601          44.200          45.000



 114010236.553 8  88839181.767 7  21695416.023    21695421.488
  21695421.641       -2346.116       -1828.141          50.800          47.800
  85137567.784 8  21695422.059       -1751.972          52.100


 130954280.317 6 101853348.560 6  24463361.031    24463364.445    24463360.387
  24463364.070       -2690.706       -2092.759          36.300          36.700



 124581085.385 6  96896409.699 6  23289119.078    23289119.957    23289117.660
  23289119.227        4217.179        3280.029          40.100          37.000



 109718953.508 8  85495303.354 7  20878820.039    20878822.039
  20878821.875        -332.292        -258.931          51.600          47.600



 130281322.424 6 101517911.15943  24791709.180
  24791710.941        3365.945        2622.828          41.300          18.300



 130170443.044 6 101243693.966 5  24351074.734    24351077.707    24351074.012
  24351078.957        2409.510        1874.079          38.300          31.900



 133614939.699 5 104115586.48242  25426085.125
  25426088.473        2997.394        2335.628          34.300          16.300



 130125848.137 6 101208955.611 5  24411273.898    24411277.961    24411274.063
  24411277.875       -4202.028       -3268.232          39.700          34.000



 149650548.472 6                  28477553.461
                     -1182.385                          39.900
 111752036.396 6  28477556.031        -882.948          40.900   114667304.875 6
  28477554.297        -905.983          40.000   113209679.238 7  28477556.121
      -894.459          46.100
 114563744.385 8                  21800750.281
                      -549.751                          50.700
  85550841.345 8  21800754.090        -410.525          52.700    87782601.097 8
  21800753.152        -421.237          53.000    86666713.330 9  21800753.598
      -415.888          58.800
 137092257.883 6                  26087790.070
                      2860.182                          41.100
 102374072.052 6  26087803.836        2135.853          41.900   105044706.523 6
  26087801.539        2191.568          40.500   103709377.391 7  26087802.691
      2163.715          46.100
 124991445.594 8                  23785078.602
                     -1269.809                          51.400
  93337819.848 8  23785080.750        -948.231          53.200    95772718.789 8
  23785079.953        -972.965          52.900    94555273.427 9  23785080.820
      -960.606          59.000
 202549974.771 6                  38543997.844
                        95.446                          40.800



 110739570.096 7  86130804.120 6  20723395.930    20723400.414    20723395.137
  20723400.094       -3022.505       -2350.817          46.700          39.500



 18  1 21 21 28  0.0000000  0 28G14G26R24G21G12G05G29R08R18G23R17R09
                                G02R16G25R07R19G31G16R01G20R14E05E26
                                E24E01S20R15
 128953668.934 6 100483418.28243  24539076.859
  24539079.105       -2967.454       -2312.301          39.000          18.300



 117726881.950 7  91735263.161 7  22402679.320    22402684.070
  22402684.348        2717.458        2117.501          45.400          43.800
  87912960.623 8  22402683.773        2029.270          50.700


 127849427.261 5  99438431.321 4  23908483.242    23908483.875    23908482.137
  23908484.352       -4258.759       -3312.388          35.800          24.500



 120227358.168 7  93683669.69045  22878504.719
  22878506.785        2854.189        2224.048          45.300          31.800



 130040758.860 6 101330527.051 6  24745928.109    24745931.145
  24745931.188       -3331.998       -2596.365          41.700          37.700



 129996844.467 6 101296254.913 6  24737576.914    24737580.230
  24737580.047        1802.908        1404.862          41.500          36.800



 106518201.239 8  83001216.577 8  20269732.492    20269735.590
  20269735.473       -1095.510        -853.641          50.200          49.600



 127354287.329 5  99053347.560 6  23782517.773    23782518.473    23782519.492
  23782518.234        -103.488         -80.449          34.500          36.700



 104007099.297 8  80894435.641 8  19484031.938    19484034.055    19484031.449
  19484034.605        1745.036        1357.253          48.900          48.900



 133110569.429 6 103722537.41543  25330102.586
  25330104.406        1146.341         893.270          38.100          18.300



 106529416.493 8  82856146.894 8  19907543.133    19907544.770    19907542.313
  19907544.938       -2252.728       -1752.116          50.000          48.100



 123945839.908 7  96402328.556 6  23211076.922    23211076.809    23211075.305
  23211077.145        4085.484        3177.569          42.000          40.600



 130059779.559 7 101345296.60944  24749550.203
  24749549.934       -2783.544       -2168.997          43.200          24.100



 103942895.621 7  80844486.699 7  19458327.805    19458328.434    19458326.813
  19458329.418        1479.582        1150.788          44.500          44.600



 114080770.968 8  88894143.642 7  21708837.906    21708844.258
  21708844.316       -2355.832       -1835.708          51.200          47.800
  85190239.576 8  21708844.617       -1759.221          52.000


 131035244.292 6 101916320.577 5  24478486.727    24478489.133    24478485.730
  24478487.957       -2706.320       -2104.940          37.000          35.500



 124454670.674 6  96798087.189 6  23265486.578    23265488.938    23265486.688
  23265488.520        4210.683        3274.932          39.000          37.500



 109729217.182 8  85503301.013 8  20880772.633    20880774.844
  20880774.887        -351.330        -273.761          51.400          48.000



 130180359.296 6 101439238.58843  24772496.039
  24772498.090        3364.969        2622.055          40.200          19.300



 130098432.828 6 101187685.997 5  24337604.039    24337607.293    24337603.668
  24337608.574        2391.732        1860.231          37.800          31.900



 133525013.910 6 104045514.30942  25408973.047
  25408975.934        2997.637        2335.845          36.500          16.300



 130251958.172 6 101307041.285 5  24434932.367    24434935.305    24434930.770
  24434934.496       -4205.195       -3270.693          38.900          33.500



 149686205.147 6                  28484338.086
                     -1194.322                          38.700
 111778663.168 6  28484341.609        -891.865          40.900   114694626.225 6
  28484339.078        -915.128          39.000   113236653.305 7  28484340.910
      -903.496          46.000
 114580432.199 8                  21803925.703
                      -562.344                          51.000
  85563303.031 8  21803930.023        -419.935          52.900    87795387.872 8
  21803928.852        -430.888          52.500    86679337.553 9  21803929.426
      -425.411          58.900
 137006453.406 6                  26071461.805
                      2860.094                          41.600
 102309997.283 6  26071475.398        2135.785          41.200   104978960.215 6
  26071474.367        2191.500          40.600   103644466.848 7  26071474.391
      2163.642          46.000
 125029699.281 8                  23792358.070
                     -1280.101                          51.200
  93366385.904 8  23792360.129        -955.925          53.000    95802030.051 8
  23792359.332        -980.858          53.100    94584212.082 9  23792360.262
      -968.393          58.900
 202547105.390 6                  38543443.734
                        95.484                          40.900



 110830490.527 7  86201520.014 6  20740410.609    20740414.574    20740409.348
  20740414.168       -3038.316       -2363.138          46.900          39.800



 18  1 21 21 28 30.0000000  0 28G14G26R24G21G12G05G29R08R18G23R17R09
                                G02R16G25R07R19G31G16R01G20R14E05E26
                                E24E01S20R15
 129042756.925 6 100552837.44743  24556030.031
  24556032.754       -2971.638       -2315.568          38.500          18.600



 117645455.283 7  91671813.781 7  22387184.133    22387189.754
  22387189.652        2711.191        2112.615          47.000          44.100
  87852154.973 8  22387189.484        2024.592          51.000


 127977207.601 5                  23932377.969    23932379.414    23932378.156
                     -4259.866                          35.400



 120141875.719 7  93617060.00245  22862238.289
  22862239.973        2844.930        2216.825          45.900          32.100



 130140756.117 6 101408446.977 6  24764956.484    24764960.172
  24764960.410       -3334.404       -2598.234          40.700          37.200



 129942967.304 6 101254272.747 6  24727324.445    24727327.457
  24727326.824        1789.299        1394.263          41.900          36.700



 106551284.125 8  83026995.454 8  20276028.156    20276031.230
  20276031.117       -1109.564        -864.596          50.300          49.600



 127357777.220 5  99056061.992 6  23783171.094    23783169.375    23783168.941
  23783168.547        -128.308         -99.814          35.400          36.600



 103955090.258 8  80853984.194 8  19474288.773    19474291.473    19474288.637
  19474291.758        1722.975        1340.091          48.600          48.800



 133076432.501 6 103695937.24343  25323607.492
  25323608.723        1129.983         880.531          39.400          19.000



 106597279.300 8  82908929.092 7  19920225.664    19920226.949    19920224.258
  19920227.055       -2270.838       -1766.208          50.500          47.500



 123823319.103 6  96307034.579 6  23188131.367    23188132.816    23188130.570
  23188132.168        4082.660        3175.404          40.900          39.600



 130143414.181 7 101410466.44944  24765464.977
  24765464.672       -2791.833       -2175.452          42.800          24.600



 103898823.719 7  80810208.555 7  19450077.273    19450077.859    19450076.398
  19450079.273        1459.124        1134.894          44.300          44.300



 114151596.016 8  88949331.987 7  21722315.641    21722321.535
  21722321.703       -2365.530       -1843.273          50.400          47.800
  85243128.400 8  21722321.535       -1766.471          51.500


 131116674.090 6 101979654.858 6  24493698.477    24493700.754    24493697.598
  24493700.141       -2721.815       -2116.967          37.700          36.400



 124328453.675 6  96699918.404 6  23241893.469    23241893.457    23241891.230
  23241893.434        4204.038        3269.774          39.000          36.900



 109740051.375 8  85511743.235 7  20882834.633    20882837.113
  20882836.703        -370.340        -288.583          51.800          47.300



 130079425.628 6 101360589.03143  24753288.555
  24753291.078        3363.949        2621.250          40.100          18.600



 130026957.416 6 101132094.036 5  24324233.125    24324235.941    24324232.520
  24324237.039        2373.822        1846.312          37.600          30.100



 133435083.081 5 103975438.40242  25391860.250
  25391863.141        2997.730        2335.849          35.300          17.800



 130378162.335 6 101405200.064 5  24458607.648    24458611.285    24458607.227
  24458610.160       -4208.288       -3273.105          38.900          32.800



 149722220.685 6                  28491191.500
                     -1206.277                          38.900
 111805557.883 6  28491194.855        -900.787          41.800   114722222.562 6
  28491192.746        -924.296          38.700   113263898.827 7  28491194.539
      -912.538          45.700
 114597498.017 8                  21807173.195
                      -574.948                          50.600
  85576046.987 8  21807177.355        -429.339          52.800    87808464.283 8
  21807176.184        -440.547          53.000    86692247.744 9  21807176.844
      -434.949          58.800
 136920650.866 6                  26055134.063
                      2860.007                          40.600
 102245923.928 6  26055148.086        2135.722          41.100   104913215.398 6
  26055145.977        2191.438          39.900   103579557.767 7  26055146.973
      2163.580          46.000
 125068261.240 8                  23799696.219
                     -1290.367                          51.000
  93395182.161 8  23799698.559        -963.587          53.100    95831577.514 8
  23799697.480        -988.719          53.100    94613383.942 9  23799698.527
      -976.152          58.900
 202544233.133 6                  38542891.031
                        95.376                          41.000



 110921885.201 7  86272604.742 6  20757513.672    20757517.688    20757512.293
  20757517.324       -3054.132       -2375.436          45.900          38.900



 18  1 21 21 29  0.0000000  0 28G14G26R24G21G12G05G29R08R18G23R17R09
                                G02R16G25R07R19G31G16R01G20R14E05E26
                                E24E01S20R15
 129131968.273 6 100622352.76842  24573006.789
  24573009.617       -2975.626       -2318.676          37.800          17.400



 117564216.734 7  91608511.010 7  22371725.188    22371730.816
  22371730.875        2704.904        2107.717          46.900          44.600
  87791489.825 8  22371730.066        2019.894          51.200


 128105018.247 6  99637217.313 4  23956279.328    23956280.988    23956279.398
  23956281.113       -4260.815       -3313.999          36.900          24.300



 120056672.240 7  93550667.69045  22846024.102
  22846026.574        2835.601        2209.565          45.400          31.800



 130240822.301 6 101486420.592 6  24783998.828    24784002.160
  24784002.559       -3336.634       -2599.970          40.600          37.500



 129889498.133 6 101212608.468 6  24717148.922    24717152.055
  24717152.742        1775.709        1383.668          40.000          36.500



 106584787.716 8  83053102.144 8  20282403.531    20282406.555
  20282406.293       -1123.555        -875.494          50.400          49.500



 127362012.615 5  99059356.174 6  23783961.172    23783960.723    23783960.191
  23783960.652        -153.169        -119.126          35.400          37.600



 103903743.325 8  80814047.696 8  19464670.195    19464672.328    19464669.473
  19464672.449        1700.912        1322.928          48.300          48.100



 133042787.165 6 103669720.06543  25317205.023
  25317206.563        1113.579         867.711          38.000          18.300



 106665683.479 8  82962132.334 7  19933008.344    19933009.977    19933007.523
  19933010.191       -2288.849       -1780.211          50.100          47.900



 123700883.781 6  96211807.142 6  23165204.109    23165204.758    23165203.078
  23165204.781        4079.799        3173.172          41.200          40.500



 130227297.175 7 101475829.82844  24781427.250
  24781427.398       -2800.081       -2181.882          42.400          24.400



 103855365.951 7  80776408.092 7  19441942.125    19441942.281    19441941.250
  19441943.695        1438.668        1118.959          44.400          44.700



 114222711.074 8  89004746.301 7  21735848.422    21735854.539
  21735854.426       -2375.153       -1850.765          50.000          47.900
  85296233.783 8  21735854.375       -1773.650          51.700


 131198565.889 6 102043348.467 5  24508996.406    24508999.875    24508996.465
  24508998.762       -2737.144       -2128.900          38.100          34.600



 124202437.086 6  96601905.488 6  23218335.664    23218336.012    23218333.660
  23218336.047        4197.318        3264.570          38.800          37.100



 109751456.209 8  85520630.111 7  20885005.117    20885007.383
  20885007.297        -389.359        -303.401          52.100          47.800



 129978522.697 6 101281963.34943  24734087.789
  24734089.551        3362.923        2620.482          40.200          18.300



 129956021.064 6 101076921.271 4  24310963.266    24310965.590    24310961.957
  24310966.430        2355.824        1832.336          39.200          29.200



 133345149.935 6 103905360.58842  25374746.375
  25374748.910        2997.742        2335.938          37.400          16.300



 130504458.860 6 101503430.739 6  24482301.438    24482303.559    24482299.605
  24482303.551       -4211.346       -3275.500          38.900          36.100



 149758593.980 6                  28498113.984
                     -1218.177                          40.300
 111832719.764 6  28498115.645        -909.675          40.400   114750093.027 6
  28498115.738        -933.410          40.000   113291414.999 7  28498116.227
      -921.542          46.100
 114614941.138 8                  21810492.672
                      -587.500                          50.700
  85589072.708 8  21810496.684        -438.722          53.000    87821829.801 8
  21810495.371        -450.158          53.100    86705443.357 9  21810496.117
      -444.437          58.700
 136834851.428 6                  26038806.828
                      2859.892                          41.500
 102181852.915 7  26038821.199        2135.633          42.100   104847473.011 6
  26038819.230        2191.342          39.800   103514651.069 7  26038820.281
      2163.485          46.500
 125107131.641 8                  23807093.055
                     -1300.641                          51.300
  93424208.747 8  23807095.141        -971.259          53.300    95861361.321 8
  23807094.297        -996.596          52.800    94642789.140 9  23807095.094
      -983.927          59.000
 202541356.450 6                  38542349.094
                        95.595                          41.700



 111013752.553 7  86344057.129 6  20774704.320    20774709.617    20774704.934
  20774709.715       -3069.826       -2387.665          46.300          39.600



